     2.11           OBSERVATION DATA    M (MIXED)           RINEX VERSION / TYPE
teqc  2011Oct11     IGN-E (SPG)         20150127 15:00:48UTCPGM / RUN BY / DATE
Linux 2.4.21-27.ELsmp|Opteron|gcc -static|Linux x86_64|=+   COMMENT
BIT 2 OF LLI FLAGS DATA COLLECTED UNDER A/S CONDITION       COMMENT
VALE                                                        MARKER NAME
13439M001                                                   MARKER NUMBER
Programas GeodesicosInstituto Geografico Nacional           OBSERVER / AGENCY
1700071             LEICA GR10          3.03/6.214          REC # / TYPE / VERS
10190012            LEIAR25.R3      LEIT                    ANT # / TYPE
  4929534.0457   -29050.6755  4033709.9250                  APPROX POSITION XYZ
        3.0390        0.0000        0.0000                  ANTENNA: DELTA H/E/N
     1     1                                                WAVELENGTH FACT L1/2
     8    L1    L2    L5    C1    C2    P2    S1    S2      # / TYPES OF OBSERV
     5.0000                                                 INTERVAL
Forced Modulo Decimation to 5 seconds                       COMMENT
DefaultJobName                                              COMMENT
DefaultUserDiscription                                      COMMENT
Project creator:                                            COMMENT
 SNR is mapped to RINEX snr flag value [0-9]                COMMENT
  L1 & L2: min(max(int(snr_dBHz/6), 0), 9)                  COMMENT
  2015     1    27    14     0    0.0000000     GPS         TIME OF FIRST OBS
    15                                                      LEAP SECONDS
                                                            END OF HEADER
 15  1 27 14  0  0.0000000  0 20G30G06G07G13G02G28G23G09G10G20G05R14
                                R05R21R13R19R03R20R04R15
 107080285.854 8  83439274.825 8  79962652.191 8  20376666.720    20376666.900
  20376666.100          50.550          49.550
 122832010.194 7  95713242.934 7  91725185.740 8  23374165.040    23374169.220
  23374168.300          46.650          44.650
 111112928.809 8  86581574.706 7                  21144061.760    21144059.220
  21144058.720          50.000          46.800
 121902619.895 7  94989110.03246                  23197280.520
  23197279.660          47.550          37.650
 113446072.352 8  88399536.43147                  21588064.840
  21588060.340          49.650          45.550
 127298381.997 7  99193649.18045                  24224029.660
  24224033.800          44.300          34.100
 134236079.641 7 104599492.08645                  25544285.880
  25544283.480          43.700          31.100
 120699720.683 8  94051750.608 7  90132935.836 8  22968384.800    22968384.940
  22968384.560          48.000          45.950
 108049113.652 8  84194131.88847                  20561056.760
  20561054.180          49.550          46.650
 123230432.571 7  96023662.74846                  23449984.340
  23449983.000          47.250          37.050
 113666714.757 8  88571480.016 7                  21630044.160    21630042.320
  21630041.580          49.750          46.850
 104153736.968 7  81008554.065 7                  19538936.160    19538944.040
  19538943.380          43.100          42.050
 123339768.547 7  95930966.505 6                  23073248.000    23073254.280
  23073253.520          46.200          41.500
 131483119.207 7 102264686.831 5                  24570765.040    24570770.640
  24570769.220          42.150          34.850
 111054774.272 7  86376035.728 7                  20796962.380    20796967.700
  20796966.080          43.050          45.000
 126804679.034 7  98625851.921 6                  23704802.380    23704809.080
  23704807.140          43.400          38.150
 110495031.721 7  85940605.004 7                  20641395.600    20641398.100
  20641396.800          47.950          45.650
 124779279.981 6  97050582.756 6                  23334354.280    23334362.340
  23334359.940          41.700          41.000
 106053947.621 8  82486445.232 7                  19804815.880    19804817.460
  19804816.200          49.000          46.250
 119852095.898 7  93218430.222 6                  22428643.280    22428653.900
  22428652.120          45.600          40.600
 15  1 27 14  0  5.0000000  0 20G30G06G07G13G02G28G23G09G10G20G05R14
                                R05R21R13R19R03R20R04R15
 107078413.049 8  83437815.494 8  79961253.670 8  20376310.340    20376310.500
  20376309.720          50.600          49.600
 122849442.529 7  95726826.531 7  91738203.363 8  23377482.320    23377486.520
  23377485.640          46.850          44.650
 111121288.517 8  86588088.762 7                  21145652.560    21145650.020
  21145649.520          49.950          46.900
 121889868.207 7  94979173.66046                  23194853.940
  23194853.060          47.800          37.300
 113453084.041 8  88405000.07047                  21589399.120
  21589394.640          49.650          45.250
 127283658.215 7  99182176.18345                  24221227.740
  24221231.880          44.550          31.100
 134250016.534 7 104610352.00144                  25546938.020
  25546935.620          43.700          29.700
 120712172.237 8  94061453.098 7  90142234.081 8  22970754.240    22970754.400
  22970754.060          48.050          45.700
 108056505.821 8  84199892.01247                  20562463.420
  20562460.860          49.700          46.450
 123246869.923 7  96036471.05146                  23453112.280
  23453110.940          47.150          37.700
 113655125.160 8  88562449.169 7                  21627838.720    21627836.860
  21627836.140          49.950          46.800
 104144944.794 7  81001715.704 7                  19537286.780    19537294.680
  19537294.000          43.100          42.400
 123322888.130 7  95917837.296 6                  23070090.180    23070096.500
  23070095.760          45.350          41.250
 131474438.390 6 102257935.118 5                  24569142.840    24569148.640
  24569147.040          41.600          35.300
 111067682.714 7  86386075.621 7                  20799379.720    20799385.000
  20799383.400          43.050          45.150
 126820985.282 7  98638534.500 6                  23707850.700    23707857.440
  23707855.520          43.800          38.400
 110503852.007 7  85947465.220 7                  20643043.320    20643045.840
  20643044.520          47.750          45.900
 124783689.964 6  97054012.738 6                  23335178.980    23335187.060
  23335184.720          41.500          41.300
 106046468.840 8  82480628.394 7                  19803419.240    19803420.840
  19803419.580          48.750          46.400
 119830058.893 7  93201290.354 6                  22424519.360    22424529.980
  22424528.160          45.350          40.500
 15  1 27 14  0 10.0000000  0 20G30G06G07G13G02G28G23G09G10G20G05R14
                                R05R21R13R19R03R20R04R15
 107076556.894 8  83436369.144 8  79959867.584 8  20375957.120    20375957.280
  20375956.500          50.600          49.650
 122866879.430 7  95740413.690 7  91751224.386 8  23380800.500    23380804.660
  23380803.860          46.750          44.350
 111129661.281 8  86594612.995 7                  21147245.840    21147243.320
  21147242.800          49.900          46.750
 121877121.582 7  94969241.23846                  23192428.320
  23192427.400          47.800          38.100
 113460111.004 8  88410475.61347                  21590736.300
  21590731.840          49.450          45.600
 127268936.094 7  99170704.46445                  24218426.140
  24218430.200          44.750          32.250
 134263954.512 7 104621212.72045                  25549590.400
  25549587.820          43.150          30.900
 120724627.328 7  94071158.357 7  90151534.917 8  22973124.320    22973124.560
  22973124.200          47.400          45.750
 108063911.083 8  84205662.34047                  20563872.580
  20563870.040          49.650          46.400
 123263313.570 7  96049284.25446                  23456241.400
  23456240.140          47.200          38.050
 113643544.536 8  88553425.304 7                  21625634.980    21625633.160
  21625632.400          49.850          46.650
 104136174.670 7  80994894.494 7                  19535641.520    19535649.460
  19535648.720          43.200          42.350
 123306008.061 7  95904708.377 6                  23066932.420    23066938.760
  23066938.020          45.400          41.350
 131465776.204 6 102251197.881 6                  24567524.060    24567529.960
  24567528.400          41.350          36.050
 111080609.507 7  86396129.791 7                  20801800.440    20801805.780
  20801804.160          43.100          45.450
 126837299.297 7  98651223.157 6                  23710900.400    23710907.200
  23710905.320          43.550          37.550
 110512684.024 7  85954334.557 7                  20644693.220    20644695.740
  20644694.420          47.950          46.050
 124788120.155 6  97057458.450 6                  23336007.460    23336015.580
  23336013.300          41.150          41.200
 106039000.044 8  82474819.326 7                  19802024.500    19802026.060
  19802024.820          48.900          46.400
 119808029.666 7  93184156.527 6                  22420396.840    22420407.420
  22420405.620          45.150          40.650
 15  1 27 14  0 15.0000000  0 20G30G06G07G13G02G28G23G09G10G20G05R14
                                R05R21R13R19R03R20R04R15
 107074715.472 8  83434934.271 8  79958492.500 8  20375606.740    20375606.880
  20375606.100          50.700          49.650
 122884318.943 7  95754002.894 7  91764247.364 8  23384119.140    23384123.340
  23384122.540          46.700          44.300
 111138045.162 8  86601145.890 7                  21148841.240    21148838.700
  21148838.200          49.900          46.800
 121864378.056 7  94959311.22946                  23190003.320
  23190002.320          47.750          37.700
 113467151.251 8  88415961.51047                  21592076.020
  21592071.580          49.450          45.400
 127254213.718 7  99159232.54645                  24215624.560
  24215628.480          44.750          33.600
 134277891.586 7 104632072.77544                  25552242.500
  25552240.140          42.650          28.800
 120737083.885 7  94080864.741 7  90160836.874 8  22975494.640    22975494.960
  22975494.620          47.700          45.650
 108071327.496 8  84211441.36147                  20565283.860
  20565281.340          49.600          46.400
 123279761.565 7  96062100.85046                  23459371.360
  23459370.120          47.050          38.000
 113631970.924 8  88544406.908 7                  21623432.580    21623430.740
  21623430.020          49.600          46.650
 104127424.743 7  80988088.999 7                  19534000.080    19534008.000
  19534007.240          42.950          42.000
 123289126.520 7  95891578.324 6                  23063774.340    23063780.700
  23063780.060          45.700          41.300
 131457130.540 6 102244473.501 5                  24565908.380    24565914.200
  24565912.760          39.900          34.500
 111093552.789 7  86406196.789 7                  20804224.280    20804229.620
  20804227.980          42.800          45.350
 126853619.018 7  98663916.265 6                  23713951.180    23713958.020
  23713956.140          43.100          38.500
 110521525.783 7  85961211.468 7                  20646344.920    20646347.420
  20646346.160          47.250          46.000
 124792568.572 6  97060918.310 6                  23336839.280    23336847.480
  23336845.200          40.800          41.000
 106031539.305 8  82469016.525 7                  19800631.300    19800632.800
  19800631.580          48.600          46.800
 119786006.312 7  93167027.275 6                  22416275.460    22416285.940
  22416284.180          45.050          40.350
 15  1 27 14  0 20.0000000  0 20G30G06G07G13G02G28G23G09G10G20G05R14
                                R05R21R13R19R03R20R04R15
 107072889.253 8  83433511.247 8  79957128.757 8  20375259.240    20375259.380
  20375258.580          50.650          49.600
 122901761.517 7  95767594.486 7  91777272.627 8  23387438.400    23387442.580
  23387441.800          46.650          44.250
 111146440.596 8  86607687.784 7                  21150438.820    21150436.280
  21150435.800          49.900          46.850
 121851638.126 7  94949384.02646                  23187578.980
  23187577.880          47.950          37.500
 113474205.251 8  88421458.13547                  21593418.360
  21593413.900          49.650          45.150
 127239491.547 7  99147760.78645                  24212823.000
  24212826.840          44.500          32.050
 134291828.274 7 104642932.50745                  25554894.600
  25554892.480          44.700          31.150
 120749542.418 7  94090572.670 7  90170140.314 8  22977865.400    22977865.780
  22977865.420          47.900          45.800
 108078755.505 8  84217229.41947                  20566697.340
  20566694.820          49.550          47.100
 123296214.356 7  96074921.19246                  23462502.220
  23462501.040          46.900          38.700
 113620404.822 8  88535394.371 7                  21621231.640    21621229.800
  21621229.040          49.700          46.800
 104118695.472 7  80981299.572 7                  19532362.540    19532370.460
  19532369.620          42.800          42.750
 123272243.885 7  95878447.396 6                  23060616.100    23060622.480
  23060621.840          45.400          41.300
 131448502.000 6 102237762.383 5                  24564295.940    24564301.840
  24564300.380          41.900          35.750
 111106512.868 7  86416276.851 7                  20806651.240    20806656.640
  20806655.000          42.750          45.850
 126869944.999 7  98676614.192 6                  23717003.160    23717009.940
  23717008.160          42.700          39.300
 110530377.709 7  85968096.282 7                  20647998.500    20648001.040
  20647999.780          47.600          46.650
 124797035.681 6  97064392.722 6                  23337674.640    23337682.880
  23337680.600          41.150          41.500
 106024087.186 8  82463220.433 7                  19799239.700    19799241.160
  19799239.960          48.900          47.200
 119763989.279 7  93149902.941 6                  22412155.320    22412165.700
  22412163.980          44.900          41.000
 15  1 27 14  0 25.0000000  0 20G30G06G07G13G02G28G23G09G10G20G05R14
                                R05R21R13R19R03R20R04R15
 107071080.435 8  83432101.781 8  79955778.020 8  20374915.060    20374915.160
  20374914.380          50.550          49.850
 122919209.378 7  95781190.186 7  91790301.833 8  23390758.600    23390762.900
  23390762.100          46.250          44.650
 111154849.830 8  86614240.424 7                  21152039.040    21152036.500
  21152036.020          49.950          47.250
 121838903.987 8  94939461.33946                  23185155.780
  23185154.560          48.100          38.400
 113481275.249 8  88426967.22147                  21594763.760
  21594759.300          49.450          45.600
 127224771.833 7  99136290.93645                  24210021.920
  24210025.620          44.200          33.250
 134305766.719 7 104653793.63845                  25557547.080
  25557545.020          45.550          31.900
 120762005.155 7  94100283.881 7  90179446.880 8  22980236.980    22980237.360
  22980237.000          47.900          45.800
 108086197.366 8  84223028.26847                  20568113.480
  20568110.960          49.450          47.050
 123312674.176 7  96087746.99646                  23465634.400
  23465633.280          47.000          38.050
 113608848.477 8  88526389.432 7                  21619032.560    21619030.700
  21619029.920          49.850          47.300
 104109989.155 7  80974527.992 6                  19530729.240    19530737.100
  19530736.320          42.900          41.200
 123255362.407 7  95865317.366 6                  23057458.100    23057464.400
  23057463.760          45.750          39.650
 131439892.788 6 102231066.323 5                  24562687.140    24562693.160
  24562691.580          41.950          34.950
 111119492.019 7  86426371.738 7                  20809081.820    20809087.160
  20809085.580          42.500          44.300
 126886279.347 7  98689318.654 6                  23720056.740    23720063.560
  23720061.720          43.300          37.550
 110539242.072 7  85974990.781 7                  20649654.440    20649656.980
  20649655.720          47.600          44.900
 124801523.782 6  97067883.471 6                  23338513.900    23338522.220
  23338519.960          40.500          40.150
 106016645.909 8  82457432.781 7                  19797850.120    19797851.560
  19797850.380          48.650          46.000
 119741980.930 7  93132785.363 6                  22408036.720    22408047.120
  22408045.380          45.400          39.100
 15  1 27 14  0 30.0000000  0 20G30G06G07G13G02G28G23G09G10G20G05R14
                                R05R21R13R19R03R20R04R15
 107069287.533 8  83430704.712 8  79954439.171 8  20374573.880    20374573.960
  20374573.200          50.650          49.850
 122936660.993 7  95794788.811 7  91803333.860 8  23394079.520    23394083.880
  23394083.060          46.200          44.600
 111163271.342 8  86620802.629 7                  21153641.600    21153639.060
  21153638.580          50.050          47.250
 121826174.155 8  94929541.99546                  23182733.400
  23182732.120          48.250          38.200
 113488359.752 8  88432487.59047                  21596111.900
  21596107.460          49.650          45.400
 127210053.117 7  99124821.90145                  24207220.920
  24207224.520          44.200          34.500
 134319705.483 7 104664655.00645                  25560199.580
  25560197.560          45.500          30.050
 120774470.614 8  94109997.210 7  90188755.486 8  22982609.080    22982609.480
  22982609.080          48.250          45.800
 108093651.536 8  84228836.70447                  20569531.940
  20569529.440          49.550          46.600
 123329139.526 7  96100577.11146                  23468767.660
  23468766.580          47.050          38.300
 113597300.434 8  88517390.957 7                  21616835.040    21616833.200
  21616832.380          49.750          47.250
 104101304.319 7  80967773.116 6                  19529099.960    19529107.880
  19529107.080          42.900          41.850
 123238480.636 7  95852187.097 6                  23054300.040    23054306.280
  23054305.700          45.750          40.400
 131431301.492 6 102224384.173 5                  24561081.600    24561087.580
  24561086.060          41.650          35.900
 111132488.768 7  86436480.314 7                  20811515.680    20811521.060
  20811519.460          42.000          44.700
 126902620.695 7  98702028.566 6                  23723111.600    23723118.420
  23723116.520          43.000          37.350
 110548117.401 7  85981893.812 7                  20651312.420    20651314.960
  20651313.720          47.400          45.050
 124806031.308 6  97071389.297 6                  23339356.760    23339365.240
  23339362.960          39.800          40.600
 106009213.912 8  82451652.331 7                  19796462.300    19796463.700
  19796462.540          48.650          46.250
 119719979.768 7  93115673.358 6                  22403919.500    22403929.840
  22403928.100          45.450          39.750
 15  1 27 14  0 35.0000000  0 20G30G06G07G13G02G28G23G09G10G20G05R14
                                R05R21R13R19R03R20R04R15
 107067508.485 8  83429318.446 8  79953110.661 8  20374235.340    20374235.420
  20374234.640          50.650          49.900
 122954114.311 7  95808388.764 7  91816367.123 8  23397400.800    23397405.160
  23397404.320          45.950          44.550
 111171703.034 8  86627372.774 7                  21155246.100    21155243.560
  21155243.100          50.050          47.350
 121813446.580 8  94919624.41146                  23180311.440
  23180310.080          48.250          37.350
 113495456.659 8  88438017.63747                  21597462.380
  21597457.960          49.700          45.550
 127195333.271 7  99113351.92645                  24204419.720
  24204423.220          44.350          33.750
 134333642.444 7 104675514.96145                  25562851.740
  25562849.820          44.800          30.750
 120786936.683 8  94119711.011 7  90198064.550 8  22984981.360    22984981.660
  22984981.300          48.250          46.000
 108101115.993 8  84234653.15647                  20570952.360
  20570949.900          49.600          46.850
 123345608.324 7  96113409.91646                  23471901.580
  23471900.540          47.150          38.600
 113585758.589 8  88508397.318 7                  21614638.720    21614636.840
  21614636.020          49.800          47.150
 104092638.818 7  80961033.282 6                  19527474.400    19527482.260
  19527481.460          42.700          41.750
 123221596.411 7  95839054.956 6                  23051141.520    23051147.680
  23051147.220          44.950          40.400
 131422725.905 6 102217714.251 6                  24559479.000    24559485.160
  24559483.520          41.500          36.800
 111145500.786 7  86446600.762 7                  20813952.440    20813957.800
  20813956.220          42.050          44.800
 126918966.739 7  98714742.143 6                  23726167.360    23726174.120
  23726172.280          43.050          37.600
 110557001.549 7  85988803.689 7                  20652972.060    20652974.560
  20652973.360          47.650          45.350
 124810556.165 6  97074908.605 6                  23340202.900    23340211.360
  23340209.200          40.250          40.400
 106001789.105 8  82445877.491 7                  19795075.800    19795077.180
  19795076.060          48.500          46.400
 119697983.714 7  93098565.340 6                  22399803.200    22399813.460
  22399811.760          45.750          39.450
 15  1 27 14  0 40.0000000  0 20G30G06G07G13G02G28G23G09G10G20G05R14
                                R05R21R13R19R03R20R04R15
 107065744.115 8  83427943.614 8  79951793.114 8  20373899.600    20373899.640
  20373898.900          50.650          49.950
 122971570.123 7  95821990.661 7  91829402.272 8  23400722.540    23400726.920
  23400726.120          45.800          44.750
 111180145.745 8  86633951.512 7                  21156852.700    21156850.160
  21156849.720          49.850          47.500
 121800722.095 8  94909709.24046                  23177890.060
  23177888.660          48.000          37.800
 113502566.772 8  88443557.97947                  21598815.380
  21598810.980          49.300          46.000
 127180613.229 7  99101881.82445                  24201618.520
  24201622.040          44.000          35.800
 134347578.517 7 104686374.24944                  25565503.740
  25565501.880          43.150          29.300
 120799404.208 8  94129425.965 7  90207374.706 8  22987353.920    22987354.160
  22987353.800          48.450          45.850
 108108591.534 8  84240478.25047                  20572374.880
  20572372.440          49.350          46.850
 123362081.389 7  96126246.05246                  23475036.320
  23475035.280          47.100          38.850
 113574223.789 8  88499409.171 7                  21612443.720    21612441.820
  21612441.000          49.950          47.200
 104083993.530 7  80954309.173 6                  19525852.560    19525860.400
  19525859.640          42.750          41.850
 123204710.611 7  95825921.591 6                  23047982.700    23047988.840
  23047988.380          45.550          40.250
 131414166.903 7 102211057.291 6                  24557879.560    24557885.740
  24557884.100          42.050          36.000
 111158529.228 6  86456733.992 7                  20816392.280    20816397.580
  20816396.040          41.950          45.050
 126935318.528 7  98727460.156 6                  23729224.160    23729230.920
  23729229.100          43.650          37.650
 110565895.330 7  85995721.065 7                  20654633.480    20654635.980
  20654634.820          47.500          45.800
 124815099.173 6  97078442.061 6                  23341052.460    23341061.000
  23341058.780          40.300          40.100
 105994372.385 8  82440108.938 7                  19793690.760    19793692.160
  19793691.060          48.500          46.600
 119675993.566 7  93081461.913 6                  22395688.000    22395698.280
  22395696.580          45.700          39.400
 15  1 27 14  0 45.0000000  0 20G30G06G07G13G02G28G23G09G10G20G05R14
                                R05R21R13R19R03R20R04R15
 107063995.959 8  83426581.419 8  79950487.679 8  20373566.960    20373566.980
  20373566.220          50.600          49.900
 122989029.978 7  95835595.704 7  91842440.422 8  23404045.000    23404049.480
  23404048.660          46.050          44.700
 111188601.023 8  86640540.028 7                  21158461.660    21158459.140
  21158458.760          49.650          47.450
 121788002.248 8  94899797.68546                  23175469.560
  23175468.080          48.150          37.550
 113509691.659 8  88449109.82147                  21600171.200
  21600166.800          49.500          45.950
 127165894.507 7  99090412.77245                  24198817.600
  24198821.040          45.000          34.600
 134361515.141 7 104697233.98344                  25568155.780
  25568153.860          42.600          28.250
 120811874.748 8  94139143.268 7  90216687.106 8  22989727.060    22989727.220
  22989726.900          48.500          45.950
 108116079.707 8  84246313.18447                  20573799.840
  20573797.380          49.400          47.050
 123378560.271 7  96139086.70446                  23478172.140
  23478171.140          47.100          37.650
 113562697.575 8  88490427.699 7                  21610250.360    21610248.440
  21610247.620          50.000          47.350
 104075370.108 7  80947602.071 7                  19524234.840    19524242.700
  19524241.900          42.800          42.000
 123187824.870 7  95812788.215 6                  23044823.860    23044829.960
  23044829.420          45.800          40.500
 131405626.163 7 102204414.445 6                  24556283.500    24556289.580
  24556288.040          43.100          36.250
 111171575.336 7  86466880.955 7                  20818835.380    20818840.720
  20818839.180          42.450          45.450
 126951677.461 7  98740183.727 6                  23732282.320    23732289.120
  23732287.260          43.450          38.250
 110574800.422 7  86002647.236 7                  20656297.020    20656299.520
  20656298.400          47.800          45.900
 124819661.860 6  97081990.815 6                  23341905.660    23341914.220
  23341912.020          41.200          40.550
 105986965.286 8  82434347.861 7                  19792307.560    19792308.940
  19792307.860          48.850          46.800
 119654011.125 7  93064364.474 6                  22391574.240    22391584.540
  22391582.820          45.850          40.100
 15  1 27 14  0 50.0000000  0 20G30G06G07G13G02G28G23G09G10G20G05R14
                                R05R21R13R19R03R20R04R15
 107062264.850 8  83425232.505 8  79949194.968 8  20373237.540    20373237.560
  20373236.800          50.650          49.450
 123006494.632 7  95849204.492 7  91855482.183 8  23407368.380    23407372.920
  23407372.100          46.000          43.950
 111197069.668 8  86647138.970 7                  21160073.180    21160070.700
  21160070.300          49.650          46.950
 121775287.902 7  94889890.41546                  23173050.100
  23173048.600          47.900          36.700
 113516832.099 8  88454673.79847                  21601529.980
  21601525.600          49.650          44.900
 127151177.946 7  99078945.38445                  24196017.160
  24196020.700          45.400          33.700
 134375453.203 7 104708094.83745                  25570808.120
  25570806.160          42.850          30.900
 120824349.099 8  94148863.527 7  90226002.350 8  22992100.940    22992101.020
  22992100.680          48.350          45.150
 108123581.333 8  84252158.59947                  20575227.340
  20575224.880          49.400          46.250
 123395045.764 7  96151932.52746                  23481309.220
  23481308.280          46.950          37.400
 113551180.766 8  88481453.568 7                  21608058.800    21608056.820
  21608056.020          49.750          46.650
 104066769.293 7  80940912.553 7                  19522621.340    19522629.220
  19522628.400          42.750          43.350
 123170939.873 7  95799655.466 7                  23041665.160    23041671.280
  23041670.700          45.400          42.100
 131397104.408 7 102197786.439 6                  24554691.020    24554697.040
  24554695.620          42.200          37.150
 111184640.129 7  86477042.452 7                  20821282.020    20821287.320
  20821285.820          42.700          47.250
 126968044.349 7  98752913.493 6                  23735341.940    23735348.700
  23735346.880          42.950          40.150
 110583717.494 7  86009582.740 7                  20657962.780    20657965.340
  20657964.220          47.600          47.350
 124824245.146 6  97085555.576 6                  23342762.720    23342771.300
  23342769.120          40.950          41.900
 105979568.646 8  82428594.928 7                  19790926.260    19790927.700
  19790926.620          48.700          47.550
 119632037.155 7  93047273.631 7                  22387462.080    22387472.380
  22387470.640          45.200          42.350
 15  1 27 14  0 55.0000000  0 20G30G06G07G13G02G28G23G09G10G20G05R14
                                R05R21R13R19R03R20R04R15
 107060547.368 8  83423894.209 8  79947912.438 8  20372910.720    20372910.740
  20372909.980          50.800          49.150
 123023960.719 7  95862814.408 7  91868525.006 8  23410692.060    23410696.600
  23410695.820          45.850          43.750
 111205548.279 8  86653745.678 7                  21161686.600    21161684.100
  21161683.760          49.800          46.450
 121762575.569 7  94879984.72346                  23170631.020
  23170629.480          47.850          36.550
 113523984.704 8  88460247.25447                  21602891.080
  21602886.700          49.700          44.800
 127136460.155 7  99067477.02845                  24193216.500
  24193220.000          44.900          34.200
 134389389.289 7 104718954.08245                  25573460.100
  25573458.200          43.000          32.050
 120836823.862 8  94158584.109 7  90235317.914 8  22994474.860    22994474.900
  22994474.560          48.500          44.700
 108131092.991 8  84258011.83947                  20576656.740
  20576654.280          49.650          45.950
 123411534.462 7  96164780.84346                  23484446.920
  23484445.980          46.900          36.100
 113539669.978 8  88472484.142 7                  21605868.340    21605866.400
  21605865.580          49.750          46.100
 104058187.546 7  80934237.862 7                  19521011.420    19521019.320
  19521018.500          43.200          43.300
 123154052.264 7  95786520.694 7                  23038505.960    23038512.140
  23038511.520          45.600          42.400
 131388598.231 6 102191170.555 6                  24553101.440    24553107.560
  24553106.120          40.850          36.100
 111197719.986 7  86487215.674 7                  20823731.480    20823736.740
  20823735.240          43.150          46.550
 126984415.712 7  98765646.742 6                  23738402.440    23738409.280
  23738407.400          44.100          39.700
 110592643.294 7  86016525.025 7                  20659630.180    20659632.780
  20659631.660          47.650          47.050
 124828845.506 6  97089133.638 6                  23343623.020    23343631.520
  23343629.400          41.150          41.800
 105972179.124 8  82422847.535 7                  19789546.300    19789547.760
  19789546.700          48.700          47.800
 119610068.106 7  93030186.631 7                  22383350.840    22383361.060
  22383359.420          45.600          42.150
 15  1 27 14  1  0.0000000  0 20G30G06G07G13G02G28G23G09G10G20G05R14
                                R05R21R13R19R03R20R04R15
 107058845.675 8  83422568.216 8  79946641.699 8  20372586.920    20372586.920
  20372586.160          50.700          49.350
 123041430.391 7  95876427.096 7  91881570.493 8  23414016.420    23414021.000
  23414020.280          45.900          44.350
 111214039.042 8  86660361.845 7                  21163302.340    21163299.860
  21163299.500          49.850          46.650
 121749867.467 8  94870082.31246                  23168212.760
  23168211.160          48.000          37.550
 113531151.647 8  88465831.87147                  21604254.920
  21604250.540          49.700          44.400
 127121743.300 7  99056009.43745                  24190416.000
  24190419.380          44.550          35.500
 134403325.567 7 104729813.50144                  25576112.060
  25576110.240          42.150          24.150
 120849301.216 8  94168306.712 7  90244635.418 8  22996849.300    22996849.260
  22996848.940          48.600          45.000
 108138616.851 8  84263874.57947                  20578088.480
  20578086.040          49.750          46.250
 123428028.521 7  96177633.32546                  23487585.640
  23487584.700          47.250          37.200
 113528167.405 8  88463521.102 7                  21603679.440    21603677.540
  21603676.700          49.900          46.450
 104049627.115 7  80927579.754 7                  19519405.500    19519413.380
  19519412.580          43.200          43.350
 123137164.310 7  95773385.627 7                  23035346.720    23035352.820
  23035352.240          45.750          42.150
 131380109.836 6 102184568.480 6                  24551515.220    24551521.400
  24551519.860          40.950          36.600
 111210817.230 7  86497402.415 7                  20826184.180    20826189.440
  20826187.900          43.050          46.350
 127000793.761 7  98778385.202 6                  23741464.160    23741471.000
  23741469.100          44.050          38.750
 110601579.926 7  86023475.725 7                  20661299.600    20661302.260
  20661301.140          47.650          46.900
 124833465.058 6  97092726.615 6                  23344486.940    23344495.300
  23344493.200          41.550          41.400
 105964798.886 8  82417107.345 7                  19788168.040    19788169.560
  19788168.500          48.450          47.700
 119588106.153 7  93013105.145 6                  22379240.920    22379251.160
  22379249.540          45.750          41.900
 15  1 27 14  1  5.0000000  0 20G30G06G07G13G02G28G23G09G10G20G05R14
                                R05R21R13R19R03R20R04R15
 107057161.047 8  83421255.527 8  79945383.698 8  20372266.360    20372266.320
  20372265.580          50.600          49.450
 123058904.871 7  95890043.541 7  91894619.582 8  23417341.700    23417346.300
  23417345.640          45.750          44.200
 111222543.145 8  86666988.418 7                  21164920.620    21164918.160
  21164917.780          49.800          46.650
 121737164.817 7  94860184.15746                  23165795.560
  23165793.900          47.850          37.700
 113538334.159 8  88471428.62347                  21605621.720
  21605617.340          49.700          45.150
 127107028.627 7  99044543.49545                  24187615.860
  24187619.220          43.700          33.550
 134417263.316 7 104740674.04445                  25578764.300
  25578762.420          42.700          33.000
 120861782.385 8  94178032.294 7  90253955.754 8  22999224.460    22999224.360
  22999224.020          48.400          45.350
 108146154.133 8  84269747.78447                  20579522.760
  20579520.360          49.600          46.300
 123444529.204 7  96190490.99046                  23490725.640
  23490724.760          46.900          38.150
 113516674.319 8  88454565.452 7                  21601492.360    21601490.440
  21601489.640          49.850          46.650
 104041089.390 7  80920939.307 7                  19517803.800    19517811.680
  19517810.940          43.350          43.300
 123120277.177 7  95760251.201 7                  23032187.640    23032193.700
  23032193.100          45.850          42.300
 131371640.521 6 102177981.197 6                  24549932.560    24549938.680
  24549937.100          41.550          37.000
 111223933.137 7  86507603.680 7                  20828640.340    20828645.660
  20828644.080          42.950          46.050
 127017179.794 7  98791129.857 6                  23744527.360    23744534.260
  23744532.340          43.950          38.400
 110610528.659 7  86030435.840 7                  20662971.280    20662974.000
  20662972.860          47.750          46.750
 124838105.197 6  97096335.606 6                  23345354.640    23345363.000
  23345360.860          41.050          41.700
 105957429.108 8  82411375.294 7                  19786791.760    19786793.320
  19786792.240          48.600          47.800
 119566152.646 7  92996030.218 6                  22375132.580    22375142.860
  22375141.240          45.700          41.950
 15  1 27 14  1 10.0000000  0 20G30G06G07G13G02G28G23G09G10G20G05R14
                                R05R21R13R19R03R20R04R15
 107055492.295 8  83419955.203 8  79944137.559 8  20371948.820    20371948.780
  20371948.040          50.550          49.450
 123076382.962 7  95903662.804 7  91907671.375 8  23420667.700    23420672.340
  23420671.640          45.700          44.350
 111231059.442 8  86673624.492 7                  21166541.220    21166538.780
  21166538.380          49.950          46.700
 121724466.481 7  94850289.36046                  23163379.180
  23163377.460          47.900          38.350
 113545531.038 8  88477036.57047                  21606991.260
  21606986.880          49.600          44.950
 127092314.970 7  99033078.37345                  24184815.840
  24184819.160          43.400          33.350
 134431201.352 7 104751534.82445                  25581416.580
  25581414.820          43.850          31.750
 120874266.226 8  94187759.955 7  90263278.099 8  23001600.080    23001599.960
  23001599.640          48.000          45.300
 108153703.719 8  84275630.57847                  20580959.380
  20580956.980          49.550          46.000
 123461035.320 7  96203352.87246                  23493866.660
  23493865.780          47.050          37.800
 113505189.533 8  88445616.277 7                  21599306.860    21599304.920
  21599304.160          49.800          46.700
 104032573.230 7  80914315.627 7                  19516206.160    19516214.100
  19516213.320          42.850          43.000
 123103389.755 7  95747116.558 7                  23029028.520    23029034.500
  23029033.960          45.950          42.250
 131363189.122 6 102171407.887 6                  24548353.220    24548359.440
  24548357.680          41.250          36.000
 111237066.289 7  86517818.358 7                  20831099.720    20831105.080
  20831103.480          42.350          46.000
 127033572.482 7  98803879.685 6                  23747591.860    23747598.700
  23747596.780          43.800          38.050
 110619488.313 7  86037404.447 7                  20664645.040    20664647.760
  20664646.620          47.550          46.750
 124842764.625 6  97099959.599 6                  23346225.960    23346234.260
  23346232.180          40.850          41.100
 105950068.742 8  82405650.569 7                  19785417.240    19785418.820
  19785417.740          48.100          47.550
 119544206.369 7  92978960.931 6                  22371025.600    22371035.940
  22371034.280          45.700          41.700
 15  1 27 14  1 15.0000000  0 20G30G06G07G13G02G28G23G09G10G20G05R14
                                R05R21R13R19R03R20R04R15
 107053837.098 8  83418665.439 8  79942901.536 8  20371633.860    20371633.800
  20371633.060          51.150          49.450
 123093862.371 7  95917283.086 7  91920724.130 8  23423993.960    23423998.580
  23423997.920          47.000          44.650
 111239585.564 8  86680268.213 7                  21168163.720    21168161.260
  21168160.860          50.700          46.750
 121711770.113 8  94840396.08646                  23160963.160
  23160961.420          48.850          37.250
 113552739.969 8  88482653.90747                  21608363.100
  21608358.720          50.200          44.350
 127077600.071 7  99021612.27845                  24182015.620
  24182018.820          44.650          32.100
 134445137.296 7 104762394.01244                  25584068.460
  25584066.720          44.900          28.550
 120886750.391 8  94197487.852 7  90272600.666 8  23003975.740    23003975.620
  23003975.320          48.900          45.250
 108161263.251 8  84281521.11247                  20582397.920
  20582395.540          50.250          45.700
 123477544.542 7  96216217.17246                  23497008.240
  23497007.360          47.950          36.850
 113493710.776 8  88436671.801 7                  21597122.500    21597120.600
  21597119.820          50.700          46.600
 104024076.177 6  80907706.802 7                  19514612.180    19514620.060
  19514619.280          41.400          42.850
 123086499.663 7  95733979.837 6                  23025868.860    23025874.900
  23025874.260          44.550          41.700
 131354753.278 6 102164846.673 6                  24546776.760    24546782.980
  24546781.200          40.050          36.300
 111250214.401 6  86528044.659 7                  20833561.960    20833567.300
  20833565.700          41.000          45.900
 127049969.393 7  98816632.809 6                  23750657.120    23750663.980
  23750662.060          42.600          38.400
 110628456.643 7  86044379.798 7                  20666320.380    20666323.140
  20666321.980          46.700          46.700
 124847441.103 6  97103596.860 6                  23347100.460    23347108.740
  23347106.680          39.050          41.100
 105942715.438 7  82399931.339 7                  19784044.060    19784045.680
  19784044.580          47.100          47.650
 119522265.099 7  92961895.530 6                  22366919.540    22366929.960
  22366928.260          44.600          41.600
 15  1 27 14  1 20.0000000  0 20G30G06G07G13G02G28G23G09G10G20G05R14
                                R05R21R13R19R03R20R04R15
 107052198.932 8  83417388.951 8  79941678.234 8  20371322.140    20371322.060
  20371321.320          51.100          49.550
 123111346.520 7  95930907.068 7  91933780.434 8  23427321.120    23427325.760
  23427325.080          46.800          44.700
 111248124.975 8  86686922.298 7                  21169788.720    21169786.280
  21169785.860          50.400          46.950
 121699079.199 8  94830507.08846                  23158548.160
  23158546.420          48.450          37.050
 113559964.402 8  88488283.32847                  21609737.860
  21609733.520          50.100          44.650
 127062887.425 7  99010147.93145                  24179215.840
  24179219.060          45.000          31.850
 134459074.654 7 104773254.31944                  25586720.560
  25586718.920          43.400          28.150
 120899238.370 8  94207218.727 7  90281926.084 8  23006352.100    23006352.020
  23006351.720          48.550          45.000
 108168836.259 8  84287422.15147                  20583839.000
  20583836.640          50.050          46.000
 123494060.338 7  96229086.60346                  23500151.120
  23500150.220          47.700          36.950
 113482241.521 8  88427734.728 7                  21594940.000    21594938.040
  21594937.280          50.650          46.600
 104015601.747 6  80901115.572 7                  19513022.380    19513030.280
  19513029.460          41.550          42.900
 123069610.419 7  95720843.762 7                  23022709.400    23022715.440
  23022714.740          44.650          42.400
 131346336.517 6 102158300.291 6                  24545203.860    24545210.140
  24545208.360          40.250          37.300
 111263381.075 6  86538285.404 7                  20836027.660    20836033.060
  20836031.400          41.600          45.800
 127066374.306 7  98829392.136 6                  23753723.900    23753730.720
  23753728.860          42.400          38.200
 110637436.957 7  86051364.478 7                  20667997.980    20668000.740
  20667999.600          46.750          46.450
 124852137.993 6  97107249.992 6                  23347978.800    23347987.060
  23347985.020          38.400          41.400
 105935372.660 7  82394220.292 7                  19782672.820    19782674.480
  19782673.380          47.250          47.650
 119500332.310 7  92944836.725 6                  22362815.100    22362825.520
  22362823.820          44.650          41.400
 15  1 27 14  1 25.0000000  0 20G30G06G07G13G02G28G23G09G10G20G05R14
                                R05R21R13R19R03R20R04R15
 107050575.770 8  83416124.153 8  79940466.140 8  20371013.260    20371013.160
  20371012.440          51.100          49.600
 123128833.389 7  95944533.158 7  91946838.777 8  23430648.760    23430653.440
  23430652.760          46.550          44.650
 111256675.685 8  86693585.179 7                  21171415.900    21171413.420
  21171413.020          50.350          47.100
 121686391.728 8  94820620.76146                  23156133.800
  23156132.100          48.550          36.850
 113567202.315 8  88493923.24747                  21611115.200
  21611110.880          50.100          44.950
 127048175.005 7  98998683.75345                  24176416.120
  24176419.420          44.950          32.750
 134473011.442 7 104784114.19744                  25589372.560
  25589370.940          42.750          26.600
 120911728.121 8  94216950.988 7  90291252.832 8  23008728.780    23008728.740
  23008728.440          48.100          45.000
 108176420.646 8  84293332.05347                  20585282.260
  20585279.920          50.050          46.150
 123510580.638 7  96241959.54346                  23503294.840
  23503293.980          47.350          36.750
 113470779.729 8  88418803.455 7                  21592758.900    21592756.940
  21592756.140          50.550          46.700
 104007147.954 6  80894540.398 7                  19511436.460    19511444.360
  19511443.540          41.950          42.700
 123052720.134 7  95707706.897 7                  23019549.760    23019555.840
  23019555.120          45.400          42.750
 131337936.770 6 102151767.142 6                  24543634.120    24543640.400
  24543638.680          40.100          36.750
 111276564.142 6  86548538.892 7                  20838496.420    20838501.860
  20838500.160          41.950          45.700
 127082784.970 7  98842155.942 6                  23756791.700    23756798.560
  23756796.740          42.050          38.250
 110646427.312 7  86058356.973 7                  20669677.440    20669680.200
  20669679.080          46.800          46.350
 124856853.355 6  97110917.469 6                  23348860.600    23348868.920
  23348866.800          39.850          41.200
 105928038.308 7  82388515.790 7                  19781303.180    19781304.820
  19781303.740          47.700          47.300
 119478405.952 7  92927782.908 6                  22358711.920    22358722.280
  22358720.560          44.700          41.600
 15  1 27 14  1 30.0000000  0 20G30G06G07G13G02G28G23G09G10G20G05R14
                                R05R21R13R19R03R20R04R15
 107048969.847 8  83414872.789 8  79939266.910 8  20370707.680    20370707.560
  20370706.860          51.000          50.250
 123146325.200 7  95958163.114 7  91959900.799 8  23433977.320    23433982.080
  23433981.380          46.200          45.300
 111265240.016 8  86700258.683 7                  21173045.660    21173043.180
  21173042.760          50.300          47.800
 121673709.940 8  94810738.86846                  23153720.540
  23153718.840          48.300          37.350
 113574455.948 8  88499575.42347                  21612495.540
  21612491.220          50.100          45.950
 127033465.075 7  98987221.55245                  24173616.900
  24173620.180          45.300          33.000
 134486949.895 6 104794975.35044                  25592024.900
  25592023.160          41.250          26.100
 120924221.889 8  94226686.371 7  90300582.572 8  23011106.220    23011106.240
  23011105.900          48.350          46.000
 108184018.700 8  84299252.61047                  20586728.140
  20586725.780          50.050          46.550
 123527107.750 7  96254837.78246                  23506439.840
  23506439.000          47.350          38.600
 113459327.620 8  88409879.741 7                  21590579.660    21590577.640
  21590576.880          50.300          47.700
 103998716.995 7  80887983.000 7                  19509854.780    19509862.720
  19509861.900          42.000          43.600
 123035830.908 7  95694570.838 7                  23016390.320    23016396.320
  23016395.740          44.600          43.350
 131329556.384 6 102145249.055 6                  24542068.060    24542074.240
  24542072.560          40.800          36.400
 111289765.894 7  86558806.923 7                  20840968.680    20840974.080
  20840972.440          42.100          46.550
 127099203.586 6  98854925.971 6                  23759861.020    23759867.940
  23759866.120          41.750          38.700
 110655430.039 7  86065359.083 7                  20671359.200    20671362.000
  20671360.880          47.000          46.600
 124861589.396 6  97114601.058 7                  23349746.220    23349754.660
  23349752.500          40.150          42.350
 105920714.814 7  82382819.757 8                  19779935.540    19779937.200
  19779936.160          47.350          48.250
 119456488.531 7  92910736.062 6                  22354610.360    22354620.720
  22354619.000          44.200          41.900
 15  1 27 14  1 35.0000000  0 20G30G06G07G13G02G28G23G09G10G20G05R14
                                R05R21R13R19R03R20R04R15
 107047377.359 8  83413631.891 8  79938077.730 8  20370404.640    20370404.500
  20370403.800          51.000          49.450
 123163818.128 7  95971793.935 7  91972963.676 8  23437306.120    23437310.880
  23437310.140          46.450          44.100
 111273813.998 8  86706939.710 7                  21174677.260    21174674.760
  21174674.340          50.150          46.650
 121661029.989 8  94800858.39946                  23151307.600
  23151305.940          48.450          37.100
 113581721.505 8  88505236.88647                  21613878.160
  21613873.820          50.000          45.000
 127018753.816 7  98975758.28945                  24170817.460
  24170820.720          45.250          33.850
 134500886.212 6 104805834.75645                  25594676.880
  25594675.380          40.900          30.300
 120936715.862 8  94236421.928 7  90309912.489 8  23013483.740    23013483.760
  23013483.420          48.150          45.150
 108191626.578 8  84305180.82747                  20588175.880
  20588173.520          50.000          46.000
 123543637.859 7  96267718.36246                  23509585.420
  23509584.600          47.500          36.700
 113447881.396 8  88400960.616 7                  21588401.540    21588399.480
  21588398.720          50.450          46.700
 103990305.151 6  80881440.465 7                  19508276.720    19508284.720
  19508283.860          41.900          42.900
 123018938.929 7  95681432.647 7                  23013230.380    23013236.300
  23013235.740          44.850          42.100
 131321191.454 6 102138742.997 5                  24540504.820    24540510.960
  24540509.340          40.550          35.050
 111302982.424 7  86569086.449 7                  20843443.800    20843449.100
  20843447.480          42.300          45.950
 127115626.428 6  98867699.284 6                  23762931.060    23762938.060
  23762936.220          41.700          37.800
 110664441.122 7  86072367.693 7                  20673042.560    20673045.340
  20673044.240          47.300          46.600
 124866342.249 6  97118297.688 6                  23350635.120    23350643.520
  23350641.320          39.400          41.250
 105913398.237 7  82377129.093 7                  19778569.200    19778570.880
  19778569.820          47.850          47.550
 119434576.066 7  92893693.067 6                  22350509.720    22350520.100
  22350518.340          44.550          41.500
 15  1 27 14  1 40.0000000  0 20G30G06G07G13G02G28G23G09G10G20G05R14
                                R05R21R13R19R03R20R04R15
 107045800.950 8  83412403.523 8  79936900.534 8  20370104.680    20370104.500
  20370103.800          50.950          49.650
 123181314.803 7  95985427.668 7  91986029.318 8  23440635.640    23440640.420
  23440639.660          46.100          44.450
 111282400.251 8  86713630.290 7                  21176311.180    21176308.660
  21176308.240          49.950          46.600
 121648354.541 8  94790981.43346                  23148895.540
  23148893.840          48.450          37.600
 113589001.574 8  88510909.65647                  21615263.540
  21615259.180          49.750          44.850
 127004043.874 7  98964296.06345                  24168018.260
  24168021.580          45.350          34.900
 134514822.955 6 104816694.63844                  25597328.900
  25597327.560          40.300          26.650
 120949212.686 7  94246159.699 7  90319244.499 8  23015861.760    23015861.820
  23015861.440          47.850          45.050
 108199246.941 8  84311118.76447                  20589626.020
  20589623.640          49.900          46.050
 123560173.529 7  96280603.27546                  23512732.060
  23512731.260          47.300          36.800
 113436443.738 8  88392048.155 7                  21586225.040    21586222.960
  21586222.180          50.300          46.700
 103981915.040 6  80874914.819 7                  19506702.760    19506710.760
  19506709.880          41.900          42.700
 123002046.849 7  95668294.364 7                  23010070.360    23010076.300
  23010075.740          44.700          42.550
 131312844.676 6 102132251.091 5                  24538945.040    24538951.320
  24538949.540          40.600          35.050
 111316216.664 7  86579379.740 7                  20845922.180    20845927.440
  20845925.820          42.350          46.050
 127132056.007 7  98880477.796 6                  23766002.400    23766009.400
  23766007.560          42.350          37.900
 110673463.433 7  86079385.031 7                  20674728.020    20674730.820
  20674729.700          47.450          46.450
 124871114.505 6  97122009.441 6                  23351527.540    23351535.980
  23351533.780          40.100          41.250
 105906091.338 7  82371445.940 7                  19777204.680    19777206.320
  19777205.280          47.900          47.200
 119412671.243 7  92876655.999 6                  22346410.480    22346420.900
  22346419.100          44.400          41.100
 15  1 27 14  1 45.0000000  0 20G30G06G07G13G02G28G23G09G10G20G05R14
                                R05R21R13R19R03R20R04R15
 107044240.292 8  83411187.429 8  79935735.113 8  20369807.700    20369807.520
  20369806.820          50.900          49.700
 123198814.888 7  95999064.066 7  91999097.522 8  23443965.840    23443970.620
  23443969.860          46.150          44.550
 111290998.492 8  86720330.217 7                  21177947.360    21177944.840
  21177944.420          49.850          46.800
 121635683.287 8  94781107.75546                  23146484.300
  23146482.600          48.400          37.500
 113596295.852 8  88516593.50547                  21616651.600
  21616647.240          49.800          45.350
 126989334.998 7  98952834.65745                  24165219.300
  24165222.580          45.700          34.300
 134528759.830 7 104827554.52044                  25599980.960
  25599979.520          43.650          29.950
 120961712.019 7  94255899.429 7  90328578.399 8  23018240.300    23018240.360
  23018239.980          47.850          45.250
 108206879.465 8  84317066.17947                  20591078.460
  20591076.080          49.850          46.300
 123576714.473 7  96293492.30446                  23515879.720
  23515878.860          47.250          36.400
 113425014.351 8  88383142.144 7                  21584050.120    21584048.000
  21584047.220          50.150          46.850
 103973546.382 7  80868405.866 7                  19505132.820    19505140.840
  19505139.960          42.350          42.850
 122985154.415 7  95655155.842 7                  23006910.260    23006916.140
  23006915.740          44.250          42.350
 131304515.803 6 102125773.056 5                  24537388.580    24537394.880
  24537393.120          39.950          34.950
 111329467.901 7  86589686.254 7                  20848403.720    20848408.980
  20848407.380          42.250          45.950
 127148492.046 7  98893261.360 6                  23769074.960    23769082.040
  23769080.140          42.100          37.900
 110682496.541 7  86086410.774 7                  20676415.520    20676418.280
  20676417.180          47.400          46.550
 124875905.921 6  97125736.102 6                  23352423.680    23352432.060
  23352429.840          40.850          41.250
 105898793.715 8  82365770.007 7                  19775841.920    19775843.520
  19775842.480          48.050          47.150
 119390773.719 7  92859624.625 6                  22342312.640    22342323.000
  22342321.260          44.850          41.250
 15  1 27 14  1 50.0000000  0 20G30G06G07G13G02G28G23G09G10G20G05R14
                                R05R21R13R19R03R20R04R15
 107042694.618 8  83409983.014 8  79934580.882 8  20369513.580    20369513.400
  20369512.680          50.900          49.600
 123216317.593 7  96012702.498 7  92012167.682 8  23447296.500    23447301.280
  23447300.560          46.400          43.950
 111299607.951 8  86727038.878 7                  21179585.680    21179583.140
  21179582.720          49.850          46.750
 121623015.483 8  94771236.74546                  23144073.700
  23144071.980          48.250          37.000
 113603603.539 8  88522287.80047                  21618042.220
  21618037.860          49.800          45.150
 126974626.403 7  98941373.45545                  24162420.320
  24162423.660          44.700          33.850
 134542696.110 7 104838413.94745                  25602632.900
  25602631.580          44.650          31.000
 120974213.107 8  94265640.524 7  90337913.610 8  23020619.180    23020619.240
  23020618.840          48.250          45.050
 108214523.361 8  84323022.45447                  20592533.080
  20592530.660          49.900          46.250
 123593259.905 7  96306384.82246                  23519028.180
  23519027.340          47.100          36.050
 113413592.368 8  88374241.904 7                  21581876.600    21581874.460
  21581873.680          49.950          46.800
 103965198.283 7  80861912.914 7                  19503566.700    19503574.780
  19503573.900          42.050          42.900
 122968260.924 7  95642016.485 7                  23003750.000    23003755.880
  23003755.520          45.100          42.000
 131296203.974 6 102119308.283 5                  24535835.320    24535841.520
  24535839.860          40.850          35.800
 111342735.502 7  86600005.504 7                  20850888.260    20850893.600
  20850892.000          42.350          46.000
 127164933.749 7  98906049.314 6                  23772148.540    23772155.720
  23772153.820          42.750          38.200
 110691539.590 7  86093444.254 7                  20678104.820    20678107.600
  20678106.500          47.200          46.350
