     2.11           OBSERVATION DATA    M (MIXED)           RINEX VERSION / TYPE
teqc  2011Oct11     IGN-E (SPG)         20150127 01:02:28UTCPGM / RUN BY / DATE
Linux 2.4.21-27.ELsmp|Opteron|gcc -static|Linux x86_64|=+   COMMENT
BIT 2 OF LLI FLAGS DATA COLLECTED UNDER A/S CONDITION       COMMENT
VALE                                                        MARKER NAME
13439M001                                                   MARKER NUMBER
Programas GeodesicosInstituto Geografico Nacional           OBSERVER / AGENCY
1700071             LEICA GR10          3.03/6.214          REC # / TYPE / VERS
10190012            LEIAR25.R3      LEIT                    ANT # / TYPE
  4929534.0457   -29050.6755  4033709.9250                  APPROX POSITION XYZ
        3.0390        0.0000        0.0000                  ANTENNA: DELTA H/E/N
     1     1                                                WAVELENGTH FACT L1/2
     8    L1    L2    L5    C1    C2    P2    S1    S2      # / TYPES OF OBSERV
     5.0000                                                 INTERVAL
Forced Modulo Decimation to 5 seconds                       COMMENT
DefaultJobName                                              COMMENT
DefaultUserDiscription                                      COMMENT
Project creator:                                            COMMENT
 SNR is mapped to RINEX snr flag value [0-9]                COMMENT
  L1 & L2: min(max(int(snr_dBHz/6), 0), 9)                  COMMENT
  2015     1    27     0     0    0.0000000     GPS         TIME OF FIRST OBS
    15                                                      LEAP SECONDS
                                                            END OF HEADER
 15  1 27  0  0  0.0000000  0 19G31G08G21G25G05G14G12G29G02R11R21R10
                                R16R19R09R20E12E18E11
 108843183.228 8  84812881.534 8                  20712163.060    20712158.040
  20712157.120          50.100          48.950
 118415606.290 8  92271881.44847                  22533739.040
  22533734.460          49.450          42.600
 118271343.858 7  92159544.41047                  22506259.520
  22506253.840          47.800          42.350
 113654106.043 8  88561814.460 8  84871732.881 8  21627574.820    21627573.740
  21627573.000          49.150          48.000
 134015356.872 7 104427555.506 6                  25502272.540    25502270.140
  25502268.820          42.700          37.000
 127940231.848 7  99693680.63345                  24346209.820
  24346205.520          42.100          35.800
 129909018.051 7 101227973.971 6                  24720790.760    24720787.300
  24720786.340          46.150          39.300
 108024945.876 8  84175422.875 8                  20556400.220    20556396.180
  20556395.500          49.700          48.650
 132768396.358 7 103455888.84145                  25264979.320
  25264972.560          43.800          34.800
 121627566.155 7  94599230.199 6                  22760940.820    22760944.800
  22760943.320          45.350          36.200
 116593663.268 7  90684008.267 7                  21788295.420    21788297.420
  21788296.340          47.100          43.100
 103112507.515 8  80198654.026 7                  19343637.240    19343643.520
  19343642.240          48.500          42.800
 131085578.473 6 101955465.774 5                  24539495.180    24539498.520
  24539498.080          39.250          33.000
 112138931.113 8  87219293.813 7                  20963139.940    20963140.380
  20963138.620          48.500          45.450
 108746374.043 8  84580504.105 6                  20364686.820    20364689.840
  20364687.320          48.450          37.300
 102973094.660 7  80090335.248 7                  19256440.820    19256444.920
  19256442.660          44.650          47.000
 124361176.604 8                  92867245.365 8  23665092.680
                        50.300


 125182605.119 8                  93480624.376 8  23821404.800
                        51.050
 15  1 27  0  0  5.0000000  0 19G31G08G21G25G05G14G12G29G02R11R21R10
                                R16R19R09R20E12E18E11
 108840602.057 8  84810870.228 8                  20711671.900    20711666.880
  20711665.940          50.100          49.050
 118400358.360 8  92259999.94947                  22530837.460
  22530832.880          49.450          43.050
 118258551.231 8  92149576.13347                  22503825.200
  22503819.480          48.050          42.350
 113663198.854 8  88568899.761 8  84878522.965 8  21629305.080    21629304.040
  21629303.300          49.250          48.000
 134008194.366 6 104421974.345 6                  25500909.540    25500907.180
  25500905.700          41.700          36.200
 127955391.028 7  99705492.95946                  24349094.560
  24349090.220          42.400          36.700
 129922940.852 7 101238822.907 6                  24723440.200    24723436.700
  24723435.780          45.800          38.600
 108032797.216 8  84181540.805 8                  20557894.300    20557890.220
  20557889.540          49.450          48.650
 132782611.350 7 103466965.44445                  25267684.340
  25267677.620          43.650          34.850
 121607890.025 7  94583926.534 6                  22757258.820    22757262.720
  22757261.220          44.950          36.000
 116576682.112 7  90670800.711 7                  21785122.080    21785124.100
  21785123.000          47.300          42.900
 103105599.453 8  80193281.088 7                  19342341.300    19342347.540
  19342346.280          48.300          42.650
 131106168.282 6 101971480.057 5                  24543349.620    24543353.020
  24543352.620          39.400          32.300
 112154993.044 8  87231786.413 7                  20966142.520    20966142.980
  20966141.240          48.500          45.300
 108759032.178 8  84590349.315 6                  20367057.340    20367060.340
  20367057.760          48.550          37.150
 102971086.757 7  80088773.543 7                  19256065.380    19256069.420
  19256067.200          44.400          46.950
 124366180.777 8                  92870982.248 8  23666044.920
                        50.250


 125175319.086 8                  93475183.509 8  23820018.340
                        50.850
 15  1 27  0  0 10.0000000  0 19G31G08G21G25G05G14G12G29G02R11R21R10
                                R16R19R09R20E12E18E11
 108838037.647 8  84808871.984 8                  20711183.920    20711178.880
  20711177.960          50.150          49.200
 118385120.297 8  92248126.13347                  22527937.740
  22527933.180          49.550          42.600
 118245768.486 7  92139615.54347                  22501392.760
  22501386.980          47.800          42.950
 113672300.229 8  88575991.742 8  84885319.444 8  21631036.980    21631035.980
  21631035.260          49.300          48.050
 134001043.477 6 104416402.242 6                  25499548.760    25499546.360
  25499545.000          41.300          37.550
 127970552.654 7  99717307.20846                  24351979.720
  24351975.340          42.600          37.150
 129936867.771 7 101249675.082 6                  24726090.440    24726086.940
  24726085.940          45.600          38.750
 108040659.472 8  84187667.230 8                  20559390.440    20559386.340
  20559385.680          49.700          48.700
 132796834.534 7 103478048.46145                  25270390.860
  25270384.160          43.750          33.600
 121588218.627 7  94568626.557 6                  22753577.620    22753581.600
  22753580.040          44.950          36.750
 116559713.453 7  90657602.852 7                  21781951.140    21781953.100
  21781952.000          47.350          42.900
 103098710.311 8  80187922.871 7                  19341048.880    19341055.080
  19341053.860          48.300          42.700
 131126763.548 6 101987498.558 5                  24547205.160    24547208.540
  24547208.260          38.950          32.050
 112171065.409 8  87244287.133 7                  20969147.020    20969147.500
  20969145.800          48.700          45.250
 108771707.262 8  84600207.713 6                  20369431.000    20369434.000
  20369431.380          48.850          37.400
 102969099.484 7  80087227.881 7                  19255693.800    19255697.780
  19255695.560          44.300          47.050
 124371195.030 8                  92874726.661 8  23666999.060
                        50.250


 125168043.531 8                  93469750.469 8  23818633.860
                        50.850
 15  1 27  0  0 15.0000000  0 19G31G08G21G25G05G14G12G29G02R11R21R10
                                R16R19R09R20E12E18E11
 108835486.009 8  84806883.695 8                  20710698.380    20710693.340
  20710692.400          50.300          49.250
 118369888.043 8  92236256.84947                  22525039.160
  22525034.580          49.600          43.050
 118232991.610 8  92129659.54247                  22498961.420
  22498955.600          48.000          42.550
 113681406.165 8  88583087.278 8  84892119.332 8  21632769.760    21632768.800
  21632768.080          49.600          48.050
 133993900.297 6 104410836.131 6                  25498189.480    25498187.060
  25498185.840          41.550          37.250
 127985712.637 7  99729120.16945                  24354864.560
  24354860.220          43.550          34.350
 129950794.852 7 101260527.374 6                  24728740.640    24728737.200
  24728736.220          45.050          39.400
 108048528.578 8  84193799.011 8                  20560887.900    20560883.760
  20560883.100          49.750          48.750
 132811061.815 7 103489134.65445                  25273098.200
  25273091.500          43.700          34.200
 121568547.872 7  94553327.100 6                  22749896.580    22749900.500
  22749899.020          45.150          36.650
 116542753.195 7  90644411.541 7                  21778781.780    21778783.700
  21778782.580          46.800          42.850
 103091836.009 8  80182576.194 7                  19339759.220    19339765.500
  19339764.280          48.450          42.700
 131147360.000 6 102003517.983 5                  24551060.880    24551064.320
  24551064.060          39.900          31.650
 112187144.281 8  87256792.920 7                  20972152.780    20972153.320
  20972151.580          48.950          45.300
 108784395.148 8  84610076.073 6                  20371807.040    20371810.080
  20371807.440          48.500          37.400
 102967128.604 7  80085694.974 7                  19255325.260    19255329.240
  19255327.000          44.850          47.000
 124376215.336 8                  92878475.589 8  23667954.380
                        50.400


 125160774.432 8                  93464322.250 8  23817250.620
                        50.850
 15  1 27  0  0 20.0000000  0 19G31G08G21G25G05G14G12G29G02R11R21R10
                                R16R19R09R20E12E18E11
 108832950.983 8  84804908.348 8                  20710216.000    20710210.960
  20710210.020          50.300          49.000
 118354665.488 8  92224395.11747                  22522142.400
  22522137.860          49.600          42.750
 118220224.455 7  92119711.10746                  22496531.880
  22496526.120          47.800          41.700
 113690520.477 8  88590189.334 7  84898925.474 8  21634504.140    21634503.220
  21634502.480          49.650          47.950
 133986768.580 6 104405278.946 6                  25496832.340    25496829.920
  25496828.640          41.250          36.200
 128000874.839 7  99740934.87545                  24357749.840
  24357745.520          43.400          35.850
 129964725.909 7 101271382.729 6                  24731391.540    24731388.180
  24731387.300          44.900          39.600
 108056408.382 8  84199939.117 8                  20562387.380    20562383.260
  20562382.580          49.850          48.500
 132825297.099 7 103500227.07945                  25275807.060
  25275800.340          43.650          33.800
 121548881.780 7  94538031.257 6                  22746216.360    22746220.380
  22746218.800          45.100          36.350
 116525805.289 7  90631229.848 7                  21775614.700    21775616.580
  21775615.460          47.250          43.000
 103084980.527 8  80177244.150 7                  19338473.120    19338479.440
  19338478.220          48.400          42.950
 131167961.644 6 102019541.443 5                  24554917.540    24554920.920
  24554920.820          39.950          32.150
 112203233.510 8  87269306.754 7                  20975160.520    20975161.020
  20975159.280          48.850          45.100
 108797099.804 7  84619957.475 6                  20374186.220    20374189.200
  20374186.600          47.950          37.350
 102965177.889 7  80084177.762 7                  19254960.480    19254964.420
  19254962.220          44.850          47.200
 124381245.535 8                  92882231.912 8  23668911.580
                        50.350


 125153515.633 8                  93458901.726 8  23815869.300
                        50.850
 15  1 27  0  0 25.0000000  0 19G31G08G21G25G05G14G12G29G02R11R21R10
                                R16R19R09R20E12E18E11
 108830430.221 8  84802944.114 8                  20709736.320    20709731.280
  20709730.340          50.250          49.050
 118339450.321 8  92212539.14347                  22519247.080
  22519242.520          49.350          42.600
 118207464.703 7  92109768.45346                  22494103.740
  22494098.080          47.700          41.900
 113699640.857 8  88597296.123 7  84905736.147 8  21636239.680    21636238.780
  21636238.020          49.650          47.850
 133979646.055 6 104399728.922 5                  25495476.880    25495474.520
  25495473.320          41.250          35.500
 128016036.948 7  99752749.49145                  24360635.060
  24360630.900          43.850          33.600
 129978658.553 7 101282239.316 6                  24734042.720    24734039.460
  24734038.620          44.950          39.900
 108064296.580 8  84206085.764 8                  20563888.480    20563884.340
  20563883.640          49.850          48.400
 132839538.038 7 103511323.95346                  25278517.040
  25278510.320          43.750          36.450
 121529218.029 7  94522737.232 6                  22742536.580    22742540.580
  22742539.000          45.650          36.150
 116508867.386 7  90618055.903 7                  21772449.480    21772451.340
  21772450.200          47.250          43.000
 103078141.361 8  80171924.797 7                  19337190.080    19337196.440
  19337195.240          48.250          42.750
 131188565.928 6 102035567.003 5                  24558774.680    24558778.340
  24558778.120          41.000          32.750
 112219330.724 8  87281826.808 7                  20978169.720    20978170.200
  20978168.440          49.100          44.950
 108809818.694 8  84629849.941 6                  20376568.040    20376571.080
  20376568.460          48.050          37.500
 102963245.321 7  80082674.657 7                  19254599.100    19254603.060
  19254600.840          44.700          47.100
 124386283.301 8                  92885993.882 8  23669870.220
                        50.300


 125146264.814 8                  93453487.146 8  23814489.500
                        50.750
 15  1 27  0  0 30.0000000  0 19G31G08G21G25G05G14G12G29G02R11R21R10
                                R16R19R09R20E12E18E11
 108827923.913 8  84800991.146 8                  20709259.400    20709254.360
  20709253.420          50.250          49.050
 118324242.695 8  92200689.04547                  22516353.160
  22516348.600          49.300          42.650
 118194712.519 7  92099831.69346                  22491677.040
  22491671.440          47.900          41.750
 113708767.466 8  88604407.760 7  84912551.464 8  21637976.440    21637975.540
  21637974.760          49.600          47.750
 133972532.878 6 104394186.173 5                  25494123.260    25494120.960
  25494119.840          41.450          35.950
 128031199.066 7  99764564.12445                  24363520.320
  24363516.160          44.050          33.350
 129992593.005 7 101293097.335 6                  24736694.360    24736691.080
  24736690.240          45.700          39.550
 108072193.313 8  84212239.065 8                  20565391.220    20565387.060
  20565386.320          49.850          48.400
 132853784.764 7 103522425.30345                  25281228.100
  25281221.380          43.700          35.600
 121509556.674 7  94507445.067 6                  22738857.280    22738861.300
  22738859.700          45.700          36.650
 116491939.578 7  90604889.834 7                  21769286.140    21769288.020
  21769286.880          47.000          43.450
 103071318.694 8  80166618.282 7                  19335910.160    19335916.560
  19335915.340          48.250          42.650
 131209173.194 6 102051594.883 5                  24562632.400    24562636.080
  24562636.000          38.750          32.700
 112235435.942 8  87294353.093 7                  20981180.440    20981180.880
  20981179.120          49.200          44.950
 108822552.162 8  84639753.745 6                  20378952.620    20378955.620
  20378953.020          48.050          37.350
 102961330.723 7  80081185.528 7                  19254241.100    19254244.980
  19254242.800          44.350          47.100
 124391328.763 8                  92889761.593 8  23670830.320
                        50.350


 125139022.133 8                  93448078.655 8  23813111.220
                        50.750
 15  1 27  0  0 35.0000000  0 19G31G08G21G25G05G14G12G29G02R11R21R10
                                R16R19R09R20E12E18E11
 108825433.515 8  84799050.575 8                  20708785.480    20708780.480
  20708779.520          50.150          49.100
 118309044.071 8  92188845.96347                  22513460.960
  22513456.400          49.050          42.350
 118181969.375 7  92089901.97146                  22489252.040
  22489246.500          47.600          41.350
 113717901.721 8  88611525.356 7  84919372.497 8  21639714.640    21639713.760
  21639712.940          49.650          47.700
 133965430.577 6 104388651.906 6                  25492771.660    25492769.380
  25492768.480          40.800          37.250
 128046362.641 7  99776379.89145                  24366405.880
  24366401.700          44.100          33.200
 130006530.702 7 101303957.890 6                  24739346.640    24739343.340
  24739342.480          45.600          39.400
 108080099.993 8  84218400.107 8                  20566895.840    20566891.640
  20566890.900          49.800          48.250
 132868038.701 7 103533532.26745                  25283940.540
  25283933.800          44.000          35.600
 121489899.148 7  94492155.878 5                  22735178.640    22735182.520
  22735181.040          45.600          35.800
 116475023.417 7  90591732.833 7                  21766124.960    21766126.800
  21766125.740          47.100          43.800
 103064514.188 8  80161325.882 7                  19334633.600    19334640.040
  19334638.840          48.250          42.600
 131229784.836 6 102067626.047 5                  24566490.920    24566494.600
  24566494.640          36.650          33.250
 112251550.775 8  87306886.846 7                  20984192.940    20984193.340
  20984191.580          49.200          44.750
 108835301.602 7  84649669.966 6                  20381340.160    20381343.160
  20381340.560          47.950          37.100
 102959435.715 7  80079711.622 7                  19253886.740    19253890.580
  19253888.420          44.650          47.000
 124396383.368 8                  92893536.141 8  23671792.160
                        50.350


 125131789.023 8                  93442677.313 8  23811734.760
                        50.550
 15  1 27  0  0 40.0000000  0 19G31G08G21G25G05G14G12G29G02R11R21R10
                                R16R19R09R20E12E18E11
 108822956.835 8  84797120.698 8                  20708314.180    20708309.180
  20708308.240          50.050          49.000
 118293852.273 8  92177008.20147                  22510570.040
  22510565.480          48.850          42.450
 118169233.090 7  92079977.60346                  22486828.360
  22486822.900          47.700          41.800
 113727041.455 8  88618647.228 7  84926197.617 8  21641453.900    21641453.000
  21641452.180          49.600          47.700
 133958336.894 7 104383124.352 6                  25491421.780    25491419.560
  25491418.560          42.800          37.750
 128061525.463 7  99788195.05945                  24369291.280
  24369287.120          43.700          32.900
 130020469.468 7 101314819.270 6                  24741999.120    24741995.800
  24741994.960          45.150          39.350
 108088014.446 8  84224567.218 8                  20568401.940    20568397.720
  20568396.960          49.800          48.250
 132882297.633 7 103544643.13545                  25286653.900
  25286647.300          44.200          35.150
 121470243.409 7  94476868.083 6                  22731500.400    22731504.180
  22731502.700          45.650          36.000
 116458116.685 7  90578583.148 7                  21762965.520    21762967.400
  21762966.340          47.150          43.550
 103057725.549 8  80156045.830 7                  19333360.040    19333366.520
  19333365.280          48.400          42.600
 131250398.643 6 102083658.959 5                  24570349.760    24570353.660
  24570353.700          37.150          34.200
 112267672.929 8  87319426.300 7                  20987206.800    20987207.180
  20987205.440          49.300          45.000
 108848064.707 7  84659596.831 6                  20383730.240    20383733.260
  20383730.700          47.550          37.500
 102957558.006 7  80078251.182 7                  19253535.600    19253539.400
  19253537.280          44.550          47.000
 124401444.927 8                  92897315.874 8  23672755.340
                        50.350


 125124563.323 8                  93437281.496 8  23810359.700
                        50.600
 15  1 27  0  0 45.0000000  0 19G31G08G21G25G05G14G12G29G02R11R21R10
                                R16R19R09R20E12E18E11
 108820496.136 8  84795203.274 8                  20707845.920    20707840.940
  20707840.000          50.000          49.000
 118278669.564 8  92165177.52447                  22507680.840
  22507676.320          48.800          42.050
 118156505.954 7  92070060.35247                  22484406.420
  22484401.020          47.350          42.350
 113736188.914 8  88625775.108 7  84933028.498 8  21643194.640    21643193.720
  21643192.880          49.450          47.700
 133951254.091 7 104377605.296 6                  25490074.020    25490071.820
  25490070.900          43.550          37.850
 128076689.801 7  99800011.41145                  24372176.960
  24372172.780          43.150          34.900
 130034411.539 7 101325683.218 6                  24744652.220    24744648.920
  24744648.100          45.200          39.650
 108095938.890 8  84230742.112 8                  20569909.920    20569905.700
  20569904.920          49.600          48.400
 132896563.796 7 103555759.62845                  25289368.700
  25289362.040          44.100          33.000
 121450591.742 7  94461583.454 5                  22727822.880    22727826.580
  22727825.160          45.950          35.850
 116441221.635 7  90565442.547 7                  21759808.240    21759810.180
  21759809.100          47.350          43.150
 103050954.972 8  80150779.831 7                  19332089.900    19332096.360
  19332095.120          48.450          42.550
 131271016.874 6 102099695.338 5                  24574209.660    24574213.600
  24574213.580          38.750          33.900
 112283804.759 8  87331973.271 7                  20990222.500    20990222.880
  20990221.120          49.400          45.050
 108860843.909 7  84669536.206 6                  20386123.320    20386126.360
  20386123.860          47.700          37.650
 102955699.963 7  80076806.039 7                  19253188.120    19253191.940
  19253189.820          44.650          47.100
 124406515.689 8                  92901102.476 8  23673720.240
                        50.350


 125117347.266 8                  93431892.880 8  23808986.480
                        50.550
 15  1 27  0  0 50.0000000  0 19G31G08G21G25G05G14G12G29G02R11R21R10
                                R16R19R09R20E12E18E11
 108818050.217 8  84793297.359 8                  20707380.460    20707375.500
  20707374.560          50.150          48.900
 118263494.763 8  92153353.00647                  22504793.140
  22504788.660          48.950          42.700
 118143786.706 7  92060149.24547                  22481985.960
  22481980.600          47.250          42.000
 113745342.889 8  88632908.071 7  84939864.270 8  21644936.620    21644935.680
  21644934.860          49.750          47.750
 133944181.034 7 104372093.835 6                  25488728.180    25488725.940
  25488725.020          42.900          38.050
 128091854.414 7  99811827.97145                  24375062.680
  24375058.540          43.250          33.950
 130048355.700 7 101336548.781 6                  24747305.700    24747302.520
  24747301.620          45.700          39.650
 108103872.139 8  84236923.854 8                  20571419.580    20571415.340
  20571414.560          49.700          48.400
 132910836.007 7 103566880.84645                  25292084.600
  25292078.020          43.800          35.000
 121430942.905 7  94446301.018 6                  22724145.880    22724149.720
  22724148.120          45.600          36.200
 116424337.115 7  90552310.141 7                  21756653.000    21756654.880
  21756653.820          47.450          42.650
 103044201.453 8  80145527.090 7                  19330822.940    19330829.420
  19330828.140          48.400          42.450
 131291638.240 6 102115734.130 5                  24578070.100    24578074.040
  24578073.960          39.800          34.050
 112299944.985 8  87344526.779 7                  20993239.760    20993240.140
  20993238.380          49.200          45.150
 108873637.884 8  84679487.065 6                  20388519.180    20388522.380
  20388519.740          48.150          37.550
 102953860.234 7  80075375.143 7                  19252844.100    19252847.860
  19252845.800          44.600          47.050
 124411594.452 8                  92904895.065 8  23674686.700
                        50.300


 125110139.651 8                  93426510.576 8  23807614.820
                        50.700
 15  1 27  0  0 55.0000000  0 19G31G08G21G25G05G14G12G29G02R11R21R10
                                R16R19R09R20E12E18E11
 108815617.766 8  84791401.941 8                  20706917.580    20706912.640
  20706911.700          50.200          48.800
 118248326.598 8  92141533.65647                  22501906.680
  22501902.280          48.700          42.950
 118131074.110 7  92050243.33446                  22479566.780
  22479561.480          47.250          41.900
 113754502.119 8  88640045.131 7  84946703.945 8  21646679.600    21646678.640
  21646677.820          49.650          47.750
 133937116.325 7 104366588.883 6                  25487383.860    25487381.540
  25487380.780          42.100          37.750
 128107018.011 7  99823643.75445                  24377948.180
  24377944.080          42.450          35.950
 130062300.685 7 101347414.989 6                  24749959.340    24749956.200
  24749955.280          45.400          39.350
 108111812.852 8  84243111.420 8                  20572930.660    20572926.400
  20572925.640          49.700          48.450
 132925112.958 7 103578005.74345                  25294801.440
  25294794.860          43.550          35.750
 121411295.591 7  94431019.772 6                  22720469.160    22720472.920
  22720471.340          45.050          36.250
 116407461.723 7  90539184.846 7                  21753499.420    21753501.260
  21753500.240          47.850          42.400
 103037463.568 8  80140286.511 7                  19329558.900    19329565.420
  19329564.140          48.500          42.700
 131312261.505 6 102131774.400 5                  24581930.920    24581934.840
  24581934.720          40.600          31.950
 112316092.101 8  87357085.645 7                  20996258.300    20996258.680
  20996256.920          49.000          45.200
 108886445.238 8  84689448.345 6                  20390917.580    20390920.860
  20390918.180          48.250          37.550
 102952037.540 7  80073957.495 7                  19252503.180    19252507.020
  19252504.980          44.250          46.900
 124416679.926 8                  92908692.655 8  23675654.440
                        50.300


 125102939.193 8                  93421133.613 8  23806244.540
                        50.450
 15  1 27  0  1  0.0000000  0 19G31G08G21G25G05G14G12G29G02R11R21R10
                                R16R19R09R20E12E18E11
 108813201.498 8  84789519.130 8                  20706457.760    20706452.840
  20706451.920          50.300          48.900
 118233167.757 8  92129721.57747                  22499022.040
  22499017.640          48.850          42.100
 118118370.876 7  92040344.71346                  22477149.360
  22477144.140          47.600          41.850
 113763669.247 8  88647188.346 8  84953549.528 8  21648424.100    21648423.080
  21648422.280          49.800          48.000
 133930062.801 7 104361092.630 6                  25486041.640    25486039.260
  25486038.620          42.800          38.500
 128122183.257 7  99835460.79346                  24380834.040
  24380829.980          43.200          36.050
 130076249.184 7 101358283.932 6                  24752613.660    24752610.540
  24752609.560          45.700          39.000
 108119763.747 8  84249306.917 8                  20574443.660    20574439.420
  20574438.660          49.900          48.550
 132939397.346 7 103589136.45045                  25297519.680
  25297513.120          43.750          33.900
 121391652.519 7  94415741.844 5                  22716793.220    22716796.880
  22716795.420          45.050          35.900
 116390598.279 7  90526068.835 7                  21750348.060    21750349.920
  21750348.860          47.750          42.450
 103030744.135 8  80135060.286 7                  19328298.340    19328304.900
  19328303.600          48.500          42.800
 131332889.346 6 102147818.280 5                  24585792.560    24585796.520
  24585796.260          39.550          31.850
 112332249.031 8  87369652.135 7                  20999278.680    20999279.060
  20999277.320          48.800          45.050
 108899268.845 7  84699422.255 6                  20393319.020    20393322.360
  20393319.660          47.950          37.650
 102950234.808 7  80072555.370 7                  19252166.080    19252169.880
  19252167.880          44.000          47.000
 124421774.775 8                  92912497.246 8  23676623.960
                        50.550


 125095748.573 8                  93415763.996 8  23804876.140
                        50.600
 15  1 27  0  1  5.0000000  0 19G31G08G21G25G05G14G12G29G02R11R21R10
                                R16R19R09R20E12E18E11
 108810799.802 8  84787647.677 8                  20706000.720    20705995.800
  20705994.880          50.250          48.900
 118218016.675 8  92117915.53747                  22496138.860
  22496134.480          49.000          42.350
 118105675.367 7  92030452.11747                  22474733.460
  22474728.300          47.850          42.000
 113772842.702 8  88654336.495 8  84960399.839 8  21650169.820    21650168.720
  21650167.960          49.900          48.050
 133923018.815 7 104355603.824 6                  25484701.280    25484698.860
  25484698.280          42.950          37.950
 128137348.562 7  99847277.93146                  24383719.900
  24383715.840          43.100          36.600
 130090199.558 7 101369154.373 6                  24755268.400    24755265.180
  24755264.100          46.000          38.650
 108127723.197 8  84255509.084 8                  20575958.320    20575954.060
  20575953.300          50.100          48.500
 132953687.505 7 103600271.64846                  25300239.060
  25300232.280          43.900          36.400
 121372012.141 7  94400465.988 5                  22713117.780    22713121.460
  22713119.960          44.650          35.950
 116373745.187 7  90512960.879 7                  21747198.660    21747200.440
  21747199.460          47.550          42.350
 103024041.435 8  80129847.083 7                  19327040.920    19327047.500
  19327046.240          48.450          42.800
 131353520.162 6 102163864.476 5                  24589654.820    24589658.720
  24589658.440          37.650          32.100
 112348414.016 8  87382224.893 7                  21002300.600    21002300.920
  21002299.200          48.650          45.000
 108912107.045 8  84709407.522 6                  20395723.200    20395726.580
  20395723.880          48.250          37.700
 102948450.102 7  80071167.265 7                  19251832.360    19251836.180
  19251834.120          43.950          47.000
 124426877.388 8                  92916307.645 8  23677594.940
                        50.600


 125088566.214 8                  93410400.550 8  23803509.320
                        50.600
 15  1 27  0  1 10.0000000  0 19G31G08G21G25G05G14G12G29G02R11R21R10
                                R16R19R09R20E12E18E11
 108808413.052 8  84785787.872 8                  20705546.520    20705541.640
  20705540.720          50.100          48.850
 118202873.728 8  92106115.83846                  22493257.220
  22493252.880          48.750          41.850
 118092988.051 8  92020565.89646                  22472319.120
  22472313.960          48.100          41.100
 113782022.879 8  88661489.875 7  84967255.166 8  21651916.800    21651915.660
  21651914.900          49.900          47.900
 133915984.726 7 104350122.725 6                  25483362.740    25483360.300
  25483359.780          43.000          37.750
 128152514.216 7  99859095.30645                  24386605.840
  24386601.760          43.000          33.300
 130104152.190 7 101380026.580 6                  24757923.560    24757920.200
  24757919.120          45.850          38.550
 108135691.586 8  84261718.214 8                  20577474.660    20577470.400
  20577469.640          50.050          48.350
 132967983.906 7 103611411.71045                  25302959.600
  25302952.820          44.250          34.500
 121352374.715 7  94385192.443 5                  22709442.940    22709446.520
  22709445.120          45.100          35.650
 116356902.806 7  90499861.251 7                  21744051.260    21744053.000
  21744052.060          47.650          42.750
 103017355.945 8  80124647.251 7                  19325786.700    19325793.300
  19325792.120          48.450          42.850
 131374154.319 6 102179913.203 5                  24593517.740    24593521.580
  24593521.220          37.350          32.200
 112364587.446 8  87394804.221 7                  21005324.040    21005324.340
  21005322.660          48.900          44.850
 108924960.163 8  84719404.387 6                  20398130.220    20398133.560
  20398130.880          48.450          37.500
 102946684.088 7  80069793.692 7                  19251502.080    19251505.920
  19251503.860          44.150          46.950
 124431988.146 8                  92920124.118 8  23678567.480
                        50.600


 125081392.471 8                  93405043.548 8  23802144.140
                        50.550
 15  1 27  0  1 15.0000000  0 19G31G08G21G25G05G14G12G29G02R11R21R10
                                R16R19R09R20E12E18E11
 108806041.588 8  84783939.980 8                  20705095.240    20705090.380
  20705089.460          50.150          49.000
 118187739.234 8  92094322.72847                  22490377.180
  22490372.880          48.850          42.300
 118080309.206 8  92010686.27746                  22469906.400
  22469901.280          48.250          41.550
 113791210.026 8  88668648.693 8  84974115.696 8  21653665.120    21653663.940
  21653663.200          49.950          48.050
 133908960.899 7 104344649.633 6                  25482026.160    25482023.640
  25482023.120          42.800          37.200
 128167680.553 7  99870913.21445                  24389491.900
  24389487.760          43.650          30.900
 130118107.433 7 101390900.791 6                  24760579.140    24760575.720
  24760574.700          45.250          38.900
 108143669.192 8  84267934.530 8                  20578992.760    20578988.500
  20578987.720          50.150          48.400
 132982286.770 7 103622556.79345                  25305681.340
  25305674.700          44.250          34.350
 121332740.674 7  94369921.523 5                  22705768.680    22705772.260
  22705770.820          45.300          35.650
 116340071.465 7  90486770.207 7                  21740905.900    21740907.700
  21740906.720          47.600          43.100
 103010687.989 8  80119461.063 7                  19324535.800    19324542.480
  19324541.280          48.300          43.000
 131394792.023 6 102195964.680 5                  24597381.280    24597385.100
  24597384.700          38.500          32.850
 112380769.718 8  87407390.432 7                  21008349.140    21008349.420
  21008347.780          48.800          44.850
 108937828.446 8  84729413.043 6                  20400540.060    20400543.360
  20400540.740          48.350          37.700
 102944936.777 7  80068434.675 7                  19251175.300    19251179.160
  19251177.100          44.150          47.100
 124437107.368 8                  92923946.916 8  23679541.620
                        50.650


 125074227.648 8                  93399693.193 8  23800780.660
                        50.650
 15  1 27  0  1 20.0000000  0 19G31G08G21G25G05G14G12G29G02R11R21R10
                                R16R19R09R20E12E18E11
 108803685.162 8  84782103.802 8                  20704646.820    20704641.960
  20704641.060          50.150          49.100
 118172612.966 8  92082536.03447                  22487498.740
  22487494.460          48.850          42.650
 118067638.548 8  92000813.04546                  22467495.280
  22467490.140          48.450          41.950
 113800403.929 8  88675812.778 8  84980981.271 8  21655414.720    21655413.460
  21655412.760          50.100          48.100
 133901947.058 7 104339184.308 6                  25480691.420    25480688.900
  25480688.200          43.100          36.650
 128182847.282 7  99882731.45745                  24392378.040
  24392373.840          43.050          34.950
 130132064.991 7 101401776.804 6                  24763235.160    24763231.800
  24763230.760          45.050          39.800
 108151655.630 8  84274157.732 8                  20580512.540    20580508.240
  20580507.520          50.050          48.500
 132996595.826 7 103633706.72645                  25308404.300
  25308397.620          44.450          35.700
 121313109.862 7  94354653.106 5                  22702095.040    22702098.520
  22702097.060          45.400          35.650
 116323250.865 7  90473687.523 7                  21737762.520    21737764.380
  21737763.400          47.650          43.350
 103004037.238 8  80114288.263 7                  19323288.120    19323294.860
  19323293.640          48.350          42.800
 131415433.178 6 102212018.854 5                  24601245.460    24601249.440
  24601248.800          39.300          34.350
 112396960.458 8  87419983.222 7                  21011375.820    21011376.120
  21011374.480          48.950          44.750
 108950711.790 8  84739433.424 6                  20402952.720    20402956.000
  20402953.420          48.250          37.500
 102943208.014 7  80067090.079 7                  19250851.980    19250855.900
  19250853.820          44.300          47.000
 124442234.777 8                  92927775.817 8  23680517.320
                        50.550


 125067071.516 8                  93394349.323 8  23799418.840
                        50.800
 15  1 27  0  1 25.0000000  0 19G31G08G21G25G05G14G12G29G02R11R21R10
                                R16R19R09R20E12E18E11
 108801342.373 8  84780278.247 8                  20704200.980    20704196.140
  20704195.240          50.100          49.050
 118157493.559 8  92070754.67446                  22484621.560
  22484617.340          48.750          41.800
 118054974.709 8  91990945.11647                  22465085.440
  22465080.320          48.150          42.050
 113809603.183 8  88682981.026 7  84987850.844 8  21657165.340    21657164.060
  21657163.340          49.950          47.900
 133894941.878 7 104333725.720 6                  25479358.400    25479355.840
  25479354.980          44.000          36.000
 128198013.030 7  99894548.91145                  24395263.980
  24395259.900          42.950          33.400
 130146023.495 7 101412653.559 6                  24765891.340    24765888.040
  24765887.100          44.800          39.950
 108159649.642 8  84280386.823 8                  20582033.740    20582029.460
  20582028.720          50.000          48.400
 133010909.723 7 103644860.42845                  25311128.160
  25311121.480          44.350          34.300
 121293480.764 7  94339386.014 5                  22698421.780    22698425.260
  22698423.680          45.400          35.250
 116306439.684 7  90460612.144 7                  21734620.920    21734622.780
  21734621.840          47.650          43.800
 102997402.316 8  80109127.768 7                  19322043.440    19322050.220
  19322048.960          48.350          43.250
 131436076.245 6 102228074.527 5                  24605109.960    24605113.960
  24605113.220          41.500          33.700
 112413158.243 8  87432581.499 7                  21014403.840    21014404.120
  21014402.480          49.250          44.950
 108963608.668 8  84749464.332 6                  20405367.920    20405371.100
  20405368.600          48.450          37.700
 102941496.504 7  80065758.906 7                  19250531.920    19250535.820
  19250533.780          44.350          47.200
 124447368.968 8                  92931609.787 8  23681494.300
                        50.450


 125059922.666 8                  93389010.907 8  23798058.420
                        50.750
 15  1 27  0  1 30.0000000  0 19G31G08G21G25G05G14G12G29G02R11R21R10
                                R16R19R09R20E12E18E11
 108799016.904 8  84778466.198 8                  20703758.440    20703753.640
  20703752.740          50.050          49.150
 118142384.659 8  92058981.51147                  22481746.400
  22481742.200          48.650          42.300
 118042321.346 8  91981085.37146                  22462677.580
  22462672.480          48.050          41.950
 113818811.490 8  88690156.322 8  84994727.171 8  21658917.680    21658916.340
  21658915.640          50.100          48.000
 133887948.870 7 104328276.632 6                  25478027.700    25478025.080
  25478024.200          43.800          36.400
 128213181.420 7  99906368.42945                  24398150.420
  24398146.400          42.950          32.950
 130159986.582 7 101423533.863 6                  24768548.380    24768545.140
  24768544.180          44.700          38.950
 108167654.914 8  84286624.705 8                  20583557.100    20583552.840
  20583552.100          49.950          48.450
 133025232.073 7 103656020.71345                  25313853.640
  25313847.000          43.900          34.850
 121273857.053 7  94324123.129 5                  22694749.460    22694752.920
  22694751.320          44.950          35.350
 116289641.582 7  90447546.967 7                  21731481.780    21731483.680
  21731482.780          47.650          43.950
 102990787.093 8  80103982.596 7                  19320802.440    19320809.200
  19320807.940          48.450          43.050
 131456724.962 6 102244134.640 5                  24608975.560    24608979.660
  24608978.740          41.650          32.650
 112429366.801 8  87445188.164 7                  21017433.860    21017434.140
  21017432.500          49.200          45.100
 108976522.797 8  84759508.656 6                  20407786.360    20407789.460
  20407787.000          48.450          38.000
 102939805.800 7  80064443.917 7                  19250215.720    19250219.660
  19250217.600          44.500          47.000
 124452513.585 8                  92935451.554 8  23682473.280
                        50.350


 125052784.778 8                  93383680.658 8  23796700.080
                        50.750
 15  1 27  0  1 35.0000000  0 19G31G08G21G25G05G14G12G29G02R11R21R10
                                R16R19R09R20E12E18E11
 108796704.717 8  84776664.484 8                  20703318.440    20703313.640
  20703312.740          50.050          49.100
 118127282.281 8  92047213.41847                  22478872.480
  22478868.300          48.600          42.550
 118029674.477 8  91971230.66546                  22460270.960
  22460265.860          48.250          41.650
 113828024.758 8  88697335.485 7  85001607.204 8  21660670.960    21660669.580
  21660668.880          50.000          47.950
 133880964.245 7 104322834.032 6                  25476698.580    25476695.940
  25476695.000          44.300          36.000
 128228348.461 7  99918186.91545                  24401036.580
  24401032.520          42.650          32.850
 130173950.209 7 101434414.608 6                  24771205.600    24771202.260
  24771201.360          45.400          38.750
 108175667.426 8  84292868.211 8                  20585081.820    20585077.580
  20585076.820          49.750          48.550
 133039558.850 7 103667184.44545                  25316579.980
  25316573.340          43.550          35.300
 121254234.792 7  94308861.363 5                  22691077.440    22691080.720
  22691079.220          45.200          35.000
 116272852.507 7  90434488.791 7                  21728344.300    21728346.240
  21728345.380          47.950          43.800
 102984187.334 8  80098849.442 7                  19319564.320    19319571.120
  19319569.840          48.400          43.000
 131477375.219 6 102260195.928 5                  24612841.520    24612845.560
  24612844.600          40.600          33.800
 112445581.977 8  87457799.955 7                  21020465.120    21020465.400
  21020463.760          49.100          44.950
 108989450.071 8  84769563.192 6                  20410207.260    20410210.340
  20410207.900          48.600          37.700
 102938131.963 7  80063142.040 7                  19249902.680    19249906.640
  19249904.560          44.650          46.900
 124457664.620 8                  92939298.097 8  23683453.480
                        50.350


 125045653.792 8                  93378355.575 8  23795343.080
                        50.600
 15  1 27  0  1 40.0000000  0 19G31G08G21G25G05G14G12G29G02R11R21R10
                                R16R19R09R20E12E18E11
 108794407.489 8  84774874.440 8                  20702881.280    20702876.500
  20702875.620          50.150          49.250
 118112188.064 8  92035451.69347                  22476000.120
  22475995.960          48.400          42.950
 118017035.755 7  91961382.30547                  22457865.920
  22457860.820          47.950          42.100
 113837244.673 8  88704519.832 7  85008492.202 8  21662425.480    21662424.080
  21662423.380          49.850          47.950
 133873989.555 7 104317399.192 6                  25475371.400    25475368.680
  25475367.660          44.150          36.000
 128243515.760 7  99930005.60445                  24403922.760
  24403918.740          42.050          35.750
 130187916.020 7 101445297.073 6                  24773863.200    24773859.920
  24773858.960          45.600          38.800
 108183688.763 8  84299118.603 8                  20586608.200    20586604.020
  20586603.240          50.000          48.550
 133053891.688 7 103678352.87745                  25319307.420
  25319300.740          43.200          31.500
 121234615.687 7  94293602.051 5                  22687405.980    22687409.280
  22687407.740          44.950          35.550
 116256074.107 7  90421438.933 7                  21725208.860    21725210.840
  21725209.980          47.300          43.700
 102977604.830 8  80093729.721 7                  19318329.480    19318336.280
  19318334.960          48.550          42.900
 131498028.778 6 102276259.749 5                  24616708.100    24616711.960
  24616711.040          38.800          33.800
 112461805.481 8  87470418.232 7                  21023497.940    21023498.220
  21023496.600          49.000          45.200
 109002392.293 8  84779629.365 6                  20412630.920    20412634.020
  20412631.560          48.600          37.400
 102936476.537 7  80061854.490 7                  19249593.080    19249597.060
  19249594.960          44.650          46.900
 124462823.728 8                  92943150.683 8  23684435.200
                        50.450


 125038531.387 8                  93373036.900 8  23793987.740
                        50.600
 15  1 27  0  1 45.0000000  0 20G31G08G21G25G05G16G14G12G29G02R11R21
                                R10R16R19R09R20E12E18E11
 108792126.486 8  84773097.039 8                  20702447.220    20702442.440
  20702441.560          50.300          49.250
 118097103.291 8  92023697.33247                  22473129.560
  22473125.380          48.600          42.650
 118004406.472 8  91951541.31447                  22455462.680
  22455457.540          48.350          42.200
 113846472.510 8  88711710.359 7  85015383.115 8  21664181.500    21664180.080
  21664179.400          49.950          47.850
 133867026.125 7 104311973.159 6                  25474046.360    25474043.540
  25474042.740          43.950          36.050
 132267127.011 5                                  25169597.760
                        35.600
 128258684.533 7  99941825.40645                  24406809.260
  24406805.240          42.900          35.300
 130201885.203 7 101456182.164 6                  24776521.480    24776518.120
  24776517.160          45.000          38.550
 108191720.207 8  84305376.881 8                  20588136.540    20588132.340
  20588131.580          49.950          48.650
 133068231.881 7 103689527.09046                  25322036.300
  25322029.620          42.950          36.450
 121215000.863 7  94278346.095 5                  22683735.300    22683738.720
  22683737.100          44.450          35.550
 116239307.729 7  90408398.413 7                  21722075.640    21722077.640
  21722076.820          47.300          43.800
 102971040.836 8  80088624.399 7                  19317098.080    19317104.900
  19317103.560          48.500          43.000
 131518686.861 6 102292327.058 5                  24620575.540    24620579.200
  24620578.260          38.500          32.000
 112478038.513 8  87483043.913 7                  21026532.540    21026532.760
  21026531.200          48.800          45.050
 109015350.552 8  84789708.002 6                  20415057.620    20415060.680
  20415058.180          48.650          37.400
 102934840.889 7  80060582.323 7                  19249287.180    19249291.160
  19249289.080          44.900          47.100
 124467992.123 8                  92947010.195 8  23685418.700
                        50.500


 125031418.820 8                  93367725.568 8  23792634.280
                        50.600
 15  1 27  0  1 50.0000000  0 20G31G08G21G25G05G16G14G12G29G02R11R21
                                R10R16R19R09R20E12E18E11
 108789859.978 8  84771330.923 8                  20702015.920    20702011.140
  20702010.280          50.250          49.300
 118082026.292 8  92011949.01347                  22470260.480
  22470256.320          48.500          42.250
 117991784.920 8  91941706.32847                  22453060.920
  22453055.700          48.400          42.050
 113855706.553 8  88718905.715 7  85022278.665 8  21665938.720    21665937.260
  21665936.580          49.850          47.950
 133860072.263 7 104306554.580 6                  25472723.140    25472720.200
  25472719.540          43.500          36.100
 132252534.453 5 103053919.55244                  25166820.600
  25166823.960          35.900          25.250
 128273853.101 7  99953645.07045                  24409695.740
  24409691.740          43.200          33.150
 130215856.182 7 101467068.627 6                  24779180.060    24779176.720
  24779175.700          45.300          38.300
 108199760.040 8  84311641.683 8                  20589666.440    20589662.280
  20589661.500          50.050          48.650
 133082577.674 7 103700705.63145                  25324766.200
  25324759.480          43.050          33.950
 121195388.846 7  94263092.314 5                  22680065.140    22680068.660
  22680066.940          44.500          35.650
 116222551.636 7  90395365.900 7                  21718944.340    21718946.380
  21718945.540          47.050          43.750
 102964493.578 8  80083532.083 7                  19315869.860    19315876.700
  19315875.320          48.600          42.900
 131539347.704 6 102308396.560 5                  24624443.460    24624447.020
  24624445.980          40.100          32.150
 112494279.435 8  87495675.735 7                  21029568.580    21029568.840
  21029567.260          48.750          44.800
 109028323.196 8  84799797.839 6                  20417487.000    20417489.980
  20417487.520          48.500          37.900
 102933223.251 7  80059324.158 7                  19248984.660    19248988.620
  19248986.560          44.700          47.100
 124473168.163 8                  92950875.415 8  23686403.660
                        50.400


 125024314.412 8                  93362420.322 8  23791282.380
                        50.650
 15  1 27  0  1 55.0000000  0 20G31G08G21G25G05G16G14G12G29G02R11R21
                                R10R16R19R09R20E12E18E11
 108787609.420 8  84769577.241 8                  20701587.660    20701582.860
  20701582.040          50.250          49.250
 118066958.484 8  92000207.87247                  22467393.160
  22467389.020          48.350          42.650
 117979172.533 8  91931878.49847                  22450660.920
  22450655.660          48.150          42.950
 113864948.219 8  88726107.013 7  85029179.909 8  21667697.380    21667695.880
  21667695.200          49.850          47.900
 133853129.407 7 104301144.566 6                  25471401.980    25471398.960
  25471398.280          42.800          36.700
 132237942.578 6 103042549.27645                  25164044.480
  25164043.840          36.650          31.550
 128289022.890 7  99965465.65446                  24412582.460
  24412578.520          43.850          36.000
 130229830.354 7 101477957.605 6                  24781839.280    24781835.880
  24781834.840          45.750          38.400
 108207809.659 8  84317914.123 8                  20591198.220    20591194.080
  20591193.320          49.850          48.700
 133096930.502 7 103711889.66846                  25327497.440
  25327490.740          42.750          37.350
 121175780.928 7  94247841.710 5                  22676395.780    22676399.260
  22676397.540          44.250          35.450
 116205807.350 7  90382342.577 7                  21715815.280    21715817.300
  21715816.460          47.100          43.600
 102957964.603 8  80078453.995 7                  19314645.020    19314651.880
  19314650.500          48.700          43.050
 131560012.630 7 102324469.237 5                  24628312.080    24628315.560
  24628314.540          42.350          33.550
 112510529.651 8  87508314.804 7                  21032606.360    21032606.620
  21032605.060          48.800          45.100
 109041311.718 8  84809900.031 6                  20419919.360    20419922.300
  20419919.820          48.550          37.200
 102931625.067 7  80058081.134 7                  19248685.760    19248689.740
  19248687.680          44.950          46.950
 124478353.219 8                  92954747.383 8  23687390.320
                        50.350


 125017219.565 8                  93357122.222 8  23789932.300
                        50.750
 15  1 27  0  2  0.0000000  0 20G31G08G21G25G05G16G14G12G29G02R11R21
                                R10R16R19R09R20E12E18E11
 108785372.677 8  84767834.323 8                  20701162.020    20701157.220
  20701156.380          50.100          49.600
 118051897.697 8  91988472.20047                  22464527.200
  22464523.040          48.350          43.750
 117966567.140 8  91922056.11447                  22448262.260
  22448256.960          48.400          42.850
 113874195.357 8  88733312.576 8  85036085.246 8  21669457.080    21669455.560
  21669454.880          49.900          48.400
 133846195.304 7 104295741.355 6                  25470082.540    25470079.480
  25470078.740          43.600          37.250
 132223348.953 6 103031177.64945                  25161267.880
  25161261.360          37.400          30.550
 128304191.710 7  99977285.52445                  24415468.980
  24415465.040          43.800          33.050
 130243805.588 7 101488847.417 6                  24784498.700    24784495.200
  24784494.120          45.450          38.850
 108215866.924 8  84324192.499 8                  20592731.460    20592727.300
  20592726.580          49.650          49.050
 133111288.171 7 103723077.46446                  25330229.580
  25330222.980          42.350          36.350
 121156174.862 7  94232592.568 5                  22672726.640    22672730.280
  22672728.520          44.400          35.800
 116189072.520 7  90369326.592 7                  21712687.960    21712690.020
  21712689.120          47.300          43.200
 102951451.876 8  80073388.541 7                  19313423.280    19313430.080
  19313428.760          48.650          42.650
 131580679.634 7 102340543.530 5                  24632181.140    24632184.580
  24632183.420          44.500          33.350
 112526786.939 8  87520959.351 7                  21035645.460    21035645.720
  21035644.200          48.900          44.700
 109054313.812 8  84820012.765 6                  20422354.240    20422357.160
  20422354.680          48.650          36.700
 102930044.114 7  80056851.511 7                  19248390.100    19248394.060
  19248392.000          44.800          46.700
 124483545.144 8                  92958624.470 8  23688378.280
                        50.250


 125010132.114 8                  93351829.645 8  23788583.600
                        50.700
 15  1 27  0  2  5.0000000  0 20G31G08G21G25G05G16G14G12G29G02R11R21
                                R10R16R19R09R20E12E18E11
 108783150.733 8  84766102.937 8                  20700739.200    20700734.400
  20700733.580          50.100          49.450
 118036845.023 8  91976742.85447                  22461662.740
  22461658.600          48.450          43.550
 117953969.819 8  91912240.01547                  22445865.100
  22445859.800          48.250          43.300
 113883449.020 8  88740523.224 8  85042995.455 8  21671218.020    21671216.480
  21671215.800          50.000          48.300
 133839271.080 7 104290345.866 6                  25468764.960    25468761.860
  25468761.220          43.800          37.150
 132208754.705 6 103019805.53845                  25158490.920
  25158482.660          37.600          31.200
 128319360.607 7  99989105.43745                  24418355.540
  24418351.700          44.000          33.950
 130257782.934 7 101499738.868 6                  24787158.500    24787155.020
  24787153.820          45.450          38.950
 108223932.838 8  84330477.625 8                  20594266.360    20594262.220
  20594261.460          49.650          48.950
