     2.11           OBSERVATION DATA    M (MIXED)           RINEX VERSION / TYPE
teqc  2011Oct11     IGN-E (SPG)         20150127 03:02:52UTCPGM / RUN BY / DATE
Linux 2.4.21-27.ELsmp|Opteron|gcc -static|Linux x86_64|=+   COMMENT
BIT 2 OF LLI FLAGS DATA COLLECTED UNDER A/S CONDITION       COMMENT
VALE                                                        MARKER NAME
13439M001                                                   MARKER NUMBER
Programas GeodesicosInstituto Geografico Nacional           OBSERVER / AGENCY
1700071             LEICA GR10          3.03/6.214          REC # / TYPE / VERS
10190012            LEIAR25.R3      LEIT                    ANT # / TYPE
  4929534.0457   -29050.6755  4033709.9250                  APPROX POSITION XYZ
        3.0390        0.0000        0.0000                  ANTENNA: DELTA H/E/N
     1     1                                                WAVELENGTH FACT L1/2
     8    L1    L2    L5    C1    C2    P2    S1    S2      # / TYPES OF OBSERV
     5.0000                                                 INTERVAL
Forced Modulo Decimation to 5 seconds                       COMMENT
DefaultJobName                                              COMMENT
DefaultUserDiscription                                      COMMENT
Project creator:                                            COMMENT
 SNR is mapped to RINEX snr flag value [0-9]                COMMENT
  L1 & L2: min(max(int(snr_dBHz/6), 0), 9)                  COMMENT
  2015     1    27     2     0    0.0000000     GPS         TIME OF FIRST OBS
    15                                                      LEAP SECONDS
                                                            END OF HEADER
 15  1 27  2  0  0.0000000  0 23G31G08G21G25G16G18G22G27G19G29R11R05
                                R21R10R04R22R12R06R20E12E19E18E11
 119934768.770 8  93455672.928 7                  22822823.220    22822819.040
  22822818.100          49.000          44.600
 110412107.179 8  86035388.04147                  21010724.160
  21010719.760          50.650          46.150
 111396250.531 8  86802330.98547                  21197970.920
  21197965.180          48.050          46.600
 133029266.821 7 103659339.343 6  99340193.441 7  25314548.020    25314547.040
  25314546.240          43.550          38.000
 112826074.082 8  87916422.21247                  21470085.780
  21470080.520          50.000          45.300
 122809345.213 8  95695586.73446                  23369833.680
  23369828.420          48.100          37.850
 130322643.348 7 101550116.62045                  24799563.420
  24799557.120          45.800          35.450
 119239228.905 8  92913693.657 7  89042284.092 8  22690466.560    22690465.060
  22690464.400          48.000          46.350
 132158956.168 7 102980979.40446                  25149011.640
  25149005.900          42.700          37.250
 124918362.676 7  97339120.421 6                  23771113.860    23771110.340
  23771109.580          47.050          41.600
 104487990.414 7  81268450.733 7                  19553501.620    19553505.160
  19553503.480          47.750          42.350
 122811652.123 7  95520192.146 7                  22974458.060    22974461.240
  22974461.220          46.650          42.650
 105264639.714 7  81872548.389 7                  19671194.060    19671195.640
  19671194.700          47.700          47.100
 113391779.297 7  88193640.662 6                  21272004.360    21272010.820
  21272009.440          47.700          40.050
 127807275.913 7  99405675.276 6                  23867103.600    23867106.320
  23867105.740          42.850          37.900
 116465170.069 8  90584049.584 7                  21817844.280    21817847.500
  21817846.260          49.050          43.650
 118874699.050 7  92458113.161 6                  22253592.900    22253596.260
  22253595.880          43.750          40.300
 128772767.070 7 100156583.115 5                  24131959.940    24131962.540
  24131962.320          44.150          35.050
 114473785.145 7  89035315.626 7                  21407128.420    21407132.840
  21407130.620          42.200          44.450
 137109458.038 8                 102387063.613 7  26091011.040
                        48.400
 147026876.641 7                 109792805.742 6  27978282.980
                        45.000
 118106695.572 8                  88196596.245 8  22474951.560
                        52.250
 122991997.631 8                  91844782.313 8  23404544.820
                        50.600
 15  1 27  2  0  5.0000000  0 23G31G08G21G25G16G18G22G27G19G29R11R05
                                R21R10R04R22R12R06R20E12E19E18E11
 119950482.488 8  93467917.385 7                  22825813.440    22825809.280
  22825808.340          49.100          44.650
 110418694.274 8  86040520.84647                  21011977.640
  21011973.240          50.400          46.650
 111400317.829 7  86805500.31247                  21198744.880
  21198739.160          47.950          46.550
 133046154.566 7 103672498.625 6  99352804.433 7  25317761.660    25317760.720
  25317759.840          43.650          38.350
 112815175.617 8  87907929.90247                  21468011.860
  21468006.600          49.900          45.150
 122797727.407 8  95686533.89446                  23367622.900
  23367617.620          48.050          37.550
 130307347.593 7 101538197.86646                  24796652.700
  24796646.440          45.100          36.400
 119227748.537 8  92904747.917 7  89033711.087 8  22688281.880    22688280.400
  22688279.760          48.100          46.650
 132143984.869 7 102969313.46945                  25146162.680
  25146156.960          44.400          34.950
 124931954.770 7  97349711.659 6                  23773700.380    23773696.840
  23773696.020          47.000          41.300
 104489175.475 7  81269372.449 7                  19553723.420    19553726.940
  19553725.260          47.600          42.400
 122802390.610 7  95512988.762 7                  22972725.540    22972728.760
  22972728.740          46.400          42.300
 105265746.854 7  81873409.501 7                  19671400.900    19671402.540
  19671401.600          47.750          47.050
 113411537.844 7  88209008.431 6                  21275711.040    21275717.520
  21275716.120          47.250          40.150
 127812644.924 7  99409851.168 6                  23868106.300    23868108.940
  23868108.320          42.250          37.200
 116452813.421 8  90574438.850 7                  21815529.460    21815532.680
  21815531.460          48.200          44.200
 118856416.410 7  92443893.328 6                  22250170.340    22250173.760
  22250173.320          43.250          40.250
 128754551.003 7 100142415.055 5                  24128546.280    24128548.800
  24128548.540          44.050          34.550
 114487702.219 7  89046140.010 7                  21409730.980    21409735.440
  21409733.200          42.700          44.650
 137120290.135 8                 102395152.501 7  26093072.260
                        48.350
 147023065.161 7                 109789959.507 6  27977557.720
                        45.200
 118133334.146 8                  88216488.686 8  22480020.720
                        52.300
 122995282.336 8                  91847235.175 8  23405169.880
                        50.600
 15  1 27  2  0 10.0000000  0 23G31G08G21G25G16G18G22G27G19G29R11R05
                                R21R10R04R22R12R06R20E12E19E18E11
 119966201.599 8  93480166.048 7                  22828804.680    22828800.500
  22828799.600          49.100          44.800
 110425297.838 8  86045666.48947                  21013234.240
  21013229.860          50.350          46.400
 111404395.865 8  86808678.00447                  21199520.860
  21199515.180          48.050          46.450
 133063044.481 7 103685659.612 6  99365417.030 7  25320975.720    25320974.800
  25320973.940          43.100          38.400
 112804284.159 8  87899443.06047                  21465939.280
  21465934.020          49.750          45.800
 122786114.640 7  95677484.99946                  23365413.060
  23365407.800          47.950          38.250
 130292048.758 7 101526276.71846                  24793741.400
  24793735.180          44.550          36.500
 119216271.873 7  92895805.070 7  89025140.863 8  22686097.940    22686096.460
  22686095.840          47.900          46.600
 132129015.412 7 102957648.94545                  25143314.000
  25143308.360          43.800          35.750
 124945547.045 7  97360303.050 6                  23776286.920    23776283.340
  23776282.500          47.100          41.300
 104490382.939 7  81270311.594 7                  19553949.400    19553952.940
  19553951.200          47.900          42.150
 122793144.835 7  95505797.624 7                  22970995.960    22970999.180
  22970999.180          46.650          42.700
 105266863.749 7  81874278.210 7                  19671609.580    19671611.280
  19671610.320          47.700          47.000
 113431307.411 7  88224384.767 6                  21279419.780    21279426.200
  21279424.820          47.150          40.250
 127818032.592 7  99414041.587 6                  23869112.520    23869114.980
  23869114.440          43.000          37.550
 116440464.415 7  90564834.084 7                  21813216.060    21813219.280
  21813218.100          47.050          44.350
 118838144.716 7  92429682.018 6                  22246749.780    22246753.280
  22246752.820          43.300          40.250
 128736334.665 7 100128246.796 5                  24125132.580    24125135.160
  24125134.780          44.850          34.700
 114501621.619 7  89056966.212 7                  21412333.940    21412338.420
  21412336.240          42.750          44.650
 137131122.342 8                 102403241.481 7  26095133.480
                        48.400
 147019263.321 7                 109787120.471 6  27976834.300
                        44.850
 118159971.978 8                  88236380.574 8  22485089.760
                        52.250
 122998571.365 8                  91849691.274 8  23405795.760
                        50.650
 15  1 27  2  0 15.0000000  0 23G31G08G21G25G16G18G22G27G19G29R11R05
                                R21R10R04R22R12R06R20E12E19E18E11
 119981927.430 8  93492419.937 7                  22831797.240    22831793.080
  22831792.140          49.250          44.650
 110431919.188 8  86050825.97447                  21014494.240
  21014489.860          50.600          46.300
 111408485.914 8  86811865.05847                  21200299.160
  21200293.480          48.100          46.600
 133079937.864 7 103698823.274 6  99378032.203 7  25324190.400    25324189.440
  25324188.660          42.550          38.500
 112793401.033 8  87890962.70247                  21463868.280
  21463863.020          49.700          44.900
 122774508.185 8  95668440.99846                  23363204.440
  23363199.160          48.100          38.800
 130276748.107 7 101514354.16446                  24790829.720
  24790823.520          44.050          36.900
 119204800.204 8  92886866.110 7  89016574.353 8  22683914.940    22683913.480
  22683912.880          48.050          46.800
 132114049.150 7 102945986.92645                  25140466.000
  25140460.420          43.600          35.300
 124959140.771 7  97370895.566 6                  23778873.720    23778870.100
  23778869.300          47.150          41.250
 104491614.180 7  81271269.224 7                  19554179.840    19554183.340
  19554181.580          47.750          42.000
 122783915.941 7  95498619.600 7                  22969269.500    22969272.720
  22969272.780          46.400          42.600
 105267991.672 7  81875155.471 7                  19671820.320    19671822.080
  19671821.080          47.800          47.100
 113451089.094 7  88239770.503 6                  21283130.760    21283137.280
  21283135.820          47.400          40.100
 127823440.379 7  99418247.655 6                  23870122.500    23870124.840
  23870124.260          42.850          37.650
 116428124.350 8  90555236.289 7                  21810904.320    21810907.560
  21810906.420          48.050          44.350
 118819885.492 7  92415480.402 6                  22243331.620    22243335.100
  22243334.680          43.450          40.300
 128718119.113 7 100114079.138 5                  24121719.000    24121721.560
  24121721.160          44.750          33.950
 114515544.628 7  89067795.218 7                  21414937.620    21414942.040
  21414939.960          42.800          44.400
 137141955.908 8                 102411331.480 7  26097194.980
                        48.550
 147015472.370 7                 109784289.580 6  27976112.920
                        44.550
 118186610.326 8                  88256272.846 8  22490158.920
                        52.250
 123001866.004 8                  91852151.553 8  23406422.720
                        50.700
 15  1 27  2  0 20.0000000  0 23G31G08G21G25G16G18G22G27G19G29R11R05
                                R21R10R04R22R12R06R20E12E19E18E11
 119997657.939 8  93504677.478 7                  22834790.660    22834786.520
  22834785.580          49.350          44.800
 110438556.330 8  86055997.76847                  21015757.240
  21015752.860          50.750          46.350
 111412586.001 8  86815059.93247                  21201079.360
  21201073.700          48.250          46.050
 133096832.704 7 103711988.081 6  99390648.463 7  25327405.360    25327404.440
  25327403.600          42.250          38.550
 112782524.279 8  87882487.31547                  21461798.460
  21461793.240          49.750          45.400
 122762906.146 8  95659400.44646                  23360996.640
  23360991.380          48.150          38.500
 130261443.723 7 101502428.68846                  24787917.320
  24787911.180          44.000          36.400
 119193331.586 8  92877929.534 7  89008010.131 8  22681732.540    22681731.100
  22681730.480          48.450          46.700
 132099084.073 7 102934325.82946                  25137618.200
  25137612.620          42.650          38.250
 124972733.947 7  97381487.654 6                  23781460.420    23781456.800
  23781456.000          47.150          41.700
 104492867.079 7  81272243.701 7                  19554414.320    19554417.860
  19554416.040          47.850          42.300
 122774701.958 7  95491453.173 6                  22967545.820    22967549.040
  22967549.080          46.400          41.850
 105269128.658 7  81876039.785 7                  19672032.760    19672034.580
  19672033.560          47.950          47.150
 113470880.917 7  88255164.140 6                  21286843.600    21286850.200
  21286848.720          47.300          39.950
 127828866.126 7  99422467.691 6                  23871135.840    23871138.000
  23871137.500          43.100          37.750
 116415791.297 8  90545643.924 7                  21808593.880    21808597.180
  21808596.020          48.350          43.750
 118801636.626 7  92401286.850 6                  22239915.400    22239918.840
  22239918.460          43.550          40.150
 128699902.473 7 100099910.642 5                  24118305.220    24118307.720
  24118307.320          44.550          33.650
 114529469.215 7  89078625.452 7                  21417541.540    21417546.000
  21417543.980          43.100          44.150
 137152788.846 8                 102419421.013 7  26099256.340
                        48.400
 147011690.400 7                 109781465.375 6  27975393.260
                        45.100
 118213247.220 8                  88276164.034 8  22495227.780
                        52.250
 123005164.272 8                  91854614.545 8  23407050.360
                        50.800
 15  1 27  2  0 25.0000000  0 23G31G08G21G25G16G18G22G27G19G29R11R05
                                R21R10R04R22R12R06R20E12E19E18E11
 120013394.792 8  93516939.956 7                  22837785.320    22837781.140
  22837780.200          49.350          44.750
 110445210.939 8  86061183.17647                  21017023.560
  21017019.200          50.800          46.400
 111416697.800 8  86818263.93647                  21201861.780
  21201856.140          48.050          46.300
 133113730.722 7 103725155.362 6  99403267.116 7  25330620.900    25330619.980
  25330619.140          42.650          38.700
 112771655.568 8  87874018.19347                  21459730.180
  21459724.980          49.750          45.200
 122751310.196 8  95650364.65346                  23358790.000
  23358784.760          48.400          37.900
 130246137.281 7 101490501.61946                  24785004.580
  24784998.600          43.750          37.450
 119181867.686 8  92868996.624 7  88999449.425 8  22679551.040    22679549.580
  22679548.960          48.300          46.850
 132084121.865 7 102922666.92546                  25134770.980
  25134765.520          43.250          37.600
 124986328.283 7  97392080.640 6                  23784047.360    23784043.800
  23784042.960          47.400          41.700
 104494143.437 7  81273236.416 7                  19554653.160    19554656.720
  19554654.920          47.850          42.300
 122765504.683 7  95484299.739 6                  22965825.280    22965828.480
  22965828.460          46.850          41.550
 105270276.354 8  81876932.436 7                  19672247.240    19672249.060
  19672248.060          48.350          47.150
 113490684.509 7  88270566.926 6                  21290558.640    21290565.300
  21290563.820          47.300          39.550
 127834311.793 7  99426703.217 6                  23872152.840    23872154.980
  23872154.380          43.150          37.000
 116403466.856 7  90536058.244 7                  21806285.040    21806288.420
  21806287.220          47.750          43.950
 118783399.979 7  92387102.793 6                  22236501.520    22236504.920
  22236504.520          43.700          39.750
 128681686.636 7 100085742.757 5                  24114891.560    24114893.880
  24114893.640          44.600          33.800
 114543397.193 7  89089458.328 7                  21420146.140    21420150.620
  21420148.600          42.950          44.550
 137163622.871 8                 102427511.351 7  26101317.940
                        48.650
 147007919.058 7                 109778649.127 6  27974675.640
                        45.050
 118239884.323 8                  88296055.384 8  22500296.660
                        52.200
 123008467.853 8                  91857081.513 8  23407679.020
                        50.800
 15  1 27  2  0 30.0000000  0 23G31G08G21G25G16G18G22G27G19G29R11R05
                                R21R10R04R22R12R06R20E12E19E18E11
 120029135.980 8  93529205.819 7                  22840780.820    22840776.580
  22840775.680          49.250          45.200
 110451880.984 8  86066380.61047                  21018292.820
  21018288.460          50.700          46.650
 111420819.330 8  86821475.51847                  21202646.060
  21202640.460          48.000          46.550
 133130629.834 7 103738323.495 6  99415886.580 7  25333836.700    25333835.840
  25333834.980          42.700          38.650
 112760792.878 8  87865553.76247                  21457663.020
  21457657.880          49.800          45.500
 122739718.355 8  95641332.04546                  23356584.160
  23356578.940          48.350          38.800
 130230826.843 7 101478571.40246                  24782091.080
  24782085.020          43.000          38.100
 119170406.493 8  92860065.820 7  88990890.738 8  22677370.040    22677368.600
  22677367.960          48.150          46.900
 132069160.466 7 102911008.70745                  25131923.900
  25131918.520          43.400          35.850
 124999921.754 7  97402672.953 6                  23786634.120    23786630.580
  23786629.720          46.950          41.550
 104495441.181 7  81274245.770 7                  19554896.040    19554899.500
  19554897.780          47.750          42.250
 122756321.969 7  95477157.634 6                  22964107.480    22964110.540
  22964110.520          46.600          40.700
 105271432.685 8  81877831.812 7                  19672463.300    19672465.120
  19672464.140          48.350          47.000
 113510497.883 7  88285977.332 6                  21294275.560    21294282.260
  21294280.740          47.250          39.750
 127839775.097 7  99430952.455 6                  23873173.140    23873175.180
  23873174.560          43.850          36.450
 116391148.998 7  90526477.725 7                  21803977.480    21803980.860
  21803979.680          47.300          43.800
 118765173.306 7  92372926.487 6                  22233089.480    22233092.860
  22233092.420          43.550          39.850
 128663469.379 7 100071573.761 5                  24111477.580    24111479.840
  24111479.720          43.700          34.300
 114557326.312 7  89100292.075 7                  21422750.960    21422755.460
  21422753.440          42.700          44.200
 137174455.953 8                 102435600.980 7  26103379.380
                        48.400
 147004156.345 7                 109775839.293 6  27973959.600
                        44.700
 118266519.593 8                  88315945.355 8  22505365.160
                        52.050
 123011774.710 8                  91859550.915 8  23408308.300
                        50.800
 15  1 27  2  0 35.0000000  0 23G31G08G21G25G16G18G22G27G19G29R11R05
                                R21R10R04R22R12R06R20E12E19E18E11
 120044884.339 8  93541477.269 7                  22843777.660    22843773.400
  22843772.520          49.450          45.150
 110458569.349 8  86071592.32147                  21019565.560
  21019561.240          50.550          46.750
 111424953.382 7  86824696.86147                  21203432.720
  21203427.140          47.950          46.600
 133147532.902 7 103751494.736 6  99428509.009 7  25337053.220    25337052.400
  25337051.540          42.950          39.150
 112749939.136 8  87857096.30947                  21455597.600
  21455592.480          49.950          45.600
 122728133.508 8  95632304.90046                  23354379.640
  23354374.440          48.500          38.250
 130215515.233 7 101466640.31446                  24779177.320
  24779171.300          42.800          36.650
 119158950.855 8  92851139.355 7  88982336.217 8  22675190.120    22675188.660
  22675188.040          48.300          46.900
 132054202.754 7 102899353.36946                  25129077.500
  25129072.220          44.000          36.000
 125013517.232 7  97413266.838 6                  23789221.200    23789217.760
  23789216.880          46.850          41.600
 104496763.201 7  81275274.010 7                  19555143.440    19555146.860
  19555145.180          47.900          42.100
 122747156.907 7  95470029.238 6                  22962392.960    22962395.940
  22962395.800          46.900          40.550
 105272600.638 8  81878740.223 7                  19672681.540    19672683.380
  19672682.380          48.650          46.900
 113530323.882 7  88301397.549 6                  21297994.820    21298001.520
  21298000.060          47.400          39.700
 127845259.018 7  99435217.741 6                  23874197.260    23874199.280
  23874198.580          43.800          36.750
 116378840.601 8  90516904.531 7                  21801671.700    21801675.100
  21801673.900          48.500          43.700
 118746959.624 7  92358760.301 6                  22229679.860    22229683.200
  22229682.780          43.450          40.150
 128645253.964 7 100057406.221 5                  24108063.940    24108066.400
  24108066.160          43.800          35.300
 114571259.770 7  89111129.209 7                  21425356.600    21425361.100
  21425359.060          42.750          44.050
 137185290.967 8                 102443692.068 7  26105441.180
                        48.700
 147000405.130 7                 109773038.071 6  27973245.720
                        45.000
 118293155.910 8                  88335836.109 8  22510433.840
                        52.050
 123015087.737 8                  91862024.932 8  23408938.780
                        50.850
 15  1 27  2  0 40.0000000  0 23G31G08G21G25G16G18G22G27G19G29R11R05
                                R21R10R04R22R12R06R20E12E19E18E11
 120060639.498 8  93553754.010 7                  22846775.800    22846771.540
  22846770.660          49.300          45.000
 110465275.634 8  86076817.98747                  21020841.700
  21020837.380          50.500          46.850
 111429099.511 8  86827927.60247                  21204221.660
  21204216.100          48.000          46.450
 133164439.626 7 103764668.791 6  99441134.146 7  25340270.480    25340269.600
  25340268.700          43.400          38.900
 112739093.881 8  87848645.45247                  21453533.820
  21453528.680          50.150          45.650
 122716555.254 8  95623282.88446                  23352176.380
  23352171.180          48.450          38.200
 130200202.109 7 101454707.99346                  24776263.260
  24776257.260          42.750          37.800
 119147500.432 8  92842216.943 7  88973785.569 8  22673011.200    22673009.720
  22673009.100          48.300          46.950
 132039248.421 7 102887700.63446                  25126231.740
  25126226.420          43.350          37.300
 125027114.326 7  97423861.958 7                  23791808.620    23791805.240
  23791804.380          47.000          42.000
 104498109.091 7  81276320.805 6                  19555395.300    19555398.700
  19555397.040          47.700          41.900
 122738008.939 7  95462914.144 6                  22960681.660    22960684.520
  22960684.260          46.800          40.700
 105273779.829 8  81879657.363 7                  19672901.880    19672903.740
  19672902.740          48.400          47.050
 113550162.253 7  88316827.385 6                  21301716.400    21301723.160
  21301721.680          47.150          39.700
 127850763.288 7  99439498.859 6                  23875225.200    23875227.080
  23875226.440          43.850          37.000
 116366541.407 8  90507338.469 7                  21799367.660    21799371.000
  21799369.840          48.400          43.800
 118728758.609 7  92344603.948 6                  22226272.540    22226275.920
  22226275.480          43.300          40.350
 128627039.823 7 100043239.695 6                  24104650.600    24104653.160
  24104652.900          43.650          36.350
 114585196.967 7  89121969.251 7                  21427962.920    21427967.440
  21427965.380          42.800          44.050
 137196127.544 8                 102451784.311 7  26107503.320
                        48.850
 146996665.058 7                 109770245.154 7  27972534.000
                        44.750
 118319792.870 8                  88355727.336 8  22515502.620
                        51.950
 123018406.549 8                  91864503.266 8  23409570.340
                        50.750
 15  1 27  2  0 45.0000000  0 23G31G08G21G25G16G18G22G27G19G29R11R05
                                R21R10R04R22R12R06R20E12E19E18E11
 120076399.972 8  93566034.893 7                  22849774.920    22849770.680
  22849769.780          49.400          45.000
 110471998.340 8  86082056.45747                  21022120.960
  21022116.680          50.550          46.600
 111433256.309 7  86831166.66447                  21205012.620
  21205007.100          47.950          46.300
 133181348.459 7 103777844.500 6  99453760.876 7  25343488.140    25343487.200
  25343486.380          44.300          38.800
 112728255.648 8  87840200.07347                  21451471.360
  21451466.220          50.200          45.300
 122704982.129 8  95614264.85846                  23349974.080
  23349968.920          48.350          38.000
 130184885.985 7 101442773.35946                  24773348.640
  24773342.740          43.200          36.800
 119136053.699 8  92833297.408 7  88965237.677 8  22670832.980    22670831.440
  22670830.880          48.550          46.800
 132024295.950 7 102876049.36046                  25123386.360
  25123381.020          42.300          37.350
 125040711.549 7  97434457.189 6                  23794396.040    23794392.700
  23794391.860          46.700          41.850
 104499477.361 7  81277385.006 6                  19555651.340    19555654.780
  19555653.080          47.850          41.900
 122728876.723 7  95455811.321 6                  22958973.300    22958976.040
  22958975.760          47.050          40.900
 105274968.639 8  81880581.978 7                  19673124.000    19673125.900
  19673124.900          48.100          47.050
 113570011.289 7  88332265.522 6                  21305440.000    21305446.760
  21305445.280          46.900          39.650
 127856286.222 7  99443794.470 6                  23876256.660    23876258.440
  23876257.820          43.900          37.300
 116354249.774 7  90497778.306 7                  21797065.040    21797068.300
  21797067.180          47.900          43.700
 118710568.808 7  92330456.337 6                  22222867.360    22222870.720
  22222870.320          43.450          39.900
 128608825.304 7 100029072.863 5                  24101237.160    24101239.820
  24101239.520          43.850          35.800
 114599136.527 7  89132811.133 7                  21430569.700    21430574.220
  21430572.120          42.850          43.950
 137206964.139 8                 102459876.569 7  26109565.460
                        48.850
 146992934.627 7                 109767459.441 7  27971824.080
                        44.550
 118346428.961 8                  88375617.917 8  22520571.200
                        52.000
 123021729.631 8                  91866984.777 8  23410202.720
                        50.700
 15  1 27  2  0 50.0000000  0 23G31G08G21G25G16G18G22G27G19G29R11R05
                                R21R10R04R22R12R06R20E12E19E18E11
 120092166.547 8  93578320.532 7                  22852775.220    22852770.940
  22852770.080          49.250          45.100
 110478738.267 8  86087308.35147                  21023403.520
  21023399.240          50.550          46.350
 111437424.627 7  86834414.70647                  21205805.800
  21205800.320          47.950          46.200
 133198260.167 7 103791022.468 6  99466389.753 7  25346706.360    25346705.360
  25346704.640          44.000          38.100
 112717425.341 8  87831760.87647                  21449410.440
  21449405.280          50.100          45.350
 122693415.021 8  95605251.52946                  23347772.920
  23347767.780          48.450          38.750
 130169567.638 7 101430837.02246                  24770433.600
  24770427.720          42.950          36.950
 119124611.479 8  92824381.399 7  88956693.174 8  22668655.620    22668654.080
  22668653.540          48.400          46.750
 132009346.168 7 102864400.14445                  25120541.460
  25120536.080          42.300          34.500
 125054309.694 7  97445053.142 6                  23796983.640    23796980.300
  23796979.540          46.600          41.850
 104500868.865 7  81278467.287 6                  19555911.720    19555915.160
  19555913.480          47.850          41.900
 122719761.045 7  95448721.333 6                  22957268.040    22957270.660
  22957270.400          47.150          41.200
 105276167.924 8  81881514.745 7                  19673348.140    19673350.020
  19673349.040          48.300          47.000
 113589871.827 7  88347712.612 6                  21309165.720    21309172.580
  21309171.060          46.850          39.550
 127861828.817 7  99448105.390 6                  23877291.700    23877293.520
  23877292.840          43.100          37.300
 116341966.592 8  90488224.751 7                  21794764.000    21794767.220
  21794766.120          48.400          43.800
 118692391.084 7  92316318.116 6                  22219464.440    22219467.800
  22219467.400          43.650          40.250
 128590611.348 7 100014906.453 5                  24097823.860    24097826.480
  24097826.200          44.550          35.550
 114613079.151 7  89143655.386 7                  21433177.080    21433181.600
  21433179.460          43.400          44.000
 137217801.620 8                 102467969.497 7  26111627.800
                        48.700
 146989214.634 7                 109764681.552 7  27971116.120
                        44.550
 118373064.983 8                  88395508.455 8  22525639.760
                        52.000
 123025057.813 8                  91869470.118 8  23410836.060
                        50.650
 15  1 27  2  0 55.0000000  0 23G31G08G21G25G16G18G22G27G19G29R11R05
                                R21R10R04R22R12R06R20E12E19E18E11
 120107938.345 8  93590610.239 7                  22855776.480    22855772.200
  22855771.340          49.300          44.900
 110485494.519 8  86092572.96147                  21024689.180
  21024684.920          50.600          46.400
 111441603.471 8  86837670.94847                  21206600.940
  21206595.540          48.000          46.350
 133215173.935 7 103804202.034 6  99479020.187 7  25349924.940    25349923.980
  25349923.180          44.050          38.250
 112706602.078 8  87823327.16747                  21447350.860
  21447345.680          50.200          45.450
 122681853.026 8  95596242.18146                  23345572.760
  23345567.660          48.300          39.050
 130154246.225 7 101418898.27145                  24767517.900
  24767512.080          42.450          35.600
 119113172.919 8  92815468.232 7  88948151.383 8  22666478.960    22666477.380
  22666476.860          48.550          46.800
 131994398.177 7 102852752.36146                  25117696.880
  25117691.580          42.500          37.600
 125067907.911 7  97455649.149 6                  23799571.280    23799567.920
  23799567.200          46.850          41.550
 104502282.711 7  81279566.935 7                  19556176.260    19556179.780
  19556178.040          47.700          42.000
 122710661.022 7  95441643.546 6                  22955565.700    22955568.340
  22955568.000          46.900          41.200
 105277376.827 8  81882455.013 7                  19673574.080    19673575.900
  19673574.960          48.550          47.150
 113609743.054 7  88363168.010 6                  21312893.460    21312900.360
  21312898.800          46.900          39.700
 127867389.924 7  99452430.691 6                  23878330.200    23878331.960
  23878331.320          43.650          37.400
 116329691.021 8  90478677.089 7                  21792464.380    21792467.600
  21792466.480          49.000          44.100
 118674224.450 7  92302188.503 6                  22216063.580    22216067.080
  22216066.580          43.650          40.500
 128572397.232 7 100000739.924 6                  24094410.580    24094413.260
  24094412.920          45.350          36.300
 114627023.954 7  89154501.356 7                  21435784.800    21435789.380
  21435787.200          43.100          44.250
 137228639.077 8                 102476062.403 7  26113690.160
                        48.850
 146985504.298 7                 109761910.825 6  27970410.000
                        44.200
 118399700.070 8                  88415398.287 8  22530708.200
                        51.950
 123028390.215 8                  91871958.599 8  23411470.240
                        50.650
 15  1 27  2  1  0.0000000  0 23G31G08G21G25G16G18G22G27G19G29R11R05
                                R21R10R04R22R12R06R20E12E19E18E11
 120123716.027 8  93602904.536 7                  22858778.860    22858774.580
  22858773.720          49.300          45.100
 110492267.805 8  86097850.84047                  21025978.080
  21025973.820          50.400          46.450
 111445793.668 7  86840936.03947                  21207398.260
  21207392.900          47.950          46.300
 133232090.451 7 103817383.733 6  99491652.649 7  25353144.020    25353143.140
  25353142.460          43.400          37.600
 112695786.545 8  87814899.47247                  21445292.760
  21445287.560          50.150          45.700
 122670296.803 8  95587237.33446                  23343373.680
  23343368.560          48.300          38.600
 130138922.458 7 101406957.69146                  24764601.800
  24764595.960          43.700          36.200
 119101738.714 8  92806558.457 7  88939612.847 8  22664303.140    22664301.540
  22664301.000          48.650          46.850
 131979452.628 7 102841106.48945                  25114852.780
  25114847.480          43.300          34.150
 125081506.873 7  97466245.739 6                  23802159.100    23802155.720
  23802155.020          47.000          41.900
 104503719.700 7  81280684.591 6                  19556445.160    19556448.720
  19556446.940          47.900          41.850
 122701577.405 7  95434578.510 6                  22953866.400    22953869.020
  22953868.700          47.150          41.650
 105278595.986 8  81883403.246 7                  19673801.900    19673803.720
  19673802.800          48.950          47.000
 113629625.488 7  88378632.123 6                  21316623.300    21316630.200
  21316628.680          47.300          39.750
 127872970.464 7  99456771.109 6                  23879372.380    23879374.200
  23879373.460          43.550          37.350
 116317423.605 8  90469135.763 7                  21790166.280    21790169.520
  21790168.360          48.750          43.800
 118656069.688 7  92288068.137 6                  22212664.940    22212668.420
  22212667.980          43.900          40.350
 128554183.559 7  99986573.719 6                  24090997.420    24091000.100
  24090999.680          45.250          37.150
 114640971.650 7  89165349.547 7                  21438393.120    21438397.660
  21438395.500          43.700          44.400
 137239477.217 8                 102484155.816 7  26115752.660
                        48.950
 146981804.204 7                 109759147.785 6  27969705.820
                        43.800
 118426334.886 8                  88435287.913 8  22535776.580
                        52.000
 123031727.525 8                  91874450.737 8  23412105.340
                        50.700
 15  1 27  2  1  5.0000000  0 23G31G08G21G25G16G18G22G27G19G29R11R05
                                R21R10R04R22R12R06R20E12E19E18E11
 120139500.582 8  93615204.192 7                  22861782.580    22861778.300
  22861777.420          49.150          45.050
 110499059.124 8  86103142.77347                  21027270.400
  21027266.160          50.250          46.600
 111449996.178 7  86844210.72447                  21208197.940
  21208192.620          47.950          46.600
 133249010.722 7 103830568.369 6  99504287.912 7  25356363.880    25356363.060
  25356362.400          42.850          36.950
 112684979.767 8  87806478.61047                  21443236.320
  21443231.100          50.000          45.900
 122658747.394 8  95578237.80046                  23341175.900
  23341170.780          48.100          38.750
 130123597.390 7 101395016.11246                  24761685.600
  24761679.740          43.800          36.850
 119090309.871 8  92797652.863 7  88931078.325 8  22662128.340    22662126.700
  22662126.140          48.500          46.800
 131964510.615 7 102829463.38545                  25112009.400
  25112004.120          43.100          31.700
 125095107.612 7  97476843.713 6                  23804747.280    23804743.880
  23804743.180          47.150          41.650
 104505180.667 7  81281820.909 7                  19556718.560    19556722.120
  19556720.340          47.700          42.000
 122692511.235 7  95427527.051 6                  22952170.400    22952173.000
  22952172.700          47.650          41.550
 105279826.449 8  81884360.279 7                  19674031.840    19674033.640
  19674032.740          48.450          47.050
 113649520.288 7  88394105.857 6                  21320355.460    21320362.340
  21320360.880          46.950          39.800
 127878571.363 7  99461127.379 6                  23880418.400    23880420.120
  23880419.380          43.400          37.100
 116305165.661 8  90459601.813 7                  21787869.980    21787873.200
  21787872.020          48.300          44.050
 118637927.880 7  92273957.840 6                  22209268.760    22209272.240
  22209271.800          43.750          40.550
 128535971.262 7  99972408.610 6                  24087584.480    24087587.140
  24087586.720          44.550          36.000
 114654923.330 7  89176200.854 7                  21441002.180    21441006.640
  21441004.540          43.700          44.350
 137250317.062 8                 102492250.492 7  26117815.480
                        48.800
 146978115.463 7                 109756393.200 6  27969003.740
                        43.750
 118452970.427 8                  88455178.095 8  22540845.140
                        52.150
 123035070.755 8                  91876947.307 8  23412741.540
                        50.700
 15  1 27  2  1 10.0000000  0 23G31G08G21G25G16G18G22G27G19G29R11R05
                                R21R10R04R22R12R06R20E12E19E18E11
 120155290.332 8  93627507.889 7                  22864787.260    22864782.960
  22864782.100          49.150          45.100
 110505866.760 8  86108447.40547                  21028565.840
  21028561.600          50.300          46.700
 111454209.313 7  86847493.68047                  21208999.620
  21208994.360          47.700          46.850
 133265933.000 7 103843754.550 6  99516924.682 7  25359584.060    25359583.220
  25359582.640          43.150          36.900
 112674180.033 8  87798063.22747                  21441181.200
  21441175.980          49.850          45.650
 122647203.117 8  95569242.25946                  23338979.080
  23338973.980          48.000          37.700
 130108269.310 7 101383072.15745                  24758768.800
  24758762.880          43.700          35.850
 119078884.696 8  92788750.127 7  88922546.525 8  22659954.260    22659952.560
  22659952.000          48.700          46.850
 131949570.463 6 102817821.69346                  25109166.340
  25109161.180          41.800          36.700
 125108708.450 7  97487441.764 6                  23807335.500    23807332.060
  23807331.400          47.200          41.850
 104506664.002 7  81282974.602 6                  19556996.100    19556999.760
  19556997.920          47.650          41.950
 122683460.814 7  95420487.838 6                  22950477.400    22950480.020
  22950479.660          47.850          41.350
 105281066.553 7  81885324.794 7                  19674263.580    19674265.380
  19674264.480          47.800          47.100
 113669425.742 7  88409587.866 6                  21324089.660    21324096.520
  21324095.080          47.100          39.050
 127884190.949 7  99465498.174 6                  23881467.880    23881469.480
  23881468.780          43.150          37.150
 116292915.160 8  90450073.654 7                  21785575.100    21785578.240
  21785577.080          48.600          44.050
 118619797.322 7  92259856.288 6                  22205874.720    22205878.160
  22205877.740          43.700          40.200
 128517758.859 7  99958243.406 5                  24084171.520    24084174.280
  24084173.700          43.400          34.900
 114668877.176 7  89187053.835 7                  21443611.680    21443616.040
  21443613.980          43.000          44.150
 137261156.887 8                 102500345.164 8  26119878.320
                        48.950
 146974436.324 7                 109753645.796 6  27968303.560
                        43.450
 118479604.994 8                  88475067.533 8  22545913.560
                        52.200
 123038418.192 8                  91879447.012 8  23413378.560
                        50.750
 15  1 27  2  1 15.0000000  0 23G31G08G21G25G16G18G22G27G19G29R11R05
                                R21R10R04R22R12R06R20E12E19E18E11
 120171084.344 8  93639814.907 7                  22867792.760    22867788.500
  22867787.600          49.250          44.950
 110512689.772 8  86113764.03847                  21029864.220
  21029859.980          50.200          46.700
 111458432.102 7  86850784.16347                  21209803.160
  21209797.940          47.700          46.700
 133282856.390 7 103856941.605 6  99529562.283 7  25362804.480    25362803.660
  25362803.220          43.550          36.950
 112663386.440 8  87789652.63947                  21439127.260
  21439122.020          49.900          45.950
 122635663.095 8  95560250.04746                  23336783.060
  23336778.020          48.250          38.700
 130092937.300 7 101371125.15845                  24755851.180
  24755845.040          44.150          34.050
 119067462.251 8  92779849.515 7  88914016.785 8  22657780.660    22657778.960
  22657778.360          48.400          46.800
 131934631.201 6 102806180.67745                  25106323.460
  25106318.380          40.550          34.500
 125122308.427 7  97498039.143 6                  23809923.560    23809920.060
  23809919.380          47.150          41.000
 104508168.702 7  81284144.928 6                  19557277.680    19557281.320
  19557279.500          47.800          41.750
 122674425.146 7  95413460.093 6                  22948787.180    22948789.760
  22948789.320          47.000          41.500
 105282315.288 8  81886296.030 7                  19674496.960    19674498.720
  19674497.840          48.000          47.200
 113689340.837 7  88425077.386 6                  21327825.700    21327832.560
  21327831.120          47.250          38.950
 127889828.104 7  99469882.630 6                  23882520.560    23882522.120
  23882521.440          43.300          37.700
 116280671.394 8  90440550.712 7                  21783281.460    21783284.540
  21783283.400          48.700          44.250
 118601677.058 7  92245762.760 6                  22202482.560    22202486.080
  22202485.560          43.900          40.100
 128499545.372 7  99944077.360 5                  24080758.240    24080761.100
  24080760.500          42.900          34.800
 114682832.171 7  89197907.720 7                  21446221.320    21446225.720
  21446223.640          43.200          43.950
 137271995.741 8                 102508439.110 8  26121940.940
                        49.050
 146970765.868 7                 109750904.870 6  27967605.060
                        43.300
 118506237.632 8                  88494955.553 8  22550981.620
                        52.200
 123041768.915 8                  91881949.174 8  23414016.180
                        50.800
 15  1 27  2  1 20.0000000  0 23G31G08G21G25G16G18G22G27G19G29R11R05
                                R21R10R04R22R12R06R20E12E19E18E11
 120186886.078 8  93652127.953 7                  22870799.740    22870795.460
  22870794.580          49.300          44.850
 110519531.725 8  86119095.44147                  21031166.200
  21031161.980          50.150          46.400
 111462668.018 7  86854084.88347                  21210609.200
  21210604.000          47.750          46.300
 133299784.417 7 103870132.274 6  99542203.342 7  25366025.780    25366024.920
  25366024.640          43.750          36.700
 112652602.550 8  87781249.61847                  21437075.140
  21437069.920          49.900          45.600
 122624130.854 8  95551263.88246                  23334588.540
  23334583.520          48.200          38.250
 130077604.943 7 101359177.88045                  24752933.500
  24752927.420          44.700          35.550
 119056046.059 8  92770953.793 7  88905491.713 8  22655608.260    22655606.520
  22655605.920          48.700          46.600
 131919696.366 6 102794543.14246                  25103481.440
  25103476.320          41.300          36.600
 125135911.073 7  97508638.626 6                  23812512.040    23812508.520
  23812507.860          46.950          41.150
 104509698.314 8  81285334.626 6                  19557563.920    19557567.540
  19557565.740          48.150          41.850
 122665407.945 7  95406446.737 6                  22947100.340    22947102.960
  22947102.440          47.100          41.700
 105283576.232 8  81887276.768 7                  19674732.660    19674734.340
  19674733.480          48.400          47.200
 113709269.172 7  88440577.213 6                  21331564.240    21331571.100
  21331569.660          47.550          39.300
 127895486.709 7  99474283.765 6                  23883577.300    23883578.760
  23883578.160          44.000          37.600
 116268437.778 8  90431035.669 7                  21780989.720    21780992.760
  21780991.660          48.100          44.400
 118583570.676 7  92231680.023 6                  22199093.040    22199096.480
  22199096.000          44.000          39.950
 128481334.351 7  99929913.237 5                  24077345.500    24077348.240
  24077347.700          42.850          34.950
 114696792.110 7  89208765.459 7                  21448831.960    21448836.260
  21448834.200          43.050          43.900
 137282837.216 8                 102516535.032 8  26124004.060
                        49.050
 146967107.677 7                 109748173.106 6  27966908.840
                        43.300
 118532871.860 8                  88514844.755 8  22556050.020
                        52.200
 123045126.439 8                  91884456.435 8  23414655.100
                        50.800
 15  1 27  2  1 25.0000000  0 23G31G08G21G25G16G18G22G27G19G29R11R05
                                R21R10R04R22R12R06R20E12E19E18E11
 120202694.447 8  93664446.154 7                  22873807.960    22873803.660
  22873802.820          49.550          45.000
 110526391.470 8  86124440.69647                  21032471.560
  21032467.360          50.300          46.450
 111466916.039 7  86857395.03347                  21211417.540
  21211412.360          47.800          46.250
 133316715.950 7 103883325.674 6  99554847.005 7  25369247.760    25369246.860
  25369246.600          43.550          36.900
 112641827.257 8  87772853.29147                  21435024.680
  21435019.460          50.000          45.700
 122612605.293 8  95542282.92246                  23332395.320
  23332390.280          48.150          38.100
 130062271.157 7 101347229.49145                  24750015.580
  24750009.580          44.900          35.100
 119044635.039 8  92762062.085 7  88896970.492 8  22653436.860    22653435.060
  22653434.440          48.650          46.400
 131904764.829 7 102782908.16145                  25100640.060
  25100634.900          43.050          32.700
 125149515.256 7  97519239.263 6                  23815100.820    23815097.280
  23815096.600          47.050          41.300
 104511251.817 7  81286542.898 6                  19557854.640    19557858.200
  19557856.460          47.650          41.850
 122656407.945 7  95399446.725 6                  22945416.720    22945419.380
  22945418.840          47.000          41.950
 105284848.247 8  81888266.114 7                  19674970.380    19674972.060
  19674971.200          48.750          47.000
 113729209.443 7  88456086.298 6                  21335304.980    21335311.780
  21335310.400          47.800          38.900
 127901165.360 7  99478700.512 6                  23884637.800    23884639.280
  23884638.580          44.350          37.350
 116256213.256 8  90421527.724 7                  21778699.700    21778702.700
  21778701.620          48.150          44.300
 118565477.129 7  92217607.256 6                  22195705.880    22195709.380
  22195708.840          43.600          40.100
 128463124.869 7  99915750.296 5                  24073932.980    24073935.820
  24073935.260          43.550          35.550
 114710755.568 7  89219625.916 7                  21451443.140    21451447.500
  21451445.400          43.350          44.000
 137293680.138 8                 102524632.017 8  26126067.440
                        49.000
 146963460.591 7                 109745449.666 6  27966214.740
                        43.300
 118559506.552 8                  88534734.293 8  22561118.500
                        52.300
 123048489.667 8                  91886967.928 8  23415295.100
                        50.700
 15  1 27  2  1 30.0000000  0 23G31G08G21G25G16G18G22G27G19G29R11R05
                                R21R10R04R22R12R06R20E12E19E18E11
 120218506.559 8  93676767.272 7                  22876816.900    22876812.620
  22876811.780          49.650          45.050
 110533266.092 8  86129797.54447                  21033779.740
  21033775.560          50.300          46.250
 111471173.277 7  86860712.35547                  21212227.620
  21212222.460          47.650          46.150
 133333648.039 7 103896519.522 6  99567491.110 7  25372469.840    25372468.920
  25372468.660          42.600          36.550
 112631057.640 8  87764461.37947                  21432975.300
  21432970.080          50.200          45.200
 122601083.475 8  95533304.87246                  23330202.800
  23330197.720          48.050          37.950
 130046932.965 7 101335277.65945                  24747096.780
  24747090.780          44.800          34.100
 119033226.254 8  92753172.117 7  88888450.944 8  22651265.880    22651264.020
  22651263.400          48.550          46.400
 131889833.689 7 102771273.53345                  25097798.780
  25097793.560          43.350          31.700
 125163118.086 7  97529838.871 6                  23817689.400    23817685.800
  23817685.080          47.300          41.000
 104512826.287 7  81287767.486 7                  19558149.260    19558152.780
  19558151.080          47.650          42.050
 122647422.408 7  95392457.993 6                  22943735.800    22943738.480
  22943738.020          46.900          41.950
 105286128.341 8  81889261.748 7                  19675209.600    19675211.300
  19675210.400          48.600          47.150
 113749158.842 7  88471602.493 6                  21339047.420    21339054.180
  21339052.840          47.650          38.950
 127906861.141 7  99483130.552 6                  23885701.440    23885702.840
  23885702.220          44.250          37.750
 116243994.998 8  90412024.630 7                  21776410.840    21776413.840
  21776412.820          48.650          44.700
 118547393.384 7  92203542.123 6                  22192320.560    22192324.140
  22192323.540          43.350          40.300
 128444913.675 7  99901586.044 5                  24070520.200    24070522.900
  24070522.480          43.900          34.600
 114724719.791 7  89230486.984 7                  21454054.520    21454058.860
  21454056.740          43.300          44.150
 137304521.639 8                 102532727.941 7  26128130.520
                        48.950
 146959821.736 7                 109742732.341 6  27965522.260
                        43.800
 118586138.783 8                  88554622.001 8  22566186.500
                        52.250
 123051855.675 8                  91889481.504 8  23415935.620
                        50.650
 15  1 27  2  1 35.0000000  0 23G31G08G21G25G16G18G22G27G19G29R11R05
                                R21R10R04R22R12R06R20E12E19E18E11
 120234324.276 8  93689092.758 7                  22879826.940    22879822.660
  22879821.840          49.800          45.150
 110540157.537 8  86135167.49847                  21035091.140
  21035086.940          50.300          46.250
 111475441.532 7  86864038.27347                  21213039.820
  21213034.680          47.650          46.250
 133350582.685 7 103909715.352 6  99580137.116 7  25375692.440    25375691.440
  25375691.220          42.300          36.550
 112620295.661 8  87756075.42047                  21430927.360
  21430922.160          50.300          45.350
 122589567.380 8  95524331.30246                  23328011.320
  23328006.300          48.050          38.850
 130031592.310 7 101323323.91645                  24744177.560
  24744171.500          45.000          35.350
 119021821.666 8  92744285.415 7  88879934.520 8  22649095.700    22649093.820
  22649093.160          48.500          46.650
 131874904.874 6 102759640.71945                  25094957.960
  25094952.720          41.950          34.550
 125176721.500 7  97540438.948 6                  23820278.060    23820274.420
  23820273.680          47.200          41.250
 104514423.731 7  81289009.938 7                  19558448.200    19558451.740
  19558450.020          47.750          42.300
 122638453.135 7  95385481.910 6                  22942057.880    22942060.580
  22942060.140          46.750          41.750
 105287418.598 8  81890265.284 7                  19675450.740    19675452.440
  19675451.540          48.300          47.050
 113769119.267 7  88487127.260 6                  21342791.920    21342798.740
  21342797.340          47.250          39.000
 127912576.085 7  99487575.515 6                  23886768.640    23886770.080
  23886769.400          44.100          37.400
 116231784.698 8  90402527.739 7                  21774123.460    21774126.420
  21774125.480          48.850          44.700
 118529321.484 7  92189486.215 6                  22188937.480    22188941.080
  22188940.460          43.300          40.350
 128426703.086 7  99887422.278 5                  24067107.580    24067110.160
  24067109.740          44.800          34.600
 114738686.775 7  89241350.185 7                  21456666.440    21456670.820
  21456668.640          43.950          44.000
 137315363.621 8                 102540824.228 7  26130193.660
                        48.900
 146956193.053 7                 109740022.577 6  27964831.820
                        44.500
 118612770.496 8                  88574509.318 8  22571254.400
                        52.200
 123055226.410 8                  91891998.611 8  23416577.060
                        50.550
 15  1 27  2  1 40.0000000  0 23G31G08G21G25G16G18G22G27G19G29R11R05
                                R21R10R04R22R12R06R20E12E19E18E11
 120250148.796 8  93701423.553 7                  22882838.260    22882833.980
  22882833.160          49.750          45.150
 110547066.955 8  86140551.45447                  21036405.940
  21036401.760          50.200          46.350
 111479722.090 7  86867373.77447                  21213854.360
  21213849.240          47.400          46.700
 133367521.039 6 103922914.087 6  99592785.872 7  25378915.700    25378914.720
  25378914.520          41.350          37.150
 112609542.458 8  87747696.29847                  21428881.140
  21428875.900          50.300          45.850
 122578058.135 8  95515363.06546                  23325821.180
  23325816.140          48.300          38.000
 130016250.428 7 101311369.20845                  24741258.140
  24741252.020          45.000          34.600
 119010422.459 8  92735402.911 7  88871422.122 8  22646926.560    22646924.600
  22646923.980          48.400          46.700
 131859979.636 6 102748010.66345                  25092117.800
  25092112.520          41.850          35.350
 125190326.676 7  97551040.374 6                  23822867.060    23822863.380
  23822862.660          47.100          41.300
 104516045.204 7  81290271.084 7                  19558751.620    19558755.200
  19558753.480          47.950          42.300
 122629501.455 7  95378519.461 6                  22940383.280    22940385.960
  22940385.500          46.400          41.950
 105288720.059 7  81891277.535 7                  19675693.940    19675695.680
  19675694.740          47.800          47.200
 113789091.897 7  88502661.517 6                  21346538.720    21346545.540
  21346544.160          47.650          39.350
 127918311.426 7  99492036.338 6                  23887839.700    23887841.040
  23887840.420          44.750          37.650
 116219583.810 8  90393038.168 7                  21771837.860    21771840.780
  21771839.860          48.650          44.400
