     2.11           OBSERVATION DATA    M (MIXED)           RINEX VERSION / TYPE
teqc  2011Oct11     IGN-E (SPG)         20150127 17:00:42UTCPGM / RUN BY / DATE
Linux 2.4.21-27.ELsmp|Opteron|gcc -static|Linux x86_64|=+   COMMENT
BIT 2 OF LLI FLAGS DATA COLLECTED UNDER A/S CONDITION       COMMENT
VALE                                                        MARKER NAME
13439M001                                                   MARKER NUMBER
Programas GeodesicosInstituto Geografico Nacional           OBSERVER / AGENCY
1700071             LEICA GR10          3.03/6.214          REC # / TYPE / VERS
10190012            LEIAR25.R3      LEIT                    ANT # / TYPE
  4929534.0457   -29050.6755  4033709.9250                  APPROX POSITION XYZ
        3.0390        0.0000        0.0000                  ANTENNA: DELTA H/E/N
     1     1                                                WAVELENGTH FACT L1/2
     8    L1    L2    L5    C1    C2    P2    S1    S2      # / TYPES OF OBSERV
     5.0000                                                 INTERVAL
Forced Modulo Decimation to 5 seconds                       COMMENT
DefaultJobName                                              COMMENT
DefaultUserDiscription                                      COMMENT
Project creator:                                            COMMENT
 SNR is mapped to RINEX snr flag value [0-9]                COMMENT
  L1 & L2: min(max(int(snr_dBHz/6), 0), 9)                  COMMENT
  2015     1    27    16     0    0.0000000     GPS         TIME OF FIRST OBS
    15                                                      LEAP SECONDS
                                                            END OF HEADER
 15  1 27 16  0  0.0000000  0 16G30G21G07G13G02G15G28G24G10G05R14R05
                                R16R06R04R15
 117754714.849 8  91757011.164 7  87933815.974 8  22407943.460    22407943.540
  22407942.740          48.650          47.550
 134773664.967 6 105018445.93845                  25646576.740
  25646576.340          38.300          33.800
 130704467.909 7 101847703.113 6                  24872212.820    24872211.160
  24872210.600          43.550          38.700
 108335843.638 8  84417606.72547                  20615600.600
  20615597.080          49.800          46.850
 132197133.016 7 103010661.77945                  25156341.320
  25156356.360          43.200          35.700
 120169737.300 8  93638779.799 7                  22867527.040    22867525.480
  22867524.880          48.450          45.400
 113126123.499 8  88150357.52947                  21527119.060
  21527115.260          49.700          46.400
 131593036.464 7 102540085.531 6  98267593.165 7  25041311.220    25041318.240
  25041317.340          42.150          40.950
 128640688.253 7 100239497.93646                  24479515.560
  24479517.000          45.400          37.350
 109294291.458 8  85164398.742 8                  20797997.780    20797995.700
  20797995.000          49.900          49.550
 112302906.890 7  87346798.552 6                  21067699.100    21067706.400
  21067705.980          42.000          39.000
 103383566.010 8  80409489.053 7                  19340017.920    19340020.980
  19340020.480          49.300          47.200
 117972780.966 7  91756652.464 6                  22084746.300    22084752.740
  22084752.000          45.400          41.950
 122284308.702 7  95110065.619 6                  22916019.740    22916025.400
  22916025.480          44.100          38.800
 108890724.554 8  84692825.729 7                  20334564.720    20334567.140
  20334566.240          48.600          46.050
 102354833.259 7  79609467.459 7                  19154255.200    19154260.940
  19154258.960          47.500          46.450
 15  1 27 16  0  5.0000000  0 16G30G21G07G13G02G15G28G24G10G05R14R05
                                R16R06R04R15
 117768518.545 8  91767767.286 7  87944123.935 8  22410570.160    22410570.320
  22410569.500          48.750          45.950
 134769425.078 6 105015142.12045                  25645769.900
  25645769.420          38.400          31.750
 130720199.120 7 101859961.192 6                  24875206.380    24875204.700
  24875204.180          43.800          37.000
 108330461.554 8  84413412.89547                  20614576.460
  20614572.900          50.000          45.150
 132211493.625 7 103021851.64946                  25159074.220
  25159089.440          45.250          36.100
 120156437.328 8  93628416.203 7                  22864996.140    22864994.580
  22864993.960          48.750          43.650
 113124873.407 8  88149383.43747                  21526881.140
  21526877.380          49.900          44.000
 131577064.373 7 102527639.814 6  98255666.041 7  25038271.860    25038278.740
  25038277.920          42.700          38.600
 128659336.837 7 100254029.27345                  24483064.260
  24483065.620          45.450          35.500
 109301593.115 8  85170088.349 8                  20799387.300    20799385.180
  20799384.480          49.700          48.300
 112319380.362 7  87359611.251 6                  21070789.460    21070796.760
  21070796.340          42.700          38.100
 103377250.031 8  80404576.625 7                  19338836.400    19338839.420
  19338838.920          49.400          46.100
 117955385.921 7  91743122.994 6                  22081489.880    22081496.380
  22081495.620          45.400          41.050
 122264305.048 7  95094507.259 6                  22912270.980    22912276.520
  22912276.780          44.950          37.150
 108903858.389 8  84703040.934 7                  20337017.400    20337019.800
  20337018.860          48.500          44.950
 102355565.616 7  79610037.073 7                  19154392.280    19154397.980
  19154396.000          47.600          45.400
 15  1 27 16  0 10.0000000  0 16G30G21G07G13G02G15G28G24G10G05R14R05
                                R16R06R04R15
 117782327.099 8  91778527.195 7  87954435.506 8  22413197.820    22413198.000
  22413197.180          48.800          46.050
 134765197.491 6 105011847.88745                  25644965.440
  25644964.700          37.450          32.250
 130735930.169 7 101872219.156 6                  24878199.940    24878198.260
  24878197.740          44.600          37.050
 108325086.958 8  84409224.90547                  20613553.740
  20613550.160          50.150          45.300
 132225850.276 7 103033038.44145                  25161806.400
  25161821.760          44.800          34.700
 120143140.696 8  93618055.201 7                  22862465.860    22862464.300
  22862463.680          48.650          43.450
 113123638.913 8  88148421.50047                  21526646.180
  21526642.480          50.000          44.400
 131561095.999 7 102515196.971 6  98243741.663 7  25035233.180    25035239.940
  25035239.100          43.100          37.950
 128677987.599 7 100268562.31646                  24486613.420
  24486614.640          46.100          36.100
 109308909.779 8  85175789.640 8                  20800779.660    20800777.520
  20800776.820          49.600          48.300
 112335861.953 7  87372430.262 6                  21073881.320    21073888.640
  21073888.200          42.800          38.600
 103370951.831 8  80399678.026 7                  19337658.200    19337661.180
  19337660.680          49.300          46.400
 117938001.043 7  91729601.444 6                  22078235.340    22078241.880
  22078241.140          45.600          41.700
 122244304.594 7  95078951.348 6                  22908522.900    22908528.460
  22908528.600          44.800          37.650
 108917007.801 8  84713268.257 7                  20339472.960    20339475.380
  20339474.400          48.650          45.300
 102356316.600 7  79610621.178 7                  19154532.800    19154538.520
  19154536.540          47.550          45.800
 15  1 27 16  0 15.0000000  0 16G30G21G07G13G02G15G28G24G10G05R14R05
                                R16R06R04R15
 117796140.357 8  91789290.764 7  87964750.613 8  22415826.380    22415826.580
  22415825.740          49.000          46.200
 134760982.191 6 105008563.24945                  25644163.180
  25644162.460          37.800          31.550
 130751660.954 7 101884476.939 6                  24881193.440    24881191.740
  24881191.240          44.900          37.550
 108319719.775 8  84405042.67847                  20612532.440
  20612528.800          50.200          45.500
 132240202.803 7 103044222.00745                  25164537.840
  25164553.140          43.250          31.800
 120129847.235 8  93607696.658 7                  22859936.180    22859934.660
  22859934.040          48.400          44.000
 113122419.881 8  88147471.60347                  21526414.200
  21526410.500          50.050          44.500
 131545131.301 7 102502756.987 6  98231820.032 8  25032195.240    25032201.780
  25032201.020          43.350          38.500
 128696640.379 7 100283096.94045                  24490162.980
  24490164.180          46.150          35.950
 109316241.274 8  85181502.486 8                  20802174.820    20802172.660
  20802171.960          49.850          48.600
 112352351.393 7  87385255.376 6                  21076974.680    21076981.940
  21076981.540          42.900          39.600
 103364671.285 8  80394793.146 7                  19336483.320    19336486.260
  19336485.740          49.300          47.550
 117920626.217 7  91716087.711 7                  22074982.700    22074989.240
  22074988.520          46.100          43.000
 122224307.035 7  95063397.716 6                  22904775.320    22904780.940
  22904781.000          44.500          38.700
 108930172.566 8  84723507.510 7                  20341931.400    20341933.780
  20341932.800          48.900          46.150
 102357086.170 7  79611219.733 7                  19154676.780    19154682.560
  19154680.560          47.550          46.900
 15  1 27 16  0 20.0000000  0 16G30G21G07G13G02G15G28G24G10G05R14R05
                                R16R06R04R15
 117809956.965 8  91800056.962 7  87975068.199 8  22418455.620    22418455.800
  22418454.940          48.650          46.100
 134756777.724 6 105005287.02345                  25643363.040
  25643362.220          37.900          30.900
 130767390.122 7 101896733.446 6                  24884186.600    24884184.860
  24884184.420          43.800          37.650
 108314358.685 8  84400865.21347                  20611512.300
  20611508.600          50.050          45.850
 132254549.880 7 103055401.30045                  25167268.200
  25167283.460          44.000          31.950
 120116555.655 8  93597339.605 7                  22857406.860    22857405.400
  22857404.760          48.250          44.100
 113121214.949 8  88146532.70347                  21526184.880
  21526181.220          49.950          44.500
 131529168.878 7 102490318.804 6  98219900.120 8  25029157.680    25029164.160
  25029163.380          43.650          38.850
 128715293.842 7 100297632.07345                  24493712.660
  24493713.900          46.150          35.850
 109323586.276 8  85187225.875 8                  20803572.580    20803570.400
  20803569.680          49.700          48.650
 112368847.222 7  87398085.471 6                  21080069.280    21080076.440
  21080076.080          42.900          39.450
 103358406.904 8  80389920.850 7                  19335311.440    19335314.380
  19335313.880          49.100          47.600
 117903260.036 7  91702580.702 7                  22071731.720    22071738.220
  22071737.500          45.950          42.950
 122204311.119 7  95047845.368 6                  22901028.060    22901033.680
  22901033.720          44.900          38.150
 108943351.457 8  84733757.763 7                  20344392.460    20344394.820
  20344393.840          48.650          46.050
 102357872.989 7  79611831.707 7                  19154824.020    19154829.820
  19154827.800          47.300          46.850
 15  1 27 16  0 25.0000000  0 16G30G21G07G13G02G15G28G24G10G05R14R05
                                R16R06R04R15
 117823779.163 8  91810827.504 7  87985389.979 8  22421085.940    22421086.060
  22421085.200          48.800          45.350
 134752586.360 6 105002021.05445                  25642565.440
  25642564.520          37.000          33.300
 130783119.964 7 101908990.437 6                  24887179.880    24887178.140
  24887177.680          44.950          36.600
 108309005.893 8  84396694.20947                  20610493.740
  20610490.000          50.050          44.950
 132268893.720 7 103066578.09745                  25169997.920
  25170013.200          45.500          34.550
 120103268.214 8  93586985.763 7                  22854878.340    22854876.860
  22854876.240          48.000          43.200
 113120026.402 8  88145606.57047                  21525958.700
  21525955.060          50.100          43.550
 131513211.036 7 102477884.176 6  98207983.594 8  25026121.000    25026127.340
  25026126.600          42.550          38.150
 128733950.214 7 100312169.48945                  24497262.860
  24497264.340          45.800          35.300
 109330947.025 8  85192961.518 7                  20804973.300    20804971.100
  20804970.380          49.850          47.850
 112385351.924 7  87410922.457 6                  21083165.480    21083172.640
  21083172.300          42.800          39.050
 103352161.107 8  80385063.018 7                  19334143.060    19334145.960
  19334145.500          49.050          47.250
 117885904.840 7  91689082.239 7                  22068482.760    22068489.280
  22068488.540          45.800          42.250
 122184319.007 7  95032295.948 6                  22897281.560    22897287.080
  22897287.140          44.800          37.650
 108956546.721 8  84744020.736 7                  20346856.620    20346858.940
  20346857.900          48.550          45.500
 102358679.188 7  79612458.755 7                  19154974.880    19154980.700
  19154978.640          47.350          46.300
 15  1 27 16  0 30.0000000  0 16G30G21G07G13G02G15G28G24G10G05R14R05
                                R16R06R04R15
 117837606.092 8  91821601.736 7  87995715.269 8  22423717.140    22423717.240
  22423716.360          49.050          45.650
 134748407.282 6 104998764.66244                  25641770.080
  25641769.280          36.750          27.050
 130798849.497 7 101921247.252 6                  24890173.200    24890171.340
  24890170.860          45.750          36.700
 108303660.526 8  84392528.98847                  20609476.560
  20609472.800          50.000          45.050
 132283233.419 7 103077751.65945                  25172726.840
  25172742.220          44.550          34.600
 120089984.002 8  93576634.450 7                  22852350.420    22852348.980
  22852348.360          48.000          43.750
 113118853.330 8  88144692.49147                  21525735.460
  21525731.820          50.200          43.600
 131497256.719 7 102465452.297 6  98196069.743 8  25023084.940    25023091.260
  25023090.540          42.200          38.250
 128752608.601 7 100326708.44945                  24500813.420
  24500815.000          45.650          35.950
 109338322.596 8  85198708.724 8                  20806376.860    20806374.620
  20806373.920          49.900          48.100
 112401864.536 7  87423765.590 6                  21086263.180    21086270.360
  21086270.020          42.900          38.600
 103345932.905 8  80380218.865 7                  19332977.960    19332980.840
  19332980.420          49.150          47.150
 117868559.724 7  91675591.621 7                  22065235.680    22065242.180
  22065241.460          45.900          42.350
 122164329.922 7  95016748.900 6                  22893535.560    22893541.140
  22893541.140          44.950          37.650
 108969757.346 8  84754295.664 7                  20349323.640    20349325.900
  20349324.820          48.700          45.450
 102359503.835 7  79613100.151 7                  19155129.200    19155135.040
  19155132.960          47.650          46.200
 15  1 27 16  0 35.0000000  0 16G30G21G07G13G02G15G28G24G10G05R14R05
                                R16R06R04R15
 117851435.706 8  91832378.065 7  88006042.582 8  22426348.860    22426348.940
  22426348.040          48.600          46.200
 134744238.358 6 104995516.11545                  25640976.680
  25640975.800          37.350          30.850
 130814576.819 7 101933502.338 6                  24893166.020    24893164.160
  24893163.700          44.800          37.800
 108298320.614 8  84388368.02547                  20608460.440
  20608456.640          50.000          45.950
 132297566.986 6 103088920.47545                  25175454.600
  25175470.000          39.800          30.300
 120076701.061 8  93566284.121 7                  22849822.740    22849821.340
  22849820.740          48.250          44.350
 113117693.781 8  88143788.94847                  21525514.780
  21525511.160          50.150          44.350
 131481304.163 7 102453021.803 6  98184157.179 7  25020049.240    25020055.440
  25020054.740          42.400          39.300
 128771267.001 7 100341247.42345                  24504364.040
  24504365.640          46.300          35.650
 109345711.079 8  85204465.983 8                  20807782.860    20807780.620
  20807779.920          49.800          48.800
 112418383.014 7  87436613.297 6                  21089362.020    21089369.200
  21089368.820          42.800          39.600
 103339720.417 8  80375386.936 7                  19331815.800    19331818.660
  19331818.280          49.200          47.700
 117851222.627 7  91662107.232 7                  22061990.100    22061996.600
  22061995.860          45.700          43.150
 122144341.722 7  95001202.541 6                  22889789.760    22889795.320
  22889795.360          44.850          38.700
 108982981.406 8  84764581.044 7                  20351793.160    20351795.380
  20351794.260          48.700          46.050
 102360345.056 7  79613754.440 7                  19155286.620    19155292.460
  19155290.340          47.650          46.900
 15  1 27 16  0 40.0000000  0 16G30G21G07G13G02G15G28G24G10G05R14R05
                                R16R06R04R15
 117865271.465 8  91843159.168 7  88016374.480 8  22428981.740    22428981.800
  22428980.880          48.750          46.450
 134740083.135 6 104992278.24445                  25640185.920
  25640185.280          37.550          32.200
 130830305.337 7 101945758.305 6                  24896159.020    24896157.260
  24896156.820          44.650          37.950
 108292989.570 8  84384213.95947                  20607445.980
  20607442.160          50.050          45.950
 132311897.799 6 103100087.11344                  25178181.860
  25178197.500          36.750          29.300
 120063422.793 8  93555937.424 7                  22847295.940    22847294.580
  22847293.980          48.150          44.350
 113116551.134 8  88142898.57847                  21525297.320
  21525293.700          50.150          44.700
 131465356.591 7 102440595.195 6  98172248.370 7  25017014.500    25017020.700
  25017019.940          42.250          39.300
 128789928.812 7 100355789.07746                  24507915.400
  24507916.840          46.250          36.950
 109353115.839 8  85210235.910 8                  20809191.940    20809189.700
  20809189.020          50.050          48.850
 112434910.701 7  87449468.154 6                  21092462.540    21092469.780
  21092469.360          42.700          39.450
 103333526.966 8  80370569.810 7                  19330657.180    19330660.040
  19330659.640          49.150          47.600
 117833897.087 7  91648631.835 7                  22058746.700    22058753.140
  22058752.440          45.250          42.850
 122124357.951 7  94985659.637 6                  22886044.820    22886050.380
  22886050.400          45.250          38.750
 108996222.386 8  84774879.582 7                  20354265.840    20354268.040
  20354266.880          48.750          46.100
 102361206.160 7  79614424.190 7                  19155447.740    19155453.600
  19155451.460          47.400          46.900
 15  1 27 16  0 45.0000000  0 16G30G21G07G13G02G15G28G24G10G05R14R05
                                R16R06R04R15
 117879109.805 8  91853942.286 7  88026708.298 8  22431615.080    22431615.180
  22431614.220          48.750          46.850
 134735938.084 6 104989048.29445                  25639397.080
  25639396.360          37.900          33.100
 130846031.480 7 101958012.461 6                  24899151.600    24899149.880
  24899149.400          44.950          38.000
 108287663.867 8  84380064.06947                  20606432.560
  20606428.700          50.100          46.550
 132326222.471 6 103111248.93345                  25180907.940
  25180923.800          38.300          35.750
 120050145.673 8  93545591.632 7                  22844769.340    22844768.000
  22844767.420          48.300          44.700
 113115421.900 8  88142018.66247                  21525082.440
  21525078.800          50.200          45.400
 131449410.559 6 102428169.790 6  98160340.687 7  25013980.040    25013986.200
  25013985.420          41.850          39.350
 128808590.562 7 100370330.67646                  24511466.680
  24511467.980          46.100          38.000
 109360533.324 8  85216015.775 8                  20810603.460    20810601.240
  20810600.540          50.000          49.250
 112451444.233 7  87462327.564 6                  21095564.240    21095571.460
  21095571.000          42.650          38.600
 103327349.077 8  80365764.791 7                  19329501.480    19329504.300
  19329503.900          49.300          47.000
 117816579.476 7  91635162.615 6                  22055504.780    22055511.160
  22055510.480          45.500          41.950
 122104375.184 7  94970117.497 6                  22882300.060    22882305.600
  22882305.620          45.650          38.000
 109009476.530 8  84785188.359 7                  20356740.960    20356743.160
  20356741.940          48.850          45.600
 102362083.547 7  79615106.609 7                  19155611.940    19155617.820
  19155615.640          47.350          46.300
 15  1 27 16  0 50.0000000  0 16G30G21G07G13G02G15G28G24G10G05R14R05
                                R16R06R04R15
 117892952.838 8  91864729.058 7  88037045.619 8  22434249.340    22434249.420
  22434248.460          48.950          47.050
 134731805.406 6 104985828.09945                  25638610.640
  25638610.080          37.250          33.100
 130861757.347 7 101970266.396 6                  24902144.120    24902142.440
  24902142.000          44.400          38.500
 108282345.726 8  84375920.06147                  20605420.560
  20605416.680          50.100          46.450
 132340542.929 6 103122407.54145                  25183633.220
  25183648.980          38.300          32.750
 120036871.850 8  93535248.404 7                  22842243.400    22842242.060
  22842241.480          48.150          44.950
 113114308.153 8  88141150.80747                  21524870.480
  21524866.860          50.250          45.100
 131433468.243 7 102415747.230 6  98148435.754 8  25010946.360    25010952.400
  25010951.600          42.350          39.750
 128827254.301 7 100384873.82746                  24515018.320
  24515019.600          45.800          38.550
 109367965.629 8  85221807.179 8                  20812017.800    20812015.580
  20812014.880          49.950          49.300
 112467985.587 7  87475193.047 6                  21098667.400    21098674.520
  21098674.080          42.650          38.750
 103321188.966 8  80360973.592 7                  19328349.120    19328351.940
  19328351.480          49.250          47.150
 117799272.076 7  91621701.313 7                  22052264.760    22052271.160
  22052270.440          45.350          42.350
 122084395.431 7  94954577.700 6                  22878555.900    22878561.360
  22878561.420          45.450          38.800
 109022746.113 8  84795509.133 7                  20359218.960    20359221.140
  20359219.900          48.850          45.850
 102362979.431 7  79615803.407 7                  19155779.600    19155785.460
  19155783.300          47.350          46.650
 15  1 27 16  0 55.0000000  0 16G30G21G07G13G02G15G28G24G10G05R14R05
                                R16R06R04R15
 117906801.430 8  91875520.169 8  88047387.107 8  22436884.680    22436884.740
  22436883.780          48.950          48.000
 134727686.021 6 104982618.25945                  25637826.680
  25637826.220          37.900          35.200
 130877483.885 7 101982520.840 6                  24905136.760    24905135.100
  24905134.720          44.350          39.950
 108277035.991 8  84371782.61347                  20604410.180
  20604406.260          50.100          47.650
 132354860.168 6 103133563.62545                  25186357.840
  25186373.660          39.250          34.050
 120023602.202 8  93524908.443 7                  22839718.260    22839716.900
  22839716.360          48.300          46.000
 113113210.794 8  88140295.73047                  21524661.660
  21524658.040          50.150          46.250
 131417530.508 7 102403328.245 6  98136534.281 7  25007913.500    25007919.440
  25007918.640          42.700          41.100
 128845920.947 7 100399419.23146                  24518570.520
  24518571.900          45.850          38.900
 109375413.701 8  85227610.873 8                  20813435.120    20813432.900
  20813432.240          50.050          50.000
 112484535.585 7  87488065.251 6                  21101772.160    21101779.220
  21101778.800          42.850          39.800
 103315047.531 8  80356196.922 8                  19327200.220    19327203.060
  19327202.540          49.100          48.250
 117781975.705 7  91608248.605 7                  22049026.820    22049033.220
  22049032.460          45.350          43.600
 122064419.742 7  94939041.080 6                  22874812.460    22874817.880
  22874817.980          45.950          40.100
 109036032.133 8  84805842.706 7                  20361700.040    20361702.200
  20361700.940          48.500          47.050
 102363894.815 7  79616515.376 7                  19155950.900    19155956.780
  19155954.580          47.200          47.650
 15  1 27 16  1  0.0000000  0 16G30G21G07G13G02G15G28G24G10G05R14R05
                                R16R06R04R15
 117920653.383 8  91886313.899 7  88057731.090 8  22439520.680    22439520.660
  22439519.740          49.150          47.850
 134723577.545 6 104979416.82345                  25637044.860
  25637044.720          37.800          31.100
 130893208.832 7 101994774.042 6                  24908129.140    24908127.440
  24908127.140          45.050          39.800
 108271732.349 8  84367649.90947                  20603400.960
  20603397.000          50.100          47.300
 132369171.899 6 103144715.34345                  25189081.420
  25189097.420          40.200          35.200
 120010334.506 8  93514569.986 7                  22837193.480    22837192.120
  22837191.600          48.300          45.600
 113112127.681 8  88139451.74647                  21524455.540
  21524451.920          50.000          46.400
 131401595.210 7 102390911.168 6  98124634.588 7  25004881.100    25004887.000
  25004886.180          42.300          41.450
 128864588.257 7 100413965.13946                  24522122.840
  24522124.320          46.100          39.350
 109382875.276 8  85233425.094 8                  20814855.000    20814852.820
  20814852.140          49.850          49.900
 112501092.006 7  87500942.470 6                  21104878.100    21104885.220
  21104884.700          43.250          39.600
 103308922.437 8  80351432.958 8                  19326054.400    19326057.220
  19326056.700          49.100          48.250
 117764688.153 7  91594802.758 7                  22045790.520    22045796.960
  22045796.160          45.450          43.450
 122044445.848 7  94923505.829 6                  22871069.420    22871074.740
  22871074.900          46.000          40.250
 109049332.092 8  84816187.118 7                  20364183.720    20364185.880
  20364184.600          48.600          47.050
 102364827.311 7  79617240.649 7                  19156125.380    19156131.260
  19156129.040          47.150          47.400
 15  1 27 16  1  5.0000000  0 16G30G21G07G13G02G15G28G24G10G05R14R05
                                R16R06R04R15
 117934510.291 8  91897111.482 7  88068078.791 8  22442157.620    22442157.540
  22442156.660          49.350          46.850
 134719481.581 6 104976225.09745                  25636265.400
  25636265.220          37.900          33.000
 130908933.761 7 102007027.250 6                  24911121.480    24911119.760
  24911119.380          44.850          38.500
 108266436.432 8  84363523.22347                  20602393.180
  20602389.220          50.100          46.200
 132383479.761 6 103155864.12145                  25191804.240
  25191820.240          37.350          30.750
 119997070.379 8  93504234.314 7                  22834669.380    22834668.060
  22834667.500          48.300          44.400
 113111060.357 8  88138620.06947                  21524252.440
  21524248.820          50.050          45.150
 131385663.768 6 102378497.109 6  98112737.798 7  25001849.420    25001855.340
  25001854.500          40.500          40.950
 128883257.808 7 100428512.81746                  24525675.620
  24525677.120          45.950          38.150
 109390351.977 8  85239251.085 8                  20816277.760    20816275.580
  20816274.920          49.750          49.100
 112517656.536 7  87513825.999 6                  21107985.520    21107992.700
  21107992.140          43.200          38.350
 103302815.382 8  80346683.020 7                  19324911.940    19324914.760
  19324914.240          49.100          47.200
 117747411.100 7  91581365.071 7                  22042556.240    22042562.640
  22042561.860          45.100          42.250
 122024475.370 7  94907973.252 6                  22867327.000    22867332.260
  22867332.440          45.600          38.750
 109062647.773 8  84826543.746 7                  20366670.320    20366672.460
  20366671.220          48.600          45.850
 102365778.684 7  79617980.610 7                  19156303.440    19156309.300
  19156307.060          47.250          46.250
 15  1 27 16  1 10.0000000  0 16G30G21G07G13G02G15G28G24G10G05R14R05
                                R16R06R04R15
 117948370.361 8  91907911.542 7  88078428.844 8  22444795.140    22444795.020
  22444794.200          49.400          46.800
 134715396.364 6 104973041.81544                  25635488.080
  25635487.980          38.650          26.750
 130924656.961 7 102019279.096 6                  24914113.500    24914111.740
  24914111.340          44.400          38.300
 108261146.480 8  84359401.18647                  20601386.560
  20601382.580          50.100          46.350
 132397781.918 6 103167008.49945                  25194526.100
  25194542.100          37.200          32.350
 119983808.099 8  93493900.082 7                  22832145.640    22832144.340
  22832143.720          48.450          44.550
 113110007.088 8  88137799.34247                  21524052.000
  21524048.400          50.050          45.000
 131369734.576 6 102366084.813 6  98100842.671 7  24998818.140    24998824.100
  24998823.260          40.400          41.250
 128901927.843 7 100443060.85746                  24529228.480
  24529229.880          45.900          36.750
 109397842.014 8  85245087.472 8                  20817703.060    20817700.900
  20817700.240          49.900          49.150
 112534227.339 7  87526714.389 6                  21111094.180    21111101.300
  21111100.760          43.500          39.100
 103296724.646 8  80341945.785 7                  19323772.560    19323775.380
  19323774.840          49.100          47.500
 117730142.602 7  91567934.046 7                  22039323.540    22039329.940
  22039329.160          44.800          42.400
 122004506.471 7  94892441.909 6                  22863584.880    22863590.060
  22863590.280          45.900          39.200
 109075977.310 8  84836911.162 7                  20369159.480    20369161.640
  20369160.420          48.450          46.100
 102366747.048 7  79618733.788 7                  19156484.620    19156490.520
  19156488.260          47.500          46.800
 15  1 27 16  1 15.0000000  0 16G30G21G07G13G02G15G28G24G10G05R14R05
                                R16R06R04R15
 117962234.755 8  91918714.964 7  88088782.132 8  22447433.500    22447433.320
  22447432.500          49.400          46.600
 134711323.059 6 104969867.77544                  25634713.000
  25634712.680          38.250          26.850
 130940379.520 7 102031530.451 6                  24917105.380    24917103.640
  24917103.200          45.050          38.500
 108255863.664 8  84355284.71447                  20600381.280
  20600377.280          50.000          46.250
 132412079.634 6 103178149.25045                  25197247.060
  25197262.980          38.300          30.750
 119970548.759 8  93483568.141 7                  22829622.460    22829621.160
  22829620.520          48.000          44.500
 113108969.003 8  88136990.45247                  21523854.460
  21523850.860          50.000          45.200
 131353808.786 6 102353675.172 6  98088950.116 7  24995787.460    24995793.500
  24995792.760          41.050          41.150
 128920599.491 7 100457610.17946                  24532781.580
  24532782.920          45.600          37.100
 109405346.533 8  85250935.154 8                  20819131.100    20819128.960
  20819128.340          49.700          49.150
 112550805.578 7  87539608.579 6                  21114204.160    21114211.320
  21114210.780          43.300          38.950
 103290651.356 8  80337222.130 7                  19322636.420    19322639.260
  19322638.740          49.250          47.600
 117712883.982 7  91554510.695 7                  22036092.720    22036098.980
  22036098.280          44.850          42.550
 121984540.363 7  94876912.726 6                  22859843.260    22859848.440
  22859848.660          45.200          38.950
 109089321.897 8  84847290.291 7                  20371651.460    20371653.660
  20371652.460          48.700          46.050
 102367733.507 7  79619501.043 7                  19156669.220    19156675.100
  19156672.860          47.300          46.750
 15  1 27 16  1 20.0000000  0 16G30G21G07G13G02G15G28G24G10G05R14R05
                                R16R06R04R15
 117976105.011 8  91929522.968 7  88099139.793 8  22450072.960    22450072.740
  22450071.920          49.100          46.450
 134707263.282 6 104966704.36344                  25633940.420
  25633939.940          38.050          29.200
 130956102.980 7 102043782.537 6                  24920097.460    24920095.760
  24920095.260          45.100          38.850
 108250589.534 8  84351175.01347                  20599377.640
  20599373.620          49.800          46.650
 132426374.387 6 103189287.80345                  25199967.460
  25199983.400          38.800          31.800
 119957293.954 8  93473239.751 7                  22827100.140    22827098.840
  22827098.200          48.150          44.650
 113107947.650 8  88136194.60947                  21523660.120
  21523656.520          50.050          45.000
 131337888.013 6 102341269.456 6  98077061.287 7  24992757.820    24992763.900
  24992763.140          40.950          40.500
 128939274.292 7 100472161.94646                  24536335.300
  24536336.580          45.650          37.700
 109412867.085 8  85256795.318 8                  20820562.220    20820560.100
  20820559.480          49.800          49.150
 112567392.754 7  87552509.720 6                  21117315.840    21117323.080
  21117322.480          42.750          39.200
 103284597.065 8  80332513.251 7                  19321503.800    19321506.700
  19321506.180          49.300          47.600
 117695636.771 7  91541096.227 7                  22032863.940    22032870.240
  22032869.540          44.650          42.550
 121964578.660 7  94861386.986 6                  22856102.400    22856107.620
  22856107.780          45.300          38.750
 109102683.143 8  84857682.374 7                  20374146.560    20374148.800
  20374147.620          48.750          46.350
 102368739.651 7  79620283.605 7                  19156857.500    19156863.380
  19156861.140          47.150          46.650
 15  1 27 16  1 25.0000000  0 16G30G21G07G13G02G15G28G24G10G05R14R05
                                R16R06R04R15
 117989979.503 8  91940334.258 7  88109500.610 8  22452713.180    22452712.920
  22452712.120          49.100          46.050
 134703215.373 6 104963550.12844                  25633170.060
  25633169.520          38.150          29.700
 130971825.742 7 102056034.052 6                  24923089.420    24923087.700
  24923087.200          45.000          38.700
 108245322.512 8  84347070.83847                  20598375.360
  20598371.340          49.800          46.600
 132440664.502 6 103200422.76945                  25202686.900
  25202703.120          41.350          33.650
 119944042.040 7  93462913.586 7                  22824578.360    22824577.060
  22824576.420          47.900          44.400
 113106941.418 8  88135410.53347                  21523468.640
  21523465.020          50.150          44.750
 131321970.508 6 102328866.275 6  98065174.913 7  24989728.780    24989734.880
  24989734.100          41.650          39.600
 128957950.588 7 100486714.88346                  24539889.360
  24539890.540          45.800          37.650
 109420402.036 8  85262666.708 8                  20821996.060    20821993.960
  20821993.340          49.950          49.100
 112583987.254 7  87565416.539 6                  21120428.900    21120436.160
  21120435.540          42.900          39.750
 103278560.175 8  80327817.892 7                  19320374.460    19320377.380
  19320376.860          49.200          47.600
 117678399.435 7  91527689.412 7                  22029637.020    22029643.360
  22029642.660          44.850          42.750
 121944619.588 7  94845863.265 6                  22852362.100    22852367.260
  22852367.380          45.550          39.550
 109116059.324 8  84868086.062 7                  20376644.480    20376646.740
  20376645.560          48.900          46.750
 102369763.818 7  79621080.184 7                  19157049.140    19157054.980
  19157052.800          47.000          47.050
 15  1 27 16  1 30.0000000  0 16G30G21G07G13G02G15G28G24G10G05R14R05
                                R16R06R04R15
 118003855.014 8  91951146.341 7  88119862.190 8  22455353.580    22455353.340
  22455352.500          49.050          46.100
 134699176.163 6 104960402.67145                  25632401.400
  25632401.000          38.150          30.600
 130987544.648 7 102068282.534 6                  24926080.600    24926078.940
  24926078.500          44.600          38.550
 108240059.386 8  84342969.70147                  20597373.800
  20597369.780          49.850          46.250
 132454946.848 7 103211551.66545                  25205404.920
  25205421.080          42.100          33.200
 119930789.818 8  93452587.193 7                  22822056.520    22822055.220
  22822054.580          48.050          44.550
 113105947.142 8  88134635.77447                  21523279.440
  21523275.820          50.100          45.050
 131306053.294 6 102316463.288 6  98053288.704 7  24986699.820    24986705.900
  24986705.020          41.250          38.800
 128976625.213 7 100501266.50446                  24543443.100
  24543444.260          45.650          38.650
 109427948.233 8  85268546.860 8                  20823432.040    20823429.960
  20823429.340          49.750          49.150
 112600585.771 7  87578326.484 6                  21123542.780    21123550.060
  21123549.380          42.950          39.700
 103272537.465 8  80323133.564 7                  19319247.780    19319250.700
  19319250.160          49.300          47.650
 117661168.573 7  91514287.653 7                  22026411.320    22026417.700
  22026417.000          44.800          42.750
 121924660.140 7  94830339.266 6                  22848621.740    22848626.880
  22848626.960          45.150          39.350
 109129447.185 8  84878498.826 7                  20379144.560    20379146.860
  20379145.720          49.050          46.750
 102370802.681 7  79621888.186 7                  19157243.520    19157249.400
  19157247.200          47.100          46.950
 15  1 27 16  1 35.0000000  0 16G30G21G07G13G02G15G28G24G10G05R14R05
                                R16R06R04R15
 118017738.524 8  91961964.658 7  88130229.741 8  22457995.500    22457995.260
  22457994.380          49.150          46.000
 134695152.580 6 104957267.40545                  25631635.700
  25631635.580          38.050          34.800
 131003266.632 7 102080533.438 6                  24929072.380    24929070.740
  24929070.260          44.950          38.000
 108234807.107 8  84338877.02247                  20596374.340
  20596370.300          49.950          46.300
 132469228.332 6 103222679.85644                  25208122.820
  25208138.860          41.700          28.900
 119917544.304 8  93442266.022 7                  22819535.960    22819534.680
  22819534.020          48.100          44.450
 113104971.760 8  88133875.73647                  21523093.840
  21523090.220          50.100          45.350
 131290143.162 6 102304065.813 6  98041407.846 7  24983672.200    24983678.220
  24983677.280          41.800          38.550
 128995305.162 7 100515822.29446                  24546997.820
  24546999.000          45.050          38.650
 109435512.628 8  85274441.187 8                  20824871.500    20824869.400
  20824868.820          49.700          49.250
 112617195.410 7  87591245.084 6                  21126658.720    21126666.000
  21126665.300          43.350          39.750
 103266536.030 8  80318465.782 7                  19318125.060    19318128.000
  19318127.460          49.250          47.550
 117643951.316 7  91500896.495 7                  22023188.180    22023194.600
  22023193.880          45.150          42.600
 121904707.423 7  94814820.516 6                  22844882.640    22844887.700
  22844887.800          45.800          39.600
 109142853.782 8  84888926.177 7                  20381648.140    20381650.440
  20381649.360          49.100          46.600
 102371863.410 7  79622713.206 7                  19157442.000    19157447.900
  19157445.700          47.100          47.100
 15  1 27 16  1 40.0000000  0 16G30G21G07G13G02G15G28G24G10G05R14R05
                                R16R06R04R15
 118031625.446 8  91972785.649 7  88140599.842 8  22460638.080    22460637.820
  22460636.940          49.250          46.150
 134691140.074 6 104954140.77145                  25630872.100
  25630872.180          38.850          31.750
 131018987.126 7 102092783.200 6                  24932063.880    24932062.260
  24932061.680          44.950          37.850
 108229561.144 8  84334789.27347                  20595376.060
  20595372.020          50.100          46.350
 132483504.374 6 103233803.92044                  25210839.680
  25210855.660          41.050          29.150
 119904300.913 8  93431946.506 7                  22817015.800    22817014.540
  22817013.840          48.250          44.400
 113104010.696 8  88133126.85947                  21522910.960
  21522907.340          50.200          45.350
 131274235.528 7 102291670.275 6  98029528.837 7  24980645.020    24980650.920
  24980650.060          42.050          38.600
 129013985.807 7 100530378.60246                  24550552.640
  24550553.860          45.050          37.700
 109443090.596 8  85280346.104 8                  20826313.540    20826311.480
  20826310.880          49.950          49.250
 112633811.462 7  87604168.679 6                  21129775.820    21129783.060
  21129782.380          43.250          39.300
 103260551.199 8  80313810.917 7                  19317005.480    19317008.400
  19317007.860          49.200          47.550
 117626743.021 7  91487512.284 7                  22019966.700    22019973.140
  22019972.420          45.900          42.250
 121884756.662 7  94799303.263 6                  22841143.900    22841148.860
  22841149.000          45.450          39.100
 109156274.479 8  84899364.499 7                  20384154.380    20384156.660
  20384155.640          48.950          46.650
 102372941.381 7  79623551.632 7                  19157643.700    19157649.620
  19157647.440          47.250          47.000
 15  1 27 16  1 45.0000000  0 16G30G21G07G13G02G15G28G24G10G05R14R05
                                R16R06R04R15
 118045516.786 8  91983610.073 7  88150973.247 8  22463281.520    22463281.280
  22463280.320          49.100          46.000
 134687139.686 6 104951023.59644                  25630110.760
  25630110.760          38.850          27.850
 131034707.162 7 102105032.588 6                  24935055.320    24935053.660
  24935053.180          45.100          38.350
 108224322.512 8  84330707.22447                  20594379.180
  20594375.140          50.200          46.250
 132497775.973 6 103244924.50845                  25213555.640
  25213571.700          39.950          33.250
 119891060.646 8  93421629.428 7                  22814496.220    22814494.940
  22814494.300          48.600          43.850
 113103064.976 8  88132389.94347                  21522731.000
  21522727.380          50.150          44.900
 131258331.426 6 102279277.514 6  98017652.466 7  24977618.520    24977624.340
  24977623.500          41.050          39.000
 129032668.199 7 100544936.25746                  24554107.740
  24554109.100          44.700          38.350
 109450683.198 8  85286262.419 8                  20827758.360    20827756.320
  20827755.700          49.950          48.950
 112650435.043 7  87617098.127 6                  21132894.360    21132901.660
  21132900.900          43.000          39.700
 103254584.085 8  80309169.837 8                  19315889.200    19315892.120
  19315891.580          49.000          48.000
 117609544.864 7  91474135.965 7                  22016747.160    22016753.620
  22016752.840          45.800          42.700
 121864808.835 7  94783788.310 6                  22837405.680    22837410.640
  22837410.740          45.050          40.100
 109169710.389 8  84909814.648 7                  20386663.440    20386665.760
  20386664.720          48.600          47.000
 102374037.632 7  79624404.276 7                  19157848.860    19157854.780
  19157852.600          47.100          47.650
 15  1 27 16  1 50.0000000  0 16G30G21G07G13G02G15G28G24G10G05R14R05
                                R16R06R04R15
 118059411.930 8  91994437.454 7  88161349.489 8  22465925.700    22465925.420
  22465924.460          49.150          46.100
 134683150.820 6 104947915.37844                  25629351.620
  25629351.540          38.200          28.250
 131050426.122 7 102117281.134 6                  24938046.520    24938044.880
  24938044.340          44.950          38.350
 108219090.586 8  84326630.40947                  20593383.580
  20593379.540          50.300          46.050
 132512042.582 6 103256041.08245                  25216270.680
  25216287.060          41.500          31.200
 119877822.925 8  93411314.323 7                  22811977.140    22811975.840
  22811975.180          48.450          44.050
 113102134.017 8  88131664.52247                  21522553.840
  21522550.220          50.100          45.050
 131242430.320 6 102266887.092 6  98005778.322 7  24974592.620    24974598.500
  24974597.600          41.500          39.850
 129051351.652 7 100559494.75746                  24557663.080
  24557664.500          44.900          37.850
 109458289.783 8  85292189.620 8                  20829205.840    20829203.820
  20829203.180          50.250          49.050
 112667065.455 7  87630032.890 6                  21136014.140    21136021.540
  21136020.660          43.450          39.450
 103248633.941 8  80304541.943 7                  19314776.100    19314779.000
  19314778.460          49.350          47.800
 117592356.125 7  91460766.967 7                  22013529.360    22013535.820
  22013535.040          45.700          42.550
 121844863.523 7  94768275.314 6                  22833667.960    22833672.800
  22833672.960          45.800          40.200
 109183160.825 8  84920276.095 7                  20389175.200    20389177.560
  20389176.520          48.800          46.750
 102375151.643 7  79625270.731 7                  19158057.300    19158063.240
  19158061.080          47.350          47.550
 15  1 27 16  1 55.0000000  0 16G30G21G07G13G02G15G28G24G10G05R14R05
                                R16R06R04R15
 118073310.085 8  92005267.189 7  88171727.979 8  22468570.460    22468570.180
  22468569.200          48.800          46.150
 134679172.647 6 104944815.50244                  25628594.640
  25628594.360          38.050          29.750
 131066143.155 7 102129528.179 6                  24941037.380    24941035.700
  24941035.180          44.150          37.900
 108213864.627 8  84322558.23747                  20592389.120
  20592385.080          50.000          46.300
 132526303.259 6 103267153.13245                  25218984.560
  25219000.940          38.150          33.150
 119864586.962 8  93401000.606 7                  22809458.380    22809457.040
  22809456.420          48.600          43.850
 113101216.985 8  88130949.96047                  21522379.320
  21522375.700          49.950          44.550
 131226531.346 7 102254498.353 6  97993905.769 7  24971567.120    24971573.020
  24971572.160          42.100          40.150
 129070035.397 7 100574053.48746                  24561218.500
  24561219.880          44.850          37.650
 109465909.553 8  85298127.105 8                  20830655.860    20830653.780
  20830653.180          50.050          48.950
 112683701.893 7  87642972.346 6                  21139135.020    21139142.500
  21139141.580          43.600          39.650
 103242700.179 8  80299926.798 7                  19313666.060    19313668.960
  19313668.380          49.400          47.700
 117575175.967 7  91447404.647 7                  22010313.220    22010319.620
  22010318.820          45.550          42.750
 121824919.859 7  94752763.596 6                  22829930.560    22829935.280
  22829935.460          45.400          39.550
 109196624.868 8  84930748.127 7                  20391689.520    20391691.900
  20391690.860          48.650          46.800
 102376282.503 7  79626150.295 7                  19158268.900    19158274.880
  19158272.720          47.300          47.350
 15  1 27 16  2  0.0000000  0 16G30G21G07G13G02G15G28G24G10G05R14R05
                                R16R06R04R15
 118087213.955 8  92016101.372 7  88182110.741 8  22471216.300    22471216.000
  22471215.020          48.900          46.550
 134675207.967 6 104941726.12045                  25627840.120
  25627839.980          38.850          30.200
 131081861.000 7 102141775.855 6                  24944028.380    24944026.680
  24944026.220          44.050          38.000
 108208647.396 8  84318492.86447                  20591396.340
  20591392.260          50.000          46.700
 132540560.814 5 103278262.78444                  25221697.900
  25221714.320          35.050          27.650
 119851355.477 8  93390690.363 7                  22806940.500    22806939.140
  22806938.520          48.600          43.850
 113100316.637 8  88130248.39447                  21522207.960
  21522204.360          49.800          45.000
 131210637.232 6 102242113.394 6  97982036.852 7  24968542.560    24968548.480
  24968547.640          41.850          40.250
 129088722.162 7 100588614.57746                  24564774.560
  24564775.780          45.250          37.350
 109473545.253 8  85304077.003 8                  20832108.880    20832106.820
  20832106.200          49.850          49.000
 112700347.028 7  87655918.569 6                  21142257.580    21142265.000
  21142264.160          43.350          39.200
 103236785.361 8  80295326.387 7                  19312559.540    19312562.440
  19312561.880          49.300          47.600
 117558007.322 7  91434051.272 7                  22007099.200    22007105.560
  22007104.780          45.150          42.000
 121804980.501 7  94737255.230 6                  22826193.980    22826198.580
  22826198.740          45.800          39.050
 109210105.479 8  84941233.046 7                  20394206.880    20394209.360
  20394208.300          48.700          46.650
 102377432.785 7  79627044.969 7                  19158484.140    19158490.140
  19158487.980          47.050          47.050
 15  1 27 16  2  5.0000000  0 15G30G21G07G13G15G28G24G10G05R14R05R16
                                R06R04R15
 118101121.304 8  92026938.261 7  88192496.103 8  22473862.760    22473862.500
  22473861.520          48.700          47.000
 134671254.641 6 104938645.62145                  25627087.820
  25627087.720          39.100          34.200
 131097577.442 7 102154022.429 6                  24947019.100    24947017.320
  24947016.960          44.400          38.400
 108203436.595 8  84314432.50647                  20590404.800
  20590400.660          50.000          47.250
 119838126.324 8  93380381.935 7                  22804423.080    22804421.680
  22804421.040          48.650          44.750
 113099430.704 8  88129558.06147                  21522039.360
  21522035.760          49.900          46.100
 131194745.797 6 102229730.497 6  97970169.891 7  24965518.500    24965524.380
  24965523.580          40.900          40.100
 129107409.717 7 100603176.29846                  24568330.740
  24568331.860          45.300          37.350
 109481194.641 8  85310037.549 8                  20833564.540    20833562.440
  20833561.820          49.850          49.500
 112716998.824 7  87668869.949 6                  21145381.400    21145388.840
  21145387.980          43.550          38.800
 103230887.462 8  80290739.123 7                  19311456.240    19311459.100
  19311458.520          49.450          47.400
 117540847.821 7  91420705.006 6                  22003886.860    22003893.260
  22003892.440          45.300          41.900
 121785043.486 7  94721748.664 6                  22822457.800    22822462.340
  22822462.440          45.850          38.600
 109223600.285 8  84951728.992 7                  20396726.920    20396729.400
  20396728.400          48.800          46.550
 102378600.251 7  79627952.996 7                  19158702.580    19158708.640
  19158706.440          47.100          46.800
 15  1 27 16  2 10.0000000  0 15G30G21G07G13G15G28G24G10G05R14R05R16
                                R06R04R15
 118115032.008 8  92037777.769 7  88202883.955 8  22476509.860    22476509.620
  22476508.660          49.100          46.850
 134667312.327 6 104935573.68945                  25626337.620
  25626337.220          39.400          31.550
 131113292.292 7 102166267.795 6                  24950009.500    24950007.800
  24950007.320          44.300          38.000
 108198232.063 8  84310377.03247                  20589414.440
  20589410.280          50.550          46.800
 119824899.303 8  93370075.183 7                  22801906.040    22801904.680
  22801903.980          49.150          44.600
 113098559.088 8  88128878.88847                  21521873.460
  21521869.900          50.250          45.200
 131178856.997 7 102217349.641 6  97958304.882 7  24962494.980    24962500.740
  24962500.000          42.000          38.650
 129126097.900 7 100617738.49446                  24571887.000
  24571888.080          45.600          36.350
 109488857.573 8  85316008.669 8                  20835022.760    20835020.640
  20835020.040          50.300          49.350
 112733656.891 7  87681826.223 6                  21148506.460    21148513.900
  21148513.000          44.150          39.250
 103225006.144 8  80286164.770 7                  19310356.020    19310358.860
  19310358.300          49.750          47.550
 117523697.343 7  91407365.772 7                  22000676.220    22000682.560
  22000681.780          45.800          42.100
 121765108.461 7  94706243.660 6                  22818721.960    22818726.500
  22818726.560          46.050          38.650
 109237109.160 8  84962235.891 7                  20399249.580    20399252.100
  20399251.120          49.400          46.650
 102379784.912 7  79628874.405 7                  19158924.260    19158930.340
  19158928.140          47.650          46.850
 15  1 27 16  2 15.0000000  0 15G30G21G07G13G15G28G24G10G05R14R05R16
                                R06R04R15
 118128948.803 8  92048622.016 7  88213276.363 8  22479158.100    22479157.900
  22479156.980          49.100          46.800
 134663383.807 6 104932512.50345                  25625590.100
  25625589.660          39.700          32.150
 131129008.396 7 102178514.091 6                  24953000.160    24952998.500
  24952998.040          44.150          37.600
 108193036.609 8  84306328.62947                  20588425.820
  20588421.620          50.650          46.600
 119811677.158 8  93359772.217 7                  22799389.960    22799388.560
  22799387.860          48.650          44.600
 113097704.580 8  88128213.04147                  21521710.820
  21521707.260          50.150          45.250
 131162973.487 6 102204972.876 6  97946443.868 7  24959472.420    24959478.000
  24959477.420          41.650          38.150
 129144789.444 7 100632303.29546                  24575443.820
  24575444.960          44.750          38.400
 109496536.858 8  85321992.526 8                  20836484.080    20836481.980
  20836481.360          50.150          49.200
 112750324.023 7  87694789.548 6                  21151633.180    21151640.640
  21151639.760          43.850          39.250
 103219144.379 8  80281605.619 7                  19309259.440    19309262.280
  19309261.780          49.750          47.350
 117506558.753 7  91394035.779 7                  21997467.860    21997474.160
  21997473.360          46.050          42.200
 121745178.362 7  94690742.496 6                  22814987.100    22814991.620
  22814991.620          46.400          38.850
 109250634.881 8  84972755.888 7                  20401775.400    20401777.980
  20401777.000          49.400          46.700
 102380989.456 7  79629811.277 7                  19159149.660    19159155.760
  19159153.540          47.800          46.850
 15  1 27 16  2 20.0000000  0 15G30G21G07G13G15G28G24G10G05R14R05R16
                                R06R04R15
 118142869.652 8  92059469.435 7  88223671.796 8  22481807.120    22481806.940
  22481806.060          48.750          46.700
 134659467.081 6 104929460.51745                  25624844.780
  25624844.320          39.650          31.250
 131144723.679 7 102190759.791 6                  24955990.660    24955989.040
  24955988.680          43.950          37.900
 108187848.252 8  84302285.76447                  20587438.560
  20587434.320          50.650          46.500
 119798457.911 8  93349471.541 7                  22796874.420    22796873.000
  22796872.320          48.850          44.700
 113096865.130 8  88127558.93347                  21521551.040
  21521547.500          49.850          45.400
 131147093.303 6 102192598.741 6  97934585.305 7  24956450.460    24956456.040
  24956455.380          41.800          38.900
 129163482.375 7 100646869.15846                  24579000.880
  24579002.280          45.150          38.850
 109504230.472 8  85327987.551 8                  20837948.160    20837946.040
  20837945.400          50.250          49.200
