     2.11           OBSERVATION DATA    M (MIXED)           RINEX VERSION / TYPE
teqc  2011Oct11     IGN-E (SPG)         20150128 01:00:44UTCPGM / RUN BY / DATE
Linux 2.4.21-27.ELsmp|Opteron|gcc -static|Linux x86_64|=+   COMMENT
BIT 2 OF LLI FLAGS DATA COLLECTED UNDER A/S CONDITION       COMMENT
VALE                                                        MARKER NAME
13439M001                                                   MARKER NUMBER
Programas GeodesicosInstituto Geografico Nacional           OBSERVER / AGENCY
1700071             LEICA GR10          3.03/6.214          REC # / TYPE / VERS
10190012            LEIAR25.R3      LEIT                    ANT # / TYPE
  4929534.0457   -29050.6755  4033709.9250                  APPROX POSITION XYZ
        3.0390        0.0000        0.0000                  ANTENNA: DELTA H/E/N
     1     1                                                WAVELENGTH FACT L1/2
     8    L1    L2    L5    C1    C2    P2    S1    S2      # / TYPES OF OBSERV
     5.0000                                                 INTERVAL
Forced Modulo Decimation to 5 seconds                       COMMENT
DefaultJobName                                              COMMENT
DefaultUserDiscription                                      COMMENT
Project creator:                                            COMMENT
 SNR is mapped to RINEX snr flag value [0-9]                COMMENT
  L1 & L2: min(max(int(snr_dBHz/6), 0), 9)                  COMMENT
  2015     1    27    23     0    0.0000000     GPS         TIME OF FIRST OBS
    15                                                      LEAP SECONDS
                                                            END OF HEADER
 15  1 27 23  0  0.0000000  0 17G08G14G31G21G24G12G25G29G02R02R20R22
                                R11R09R19R10R21
 129448721.288 7 100869111.65446                  24633272.380
  24633268.380          44.600          36.400
 118603247.820 7  92418114.95146                  22569440.780
  22569436.300          47.350          41.100
 113599996.509 8  88519479.660 7                  21617355.540    21617350.980
  21617350.140          50.200          47.000
 128100151.771 7  99818358.03945                  24376623.940
  24376619.400          43.000          33.900
 130296566.073 7 101529875.241 6  97299481.000 7  24794581.660    24794580.940
  24794580.280          43.100          41.050
 121094970.603 8  94359827.611 7                  23043540.440    23043536.500
  23043535.740          48.300          43.550
 109053437.733 8  84976813.619 8  81436141.994 8  20752134.540    20752132.920
  20752132.140          49.800          49.050
 105198497.612 8  81973013.224 8                  20018540.340    20018536.400
  20018535.740          50.550          50.200
 125131110.304 7  97504752.62546                  23811649.580
  23811641.900          47.550          40.000
 130057852.032 5 101156098.796 4                  24372786.180    24372789.360
  24372788.280          34.400          29.100
 104152205.346 7  81007303.992 7                  19476936.460    19476940.000
  19476937.840          43.750          46.600
 128506793.178 7  99949790.321 6                  24073636.620    24073646.600
  24073645.100          42.400          38.900
 111092103.608 7  86404993.637 6                  20789366.260    20789369.220
  20789367.820          47.350          41.150
 119813620.332 7  93188315.466 5                  22437208.740    22437211.700
  22437209.520          46.200          33.650
 123079115.445 7  95728200.766 6                  23008287.840    23008288.760
  23008286.960          44.850          39.100
 103536372.959 8  80528336.983 7                  19423146.740    19423153.060
  19423151.720          48.600          42.300
 107253594.810 8  83419449.145 7                  20042846.220    20042848.000
  20042847.020          48.250          46.650
 15  1 27 23  0  5.0000000  0 17G08G14G31G21G24G12G25G29G02R02R20R22
                                R11R09R19R10R21
 129430927.094 7 100855246.04045                  24629886.280
  24629882.240          45.600          35.350
 118614827.945 7  92427138.41946                  22571644.420
  22571639.920          47.400          40.350
 113589047.395 8  88510947.887 7                  21615272.020    21615267.420
  21615266.600          50.300          46.950
 128084454.754 7  99806126.61245                  24373636.900
  24373632.380          43.000          32.850
 130314530.882 7 101543873.775 6  97312896.256 7  24798000.220    24797999.600
  24797998.880          43.000          41.000
 121107221.231 8  94369373.550 7                  23045871.700    23045867.680
  23045866.940          48.550          43.700
 109058044.686 8  84980403.446 8  81439582.242 8  20753011.240    20753009.580
  20753008.820          49.950          49.100
 105198553.016 8  81973056.390 8                  20018550.880    20018546.940
  20018546.280          50.650          50.200
 125138965.249 7  97510873.35846                  23813144.320
  23813136.700          47.400          39.600
 130062891.518 6 101160018.465 5                  24373730.560    24373733.780
  24373732.660          36.550          30.300
 104158888.035 7  81012501.643 7                  19478186.160    19478189.660
  19478187.520          43.700          46.750
 128484918.483 7  99932776.827 6                  24069538.620    24069548.580
  24069547.140          43.100          39.900
 111077548.340 7  86393672.879 6                  20786642.460    20786645.440
  20786644.040          47.150          40.950
 119829775.964 7  93200880.960 5                  22440234.180    22440236.960
  22440235.000          46.200          33.800
 123099529.408 7  95744078.299 6                  23012104.000    23012104.940
  23012103.120          44.950          39.350
 103538579.657 8  80530053.293 7                  19423560.680    19423567.040
  19423565.680          48.650          42.200
 107240769.145 8  83409473.628 7                  20040449.400    20040451.220
  20040450.220          48.400          46.950
 15  1 27 23  0 10.0000000  0 17G08G14G31G21G24G12G25G29G02R02R20R22
                                R11R09R19R10R21
 129413134.078 7 100841381.33646                  24626500.420
  24626496.360          45.300          36.300
 118626418.961 7  92436170.38646                  22573850.120
  22573845.620          47.550          40.850
 113578108.550 8  88502424.108 7                  21613190.440    21613185.820
  21613185.000          50.150          46.850
 128068759.148 7  99793896.28845                  24370650.180
  24370645.560          43.200          34.850
 130332499.120 7 101557874.997 6  97326314.090 7  24801419.480    24801418.860
  24801418.100          42.850          40.850
 121119475.451 8  94378922.291 7                  23048203.640    23048199.580
  23048198.840          48.400          43.800
 109062659.204 8  84983999.174 8  81443028.152 8  20753889.360    20753887.700
  20753886.940          49.650          49.000
 105198623.081 8  81973110.986 8                  20018564.220    20018560.260
  20018559.600          50.600          50.200
 125146833.236 7  97517004.25446                  23814641.540
  23814633.900          47.200          40.350
 130067949.315 5 101163952.319 5                  24374678.460    24374681.760
  24374680.640          32.000          30.050
 104165591.012 7  81017715.074 7                  19479439.640    19479443.160
  19479441.000          43.650          46.650
 128463047.879 7  99915766.510 6                  24065441.360    24065451.300
  24065450.000          42.850          39.900
 111063000.978 7  86382358.268 6                  20783920.140    20783923.140
  20783921.720          46.950          41.150
 119845941.190 7  93213453.909 5                  22443261.440    22443264.060
  22443262.200          46.400          32.900
 123119948.819 7  95759960.070 6                  23015921.180    23015922.060
  23015920.280          44.450          39.050
 103540802.867 8  80531782.444 7                  19423977.720    19423984.080
  19423982.700          48.750          42.200
 107227961.297 8  83399511.979 7                  20038055.960    20038057.780
  20038056.760          48.800          46.950
 15  1 27 23  0 15.0000000  0 17G08G14G31G21G24G12G25G29G02R02R20R22
                                R11R09R19R10R21
 129395340.972 7 100827516.58846                  24623114.540
  24623110.420          45.000          37.200
 118638019.575 7  92445209.81946                  22576057.640
  22576053.160          47.700          40.550
 113567178.704 8  88493907.345 7                  21611110.600    21611105.920
  21611105.100          50.150          46.800
 128053063.658 7  99781666.05445                  24367663.380
  24367658.720          43.550          34.750
 130350469.539 7 101571877.913 6  97339733.549 7  24804839.180    24804838.540
  24804837.820          42.950          41.150
 121131731.983 8  94388472.836 7                  23050536.020    23050531.920
  23050531.220          48.650          43.750
 109067279.985 8  84987599.779 8  81446478.727 8  20754768.640    20754767.020
  20754766.240          49.600          48.950
 105198706.545 8  81973176.024 8                  20018580.120    20018576.140
  20018575.480          50.800          50.200
 125154713.022 7  97523144.34646                  23816141.000
  23816133.380          47.250          39.650
 130073024.463 5 101167899.652 5                  24375629.760    24375632.800
  24375631.740          34.550          31.500
 104172312.962 7  81022943.257 7                  19480696.740    19480700.180
  19480698.000          43.700          46.800
 128441180.031 7  99898758.365 6                  24061344.580    24061354.580
  24061353.380          42.900          39.950
 111048460.186 7  86371048.772 6                  20781199.060    20781202.120
  20781200.620          47.200          41.150
 119862114.592 7  93226033.224 5                  22446290.200    22446292.900
  22446291.000          46.350          32.700
 123140372.165 7  95775844.897 6                  23019739.100    23019739.980
  23019738.180          43.850          39.700
 103543041.370 8  80533523.498 7                  19424397.640    19424404.040
  19424402.620          48.700          42.400
 107215170.006 8  83389563.197 7                  20035665.620    20035667.420
  20035666.380          49.150          47.000
 15  1 27 23  0 20.0000000  0 17G08G14G31G21G24G12G25G29G02R02R20R22
                                R11R09R19R10R21
 129377547.813 7 100813651.78546                  24619728.640
  24619724.520          44.750          37.250
 118649629.741 7  92454256.69746                  22578266.960
  22578262.500          47.650          40.650
 113556257.910 8  88485397.639 7                  21609032.480    21609027.720
  21609026.940          50.350          47.000
 128037368.343 7  99769435.94845                  24364676.660
  24364672.020          43.000          33.300
 130368442.157 7 101585882.528 6  97353154.636 7  24808259.260    24808258.660
  24808257.960          43.150          41.150
 121143990.827 8  94398025.182 7                  23052868.780    23052864.720
  23052864.040          48.400          44.000
 109071907.049 8  84991205.275 8  81449933.995 8  20755649.140    20755647.500
  20755646.760          49.600          48.950
 105198803.416 8  81973251.511 8                  20018598.560    20018594.580
  20018593.900          50.800          50.150
 125162604.596 7  97529293.62646                  23817642.720
  23817635.100          47.300          40.200
 130078116.767 5 101171860.333 5                  24376583.880    24376587.080
  24376586.060          33.600          32.850
 104179053.986 7  81028186.263 7                  19481957.360    19481960.780
  19481958.580          43.800          46.500
 128419315.003 7  99881752.386 6                  24057248.400    24057258.300
  24057257.160          42.750          39.300
 111033926.041 7  86359744.437 6                  20778479.160    20778482.300
  20778480.720          47.300          40.750
 119878296.185 7  93238618.901 5                  22449320.460    22449323.160
  22449321.320          45.750          33.200
 123160799.664 7  95791732.948 6                  23023557.820    23023558.720
  23023556.860          43.450          39.400
 103545295.329 8  80535276.575 7                  19424820.460    19424826.840
  19424825.440          48.650          42.450
 107202395.357 8  83379627.352 7                  20033278.380    20033280.180
  20033279.120          49.100          47.000
 15  1 27 23  0 25.0000000  0 17G08G14G31G21G24G12G25G29G02R02R20R22
                                R11R09R19R10R21
 129359754.938 7 100799787.22846                  24616342.780
  24616338.680          45.350          38.250
 118661249.846 7  92463311.31246                  22580478.200
  22580473.720          47.700          40.300
 113545346.478 8  88476895.229 7                  21606956.140    21606951.360
  21606950.540          50.400          46.850
 128021673.513 7  99757206.25645                  24361690.000
  24361685.440          42.800          33.350
 130386417.318 7 101599889.137 6  97366577.630 7  24811679.800    24811679.280
  24811678.620          43.700          40.950
 121156252.315 8  94407579.588 7                  23055202.060    23055198.020
  23055197.320          48.550          43.800
 109076540.740 8  84994815.937 8  81453394.218 8  20756530.900    20756529.280
  20756528.520          49.550          48.950
 105198913.977 8  81973337.672 8                  20018619.600    20018615.620
  20018614.940          50.850          50.150
 125170508.261 7  97535452.32446                  23819146.760
  23819139.080          47.250          39.950
 130083226.642 6 101175834.645 5                  24377541.460    24377544.640
  24377543.800          37.350          32.300
 104185814.304 7  81033444.298 7                  19483221.600    19483224.980
  19483222.780          43.650          46.500
 128397452.996 7  99864748.770 6                  24053152.780    24053162.640
  24053161.600          43.050          38.650
 111019398.875 7  86348445.524 6                  20775760.600    20775763.660
  20775762.140          47.450          40.600
 119894486.289 7  93251211.194 5                  22452352.340    22452354.940
  22452353.200          46.050          33.200
 123181231.406 7  95807624.283 6                  23027377.280    23027378.220
  23027376.340          44.050          39.300
 103547564.907 8  80537041.809 7                  19425246.220    19425252.540
  19425251.220          48.650          42.350
 107189637.602 8  83369704.664 7                  20030894.320    20030896.060
  20030895.020          48.950          46.950
 15  1 27 23  0 30.0000000  0 17G08G14G31G21G24G12G25G29G02R02R20R22
                                R11R09R19R10R21
 129341964.139 7 100785924.27146                  24612957.360
  24612953.200          46.050          37.800
 118672881.633 7  92472375.04946                  22582691.640
  22582687.180          47.700          40.350
 113534446.168 8  88468401.483 7                  21604881.900    21604877.100
  21604876.260          50.250          46.750
 128005980.978 7  99744978.33845                  24358703.760
  24358699.320          43.000          35.300
 130404396.828 7 101613899.147 6  97380003.880 7  24815101.240    24815100.680
  24815100.040          43.550          40.750
 121168518.214 8  94417137.437 7                  23057536.160    23057532.160
  23057531.480          48.150          43.900
 109081182.788 8  84998433.120 8  81456860.673 8  20757414.240    20757412.660
  20757411.880          49.550          48.900
 105199040.011 8  81973435.887 8                  20018643.580    20018639.600
  20018638.920          50.800          50.100
 125178425.794 7  97541621.82646                  23820653.440
  23820645.720          47.500          39.400
 130088355.720 5 101179823.914 5                  24378502.580    24378505.780
  24378505.120          34.750          31.700
 104192595.741 7  81038718.754 7                  19484489.760    19484493.120
  19484490.920          43.200          46.400
 128375596.008 7  99847749.045 6                  24049058.140    24049067.880
  24049066.880          43.250          39.250
 111004880.348 7  86337153.346 6                  20773043.640    20773046.720
  20773045.140          47.400          40.750
 119910686.724 7  93263811.543 5                  22455386.180    22455388.980
  22455387.020          46.100          33.450
 123201669.280 7  95823520.408 6                  23031197.900    23031198.820
  23031196.940          44.150          39.750
 103549851.966 8  80538820.635 7                  19425675.260    19425681.580
  19425680.280          48.700          42.400
 107176898.608 8  83359796.560 7                  20028513.760    20028515.440
  20028514.440          48.800          46.850
 15  1 27 23  0 35.0000000  0 17G08G14G31G21G24G12G25G29G02R02R20R22
                                R11R09R19R10R21
 129324170.678 7 100772059.22746                  24609571.460
  24609567.260          46.250          37.700
 118684520.388 7  92481444.20746                  22584906.420
  22584901.980          47.400          40.700
 113523552.291 8  88459912.747 7                  21602808.880    21602804.060
  21602803.220          50.250          46.800
 127990286.013 7  99732748.50645                  24355717.080
  24355712.720          43.050          34.250
 130422375.881 7 101627908.782 6  97393429.775 7  24818522.540    24818522.020
  24818521.340          42.350          40.650
 121180783.785 7  94426695.006 7                  23059870.180    23059866.280
  23059865.600          47.950          44.000
 109085828.484 8  85002053.139 8  81460329.860 8  20758298.280    20758296.720
  20758295.920          49.700          48.800
 105199176.810 8  81973542.475 8                  20018669.620    20018665.640
  20018664.940          50.700          50.050
 125186352.440 7  97547798.45046                  23822161.840
  23822154.120          47.350          39.800
 130093499.278 6 101183824.442 4                  24379466.480    24379469.680
  24379469.080          37.750          29.250
 104199393.413 7  81044005.824 7                  19485760.940    19485764.300
  19485762.080          43.400          46.650
 128353739.131 7  99830749.398 6                  24044963.560    24044973.200
  24044972.220          43.400          39.650
 110990366.017 7  86325864.419 6                  20770327.480    20770330.600
  20770328.940          47.300          40.950
 119926892.649 7  93276416.132 5                  22458421.000    22458423.940
  22458421.960          46.400          33.400
 123222108.468 7  95839417.560 6                  23035018.880    23035019.740
  23035017.840          44.600          40.050
 103552151.662 8  80540609.278 7                  19426106.660    19426113.020
  19426111.740          48.700          42.600
 107164173.506 8  83349899.256 7                  20026135.780    20026137.460
  20026136.460          48.850          46.850
 15  1 27 23  0 40.0000000  0 17G08G14G31G21G24G12G25G29G02R02R20R22
                                R11R09R19R10R21
 129306380.518 7 100758196.75046                  24606186.140
  24606181.860          45.700          36.850
 118696172.018 7  92490523.38746                  22587123.660
  22587119.200          47.350          40.100
 113512670.799 8  88451433.659 7                  21600738.220    21600733.360
  21600732.520          50.300          46.850
 127974594.548 7  99720521.40945                  24352731.060
  24352726.740          42.850          33.350
 130440360.352 7 101641922.618 6  97406859.707 7  24821944.800    24821944.360
  24821943.560          42.250          40.650
 121193054.986 8  94436256.957 7                  23062205.260    23062201.440
  23062200.780          48.550          44.000
 109090483.765 8  85005680.626 8  81463806.202 8  20759184.140    20759182.580
  20759181.800          49.800          48.800
 105199330.294 8  81973662.067 8                  20018698.840    20018694.840
  20018694.160          50.700          50.000
 125194294.133 7  97553986.78046                  23823673.120
  23823665.420          46.900          40.350
 130098663.282 6                                  24380434.220    24380438.060
                        37.300          28.250
 104206213.382 7  81049310.240 7                  19487036.320    19487039.660
  19487037.440          43.550          46.650
 128331888.417 7  99813754.548 6                  24040870.080    24040879.640
  24040878.660          42.800          39.750
 110975861.653 7  86314583.242 6                  20767613.180    20767616.320
  20767614.620          47.600          40.850
 119943110.118 7  93289029.707 5                  22461458.020    22461460.960
  22461459.020          46.350          33.100
 123242554.963 7  95855320.392 6                  23038841.160    23038842.060
  23038840.120          44.650          39.800
 103554470.163 8  80542412.553 7                  19426541.600    19426547.960
  19426546.700          48.650          42.350
 107151468.428 8  83340017.525 7                  20023761.560    20023763.200
  20023762.200          49.150          46.900
 15  1 27 23  0 45.0000000  0 17G08G14G31G21G24G12G25G29G02R02R20R22
                                R11R09R19R10R21
 129288589.001 7 100744333.24346                  24602800.540
  24602796.200          46.000          36.600
 118707831.899 7  92499609.01646                  22589342.460
  22589338.000          47.350          40.100
 113501797.056 8  88442960.618 7                  21598669.020    21598664.160
  21598663.300          50.200          46.550
 127958902.014 7  99708293.48845                  24349744.860
  24349740.500          42.150          35.450
 130458345.671 7 101655937.135 6  97420290.277 7  24825367.280    24825366.840
  24825366.060          43.200          40.750
 121205327.186 8  94445819.708 7                  23064540.580    23064536.780
  23064536.180          48.550          43.850
 109095144.030 8  85009312.004 8  81467286.270 8  20760070.960    20760069.400
  20760068.620          50.000          48.700
 105199495.854 8  81973791.078 8                  20018730.340    20018726.340
  20018725.640          50.800          50.000
 125202246.268 7  97560183.24346                  23825186.340
  23825178.660          47.250          39.600
 130103843.189 5 101191907.736 4                  24381404.900    24381410.060
                        35.050          29.000
 104213050.984 7  81054628.383 7                  19488314.980    19488318.340
  19488316.100          43.550          46.700
 128310039.244 7  99796760.926 6                  24036776.880    24036786.380
  24036785.400          43.700          40.700
 110961362.577 7  86303306.191 6                  20764899.880    20764903.020
  20764901.320          47.350          41.200
 119959334.465 7  93301648.639 5                  22464496.300    22464499.340
  22464497.340          46.550          33.100
 123263004.031 7  95871225.231 6                  23042663.900    23042664.780
  23042662.880          44.700          40.850
 103556802.700 8  80544226.759 7                  19426979.180    19426985.520
  19426984.280          48.800          42.350
 107138778.625 8  83330147.688 7                  20021390.200    20021391.840
  20021390.820          49.200          47.000
 15  1 27 23  0 50.0000000  0 17G08G14G31G21G24G12G25G29G02R02R20R22
                                R11R09R19R10R21
 129270799.837 7 100730471.55246                  24599415.440
  24599411.040          46.050          36.100
 118719503.614 7  92508703.85946                  22591563.520
  22591559.100          47.550          40.400
 113490934.706 8  88434496.460 7                  21596601.980    21596597.120
  21596596.260          50.350          46.600
 127943212.034 7  99696067.55046                  24346759.120
  24346754.740          42.600          36.550
 130476335.492 7 101669955.174 6  97433724.238 7  24828790.680    24828790.200
  24828789.440          43.900          40.950
 121217604.024 8  94455386.071 7                  23066876.800    23066873.020
  23066872.400          48.350          43.450
 109099812.880 8  85012950.072 8  81470772.764 8  20760959.400    20760957.860
  20760957.080          50.100          48.750
 105199677.081 8  81973932.299 8                  20018764.840    20018760.840
  20018760.120          50.850          50.000
 125210212.461 7  97566390.67246                  23826702.300
  23826694.560          47.100          39.950
 130109042.540 6 101195951.665 4                  24382379.280    24382381.440
                        38.000          29.900
 104219909.812 7  81059963.031 7                  19489597.580    19489600.960
  19489598.740          43.250          46.750
 128288195.248 7  99779771.308 6                  24032684.680    24032694.060
  24032693.140          43.700          40.950
 110946872.579 7  86292036.199 6                  20762188.280    20762191.460
  20762189.760          47.100          41.500
 119975569.356 7  93314275.774 5                  22467536.560    22467539.660
  22467537.600          46.600          33.650
 123283459.454 7  95887134.994 6                  23046487.820    23046488.740
  23046486.880          44.850          40.950
 103559152.834 8  80546054.638 7                  19427420.020    19427426.380
  19427425.180          48.700          42.550
 107126107.824 8  83320292.627 7                  20019022.360    20019024.020
  20019022.960          49.000          47.100
 15  1 27 23  0 55.0000000  0 17G08G14G31G21G24G12G25G29G02R02R20R22
                                R11R09R19R10R21
 129253007.868 7 100716607.67446                  24596029.780
  24596025.400          45.750          36.550
 118731182.019 7  92517803.91246                  22593785.860
  22593781.420          47.350          40.550
 113480078.646 8  88426037.186 7                  21594536.160    21594531.260
  21594530.420          50.550          46.800
 127927519.449 7  99683839.59146                  24343772.900
  24343768.540          43.100          36.900
 130494324.574 7 101683972.633 6  97447157.620 7  24832213.960    24832213.400
  24832212.680          43.500          41.100
 121229880.365 8  94464952.047 7                  23069212.940    23069209.200
  23069208.480          48.800          42.950
 109104485.211 8  85016590.856 8  81474261.837 8  20761848.500    20761846.960
  20761846.200          50.000          48.750
 105199868.869 8  81974081.748 8                  20018801.340    20018797.320
  20018796.600          50.750          50.000
 125218187.589 7  97572605.06446                  23828219.920
  23828212.160          46.850          39.850
 130114256.156 6 101200006.717 4                  24383356.460    24383358.200
                        37.800          28.600
 104226784.763 7  81065310.217 7                  19490883.200    19490886.620
  19490884.380          43.500          46.550
 128266351.316 7  99762781.739 6                  24028592.440    24028601.800
  24028600.880          43.750          41.400
 110932386.477 7  86280769.231 6                  20759477.420    20759480.660
  20759478.920          47.350          41.350
 119991809.480 7  93326906.992 5                  22470577.860    22470580.960
  22470578.880          46.750          33.400
 123303915.909 7  95903045.570 6                  23050311.940    23050312.900
  23050311.040          45.000          41.100
 103561515.544 8  80547892.306 7                  19427863.260    19427869.620
  19427868.420          48.750          42.500
 107113450.797 8  83310448.275 7                  20016657.120    20016658.760
  20016657.680          49.050          46.950
 15  1 27 23  1  0.0000000  0 17G08G14G31G21G24G12G25G29G02R02R20R22
                                R11R09R19R10R21
 129235218.430 7 100702745.78946                  24592644.620
  24592640.180          45.700          38.200
 118742872.439 7  92526913.32946                  22596010.500
  22596006.060          47.650          40.700
 113469234.195 8  88417586.962 7                  21592472.540    21592467.620
  21592466.800          50.450          46.950
 127911829.655 7  99671613.78845                  24340787.200
  24340782.940          43.250          35.750
 130512318.399 7 101697993.779 6  97460594.547 7  24835638.080    24835637.480
  24835636.900          43.550          41.150
 121242161.501 8  94474521.782 7                  23071550.020    23071546.200
  23071545.460          49.050          43.550
 109109166.328 8  85020238.478 8  81477757.478 8  20762739.300    20762737.780
  20762736.980          50.300          48.900
 105200076.503 8  81974243.541 8                  20018840.840    20018836.820
  20018836.120          50.750          50.100
 125226176.977 7  97578830.56346                  23829740.240
  23829732.500          47.050          40.200
 130119489.376 6 101204076.996 4                  24384337.200    24384339.660
                        37.650          29.950
 104233681.136 7  81070674.061 7                  19492172.780    19492176.280
  19492174.040          43.550          46.650
 128244512.792 7  99745796.380 6                  24024501.240    24024510.520
  24024509.660          44.150          41.500
 110917909.675 7  86269509.503 6                  20756768.280    20756771.620
  20756769.820          47.200          41.100
 120008060.425 7  93339546.615 5                  22473621.140    22473624.340
  22473622.180          46.400          33.100
 123324378.821 7  95918961.170 6                  23054137.280    23054138.240
  23054136.420          45.150          41.050
 103563896.200 8  80549743.927 7                  19428309.860    19428316.240
  19428315.000          48.850          42.450
 107100813.040 8  83300618.907 7                  20014295.480    20014297.080
  20014296.000          49.150          47.050
 15  1 27 23  1  5.0000000  0 17G08G14G31G21G24G12G25G29G02R02R20R22
                                R11R09R19R10R21
 129217430.093 7 100688884.74146                  24589259.620
  24589255.140          45.900          36.250
 118754573.393 7  92536030.94746                  22598237.160
  22598232.660          47.550          40.900
 113458399.933 8  88409144.682 7                  21590410.880    21590405.940
  21590405.120          50.450          47.250
 127896141.189 7  99659389.02345                  24337801.840
  24337797.540          43.650          33.900
 130530315.421 7 101712017.416 6  97474033.871 7  24839062.800    24839062.200
  24839061.660          44.000          41.500
 121254446.008 8  94484094.123 7                  23073887.780    23073883.860
  23073883.120          49.050          44.000
 109113854.776 8  85023891.814 8  81481258.594 8  20763631.500    20763629.960
  20763629.180          50.150          49.100
 105200298.534 8  81974416.542 8                  20018883.120    20018879.060
  20018878.360          50.700          50.250
 125234179.130 7  97585065.99646                  23831263.000
  23831255.300          47.350          39.750
 130124740.772 6 101208161.385 5                  24385321.380    24385324.020
                        38.850          30.800
 104240597.436 7  81076053.391 7                  19493466.140    19493469.680
  19493467.420          43.550          46.550
 128222678.170 7  99728814.041 6                  24020410.800    24020420.020
  24020419.180          43.650          40.900
 110903440.668 7  86258255.820 6                  20754060.600    20754063.920
  20754062.160          46.950          41.150
 120024320.486 7  93352193.314 5                  22476666.120    22476669.360
  22476667.120          46.150          33.200
 123344846.668 7  95934880.596 6                  23057963.520    23057964.480
  23057962.700          45.050          40.750
 103566293.320 8  80551608.341 7                  19428759.560    19428765.880
  19428764.700          48.700          42.250
 107088193.001 8  83290803.312 7                  20011937.180    20011938.660
  20011937.640          49.000          46.950
 15  1 27 23  1 10.0000000  0 17G08G14G31G21G24G12G25G29G02R02R20R22
                                R11R09R19R10R21
 129199640.469 7 100675022.70446                  24585874.380
  24585869.940          45.800          37.300
 118766282.481 7  92545154.91646                  22600465.360
  22600460.840          47.500          40.800
 113447573.509 8  88400708.512 7                  21588350.700    21588345.740
  21588344.920          50.450          47.000
 127880451.752 7  99647163.50045                  24334816.280
  24334811.920          43.400          35.250
 130548313.158 7 101726041.619 6  97487473.743 7  24842487.680    24842487.080
  24842486.560          44.350          41.550
 121266731.524 8  94493667.250 7                  23076225.700    23076221.660
  23076221.000          48.950          44.250
 109118548.169 8  85027549.005 8  81484763.408 8  20764524.620    20764523.080
  20764522.300          50.050          49.050
 105200532.598 8  81974598.932 8                  20018927.660    20018923.620
  20018922.920          50.700          50.200
 125242191.695 7  97591309.56646                  23832787.720
  23832780.040          47.200          39.600
 130130007.887 6 101212258.023 4                  24386308.500    24386311.580
                        37.800          29.200
 104247531.209 7  81081446.330 7                  19494762.820    19494766.340
  19494764.080          43.850          46.600
 128200845.187 7  99711832.998 6                  24016320.660    24016329.880
  24016329.040          44.500          40.700
 110888977.108 7  86247006.391 6                  20751353.900    20751357.360
  20751355.520          46.900          41.000
 120040587.350 7  93364845.321 5                  22479712.380    22479715.560
  22479713.340          45.800          32.400
 123365317.061 7  95950802.019 6                  23061790.280    23061791.260
  23061789.460          45.000          40.700
 103568704.512 8  80553483.707 7                  19429211.880    19429218.200
  19429217.020          48.850          42.100
 107075588.277 8  83280999.648 7                  20009581.740    20009583.180
  20009582.140          49.050          46.750
 15  1 27 23  1 15.0000000  0 17G08G14G31G21G24G12G25G29G02R02R20R22
                                R11R09R19R10R21
 129181852.644 7 100661162.05946                  24582489.500
  24582485.040          45.600          37.850
 118778002.792 7  92554287.62646                  22602695.680
  22602691.180          47.400          41.200
 113436757.968 8  88392280.813 7                  21586292.600    21586287.600
  21586286.780          50.450          47.050
 127864764.318 7  99634939.53345                  24331831.080
  24331826.720          42.950          35.900
 130566314.797 7 101740068.868 6  97500916.510 7  24845913.360    24845912.740
  24845912.200          43.750          41.200
 121279021.095 8  94503243.517 7                  23078564.420    23078560.240
  23078559.640          49.050          43.850
 109123249.586 8  85031212.451 8  81488274.207 8  20765419.320    20765417.720
  20765416.960          49.950          49.150
 105200781.695 8  81974793.033 8                  20018975.060    20018971.040
  20018970.320          50.750          50.200
 125250217.719 7  97597563.60446                  23834315.020
  23834307.340          47.300          39.900
 130135293.838 6 101216369.288 4                  24387299.060    24387303.060
                        38.300          26.600
 104254485.647 7  81086855.343 7                  19496063.340    19496066.900
  19496064.620          43.700          46.550
 128179016.898 7  99694855.567 6                  24012231.400    24012240.620
  24012239.740          44.500          41.000
 110874522.029 7  86235763.564 6                  20748648.820    20748652.320
  20748650.480          46.800          41.100
 120056864.127 7  93377505.026 5                  22482760.500    22482763.640
  22482761.400          45.750          32.800
 123385793.004 7  95966727.749 6                  23065617.980    23065619.040
  23065617.240          44.550          40.350
 103571132.764 8  80555372.352 7                  19429667.380    19429673.760
  19429672.540          48.850          42.100
 107063001.958 8  83271210.291 7                  20007229.720    20007231.120
  20007230.080          48.950          46.650
 15  1 27 23  1 20.0000000  0 17G08G14G31G21G24G12G25G29G02R02R20R22
                                R11R09R19R10R21
 129164064.793 7 100647301.40646                  24579104.560
  24579100.120          45.500          36.200
 118789732.452 7  92563427.61046                  22604927.800
  22604923.240          47.600          40.950
 113425951.563 8  88383860.236 7                  21584236.240    21584231.220
  21584230.380          50.350          47.000
 127849077.049 7  99622715.71445                  24328845.860
  24328841.480          43.000          35.350
 130584318.470 7 101754097.687 6  97514360.789 7  24849339.360    24849338.760
  24849338.260          43.300          41.550
 121291312.875 8  94512821.525 7                  23080903.540    23080899.280
  23080898.640          49.300          43.300
 109127957.218 8  85034880.730 8  81491789.636 8  20766315.160    20766313.560
  20766312.800          49.750          49.150
 105201044.066 8  81974997.480 8                  20019025.000    20019020.980
  20019020.240          50.700          50.200
 125258255.380 7  97603826.72146                  23835844.540
  23835836.820          47.250          39.100
 130140596.831 6                                  24388292.800
                        37.300
 104261458.844 7  81092278.947 7                  19497367.340    19497370.960
  19497368.660          43.800          46.450
 128157191.412 7  99677880.332 6                  24008142.640    24008151.820
  24008150.960          44.450          40.850
 110860073.693 7  86224525.980 6                  20745944.940    20745948.520
  20745946.680          46.550          40.800
 120073148.928 7  93390170.987 5                  22485810.100    22485813.240
  22485811.040          45.800          32.150
 123406272.801 7  95982656.482 6                  23069446.460    23069447.540
  23069445.720          44.550          40.550
 103573576.361 8  80557272.929 7                  19430125.780    19430132.180
  19430130.980          48.750          42.200
 107050432.297 8  83261433.893 7                  20004880.800    20004882.180
  20004881.120          48.700          46.600
 15  1 27 23  1 25.0000000  0 17G08G14G31G21G24G12G25G29G02R02R20R22
                                R11R09R19R10R21
 129146277.184 7 100633440.93346                  24575719.680
  24575715.280          45.850          36.800
 118801471.668 7  92572575.05746                  22607161.740
  22607157.120          47.450          40.600
 113415154.438 8  88375446.892 7                  21582181.640    21582176.600
  21582175.740          50.450          46.900
 127833390.240 7  99610492.23945                  24325860.740
  24325856.260          43.650          34.550
 130602324.384 7 101768128.237 6  97527806.733 7  24852765.780    24852765.180
  24852764.740          42.850          40.850
 121303607.088 8  94522401.450 7                  23083243.140    23083238.740
  23083238.040          49.150          42.900
 109132671.253 8  85038553.997 8  81495309.851 8  20767212.220    20767210.620
  20767209.860          49.600          49.050
 105201319.929 8  81975212.434 8                  20019077.480    20019073.460
  20019072.740          50.650          50.200
 125266304.880 7  97610099.05546                  23837376.320
  23837368.520          47.200          39.300
 130145917.025 6                                  24389289.760    24389293.500
                        37.950          28.700
 104268450.936 7  81097717.233 7                  19498674.900    19498678.480
  19498676.240          43.800          46.400
 128135369.142 7  99660907.580 6                  24004054.500    24004063.640
  24004062.780          43.950          40.950
 110845632.326 7  86213293.789 6                  20743242.360    20743246.000
  20743244.160          46.900          40.800
 120089442.003 7  93402843.370 5                  22488861.240    22488864.320
  22488862.180          45.850          32.750
 123426756.482 7  95998588.227 6                  23073275.660    23073276.740
  23073274.940          44.200          40.650
 103576035.504 8  80559185.594 7                  19430587.120    19430593.540
  19430592.320          48.700          42.100
 107037879.536 8  83251670.623 7                  20002535.020    20002536.380
  20002535.300          48.750          46.650
 15  1 27 23  1 30.0000000  0 17G08G14G31G21G24G12G25G29G02R02R20R22
                                R11R09R19R10R21
 129128491.230 7 100619581.73646                  24572335.100
  24572330.740          45.600          37.600
 118813221.917 7  92581731.09746                  22609397.740
  22609393.080          47.800          40.800
 113404368.023 8  88367041.896 7                  21580129.080    21580124.000
  21580123.160          50.400          46.950
 127817705.373 7  99598270.28145                  24322876.000
  24322871.540          44.250          33.000
 130620333.966 7 101782161.661 6  97541255.442 7  24856192.900    24856192.300
  24856191.740          43.550          40.650
 121315905.169 8  94531984.391 7                  23085583.440    23085578.940
  23085578.180          48.950          43.500
 109137393.160 8  85042233.401 8  81498835.945 8  20768110.780    20768109.180
  20768108.420          49.650          49.100
 105201610.711 8  81975439.021 8                  20019132.820    20019128.800
  20019128.080          50.650          50.200
 125274367.660 7  97616381.73646                  23838910.620
  23838902.780          47.200          39.750
 130151255.847 6 101228774.254 4                  24390290.360    24390293.280
                        38.150          27.950
 104275463.584 7  81103171.512 7                  19499986.320    19499989.900
  19499987.640          44.100          46.350
 128113551.378 7  99643938.340 6                  23999967.220    23999976.320
  23999975.400          44.300          40.700
 110831199.471 7  86202068.237 6                  20740541.400    20740545.100
  20740543.240          46.900          40.700
 120105744.778 7  93415523.316 5                  22491914.220    22491917.420
  22491915.180          45.750          31.950
 123447245.517 7  96014524.127 6                  23077105.880    23077106.920
  23077105.140          44.600          40.300
 103578511.724 8  80561111.540 7                  19431051.680    19431058.100
  19431056.900          48.800          42.250
 107025345.057 8  83241921.576 7                  20000192.680    20000194.000
  20000192.920          49.100          46.700
 15  1 27 23  1 35.0000000  0 17G08G14G31G21G24G12G25G29G02R02R20R22
                                R11R09R19R10R21
 129110704.711 7 100605722.13046                  24568950.460
  24568946.080          44.850          38.200
 118824980.965 8  92590893.99446                  22611635.420
  22611630.720          48.050          40.450
 113393590.124 8  88358643.535 7                  21578078.120    21578073.060
  21578072.200          50.400          47.150
 127802020.177 7  99586048.08145                  24319891.220
  24319886.740          44.650          33.450
 130638345.116 7 101796196.326 6  97554705.312 7  24859620.400    24859619.720
  24859619.080          43.600          40.600
 121328204.890 8  94541568.586 7                  23087924.020    23087919.480
  23087918.700          48.900          43.700
 109142120.708 8  85045917.209 8  81502366.262 8  20769010.420    20769008.800
  20769008.060          49.950          49.100
 105201914.205 8  81975675.514 8                  20019190.580    20019186.520
  20019185.840          50.800          50.300
 125282441.486 7  97622673.04746                  23840446.980
  23840439.180          47.550          39.150
 130156611.091 6 101232939.450 4                  24391294.040    24391296.580
                        37.900          28.600
 104282494.266 7  81108639.833 7                  19501301.100    19501304.700
  19501302.400          44.300          46.400
 128091735.900 7  99626970.886 6                  23995880.360    23995889.420
  23995888.440          44.600          40.400
 110816772.708 7  86190847.444 6                  20737841.580    20737845.280
  20737843.460          46.950          40.900
 120122055.058 7  93428209.094 5                  22494968.600    22494971.580
  22494969.520          46.200          32.250
 123467737.795 7  96030462.569 6                  23080936.700    23080937.800
  23080935.940          44.850          40.400
 103581002.658 8  80563048.940 7                  19431518.980    19431525.420
  19431524.220          48.900          42.350
 107012826.650 8  83232185.046 7                  19997853.340    19997854.640
  19997853.560          49.100          46.850
 15  1 27 23  1 40.0000000  0 17G08G14G31G21G24G12G25G29G02R02R20R22
                                R11R09R19R10R21
 129092917.414 7 100591861.90746                  24565565.600
  24565561.300          45.600          36.200
 118836748.518 8  92600063.51446                  22613874.720
  22613870.000          48.050          39.800
 113382820.507 8  88350251.629 7                  21576028.740    21576023.660
  21576022.820          50.550          47.150
 127786334.461 7  99573825.47045                  24316906.320
  24316901.820          44.700          33.350
 130656357.386 7 101810231.846 6  97568156.035 7  24863048.040    24863047.300
  24863046.580          43.750          40.200
 121340506.069 8  94551153.908 7                  23090264.880    23090260.300
  23090259.540          48.800          43.850
 109146853.650 8  85049605.212 8  81505900.608 8  20769911.100    20769909.460
  20769908.700          50.000          49.000
 105202230.112 8  81975921.673 8                  20019250.700    20019246.640
  20019245.940          50.900          50.250
 125290526.124 7  97628972.74946                  23841985.380
  23841977.600          47.350          39.450
 130161982.406 6 101237117.093 4                  24392300.660    24392303.240
                        37.200          27.700
 104289542.830 7  81114122.056 7                  19502619.200    19502622.840
  19502620.500          44.250          46.450
 128069922.551 7  99610005.074 6                  23991793.860    23991802.900
  23991801.840          44.800          40.350
 110802351.845 7  86179631.213 6                  20735142.880    20735146.600
  20735144.760          47.150          41.150
 120138372.518 7  93440900.435 5                  22498024.320    22498027.260
  22498025.200          45.950          32.100
 123488232.848 7  96046403.164 6                  23084768.020    23084769.100
  23084767.240          44.850          40.400
 103583508.073 8  80564997.594 7                  19431989.000    19431995.440
  19431994.280          48.800          42.550
 107000324.099 8  83222460.846 7                  19995516.940    19995518.220
  19995517.180          48.950          46.800
 15  1 27 23  1 45.0000000  0 17G08G14G31G21G24G12G25G29G02R02R20R22
                                R11R09R19R10R21
 129075133.741 7 100578004.49746                  24562181.440
  24562177.280          45.700          36.900
 118848528.955 8  92609243.07346                  22616116.480
  22616111.720          48.100          39.950
 113372063.573 8  88341869.607 7                  21573981.740    21573976.680
  21573975.840          50.550          47.000
 127770652.531 7  99561605.78245                  24313922.140
  24313917.560          44.300          33.400
 130674375.208 7 101824271.708 6  97581610.867 7  24866476.760    24866475.960
  24866475.220          43.900          40.900
 121352812.946 8  94560743.675 7                  23092606.820    23092602.260
  23092601.460          48.950          43.600
 109151596.346 8  85053300.825 8  81509442.224 8  20770813.620    20770811.980
  20770811.220          50.200          48.800
 105202562.816 8  81976180.929 8                  20019314.000    20019309.940
  20019309.240          50.900          50.100
 125298625.899 7  97635284.26746                  23843526.700
  23843518.920          46.900          39.600
 130167374.401 6 101241310.838 4                  24393311.200    24393313.680
                        37.000          29.150
 104296613.736 7  81119621.653 7                  19503941.480    19503945.160
  19503942.820          44.000          46.600
 128048115.764 7  99593044.379 6                  23987708.620    23987717.620
  23987716.520          44.800          40.600
 110787941.473 7  86168423.150 6                  20732446.140    20732449.900
  20732448.040          47.050          41.100
 120154701.621 7  93453600.853 5                  22501082.220    22501085.180
  22501083.080          46.000          32.150
 123508735.102 7  96062349.372 6                  23088600.720    23088601.760
  23088599.900          44.650          40.250
 103586032.540 8  80566961.074 7                  19432462.580    19432469.020
  19432467.880          48.650          42.150
 106987841.829 8  83212752.428 7                  19993184.320    19993185.600
  19993184.580          48.800          46.600
 15  1 27 23  1 50.0000000  0 17G08G14G31G21G24G12G25G29G02R02R20R22
                                R11R09R19R10R21
 129057348.812 7 100564146.10846                  24558797.040
  24558792.860          45.200          36.350
 118860317.405 8  92618428.87946                  22618359.760
  22618354.960          48.000          39.650
 113361314.482 8  88333493.688 7                  21571936.240    21571931.180
  21571930.340          50.400          46.800
 127754969.608 7  99549385.35645                  24310937.740
  24310933.040          44.400          34.400
 130692393.726 7 101838312.087 6  97595066.236 7  24869905.640    24869904.820
  24869904.100          44.200          40.400
 121365120.804 8  94570334.202 7                  23094948.920    23094944.400
  23094943.560          48.750          43.050
 109156343.958 8  85057000.263 8  81512987.521 8  20771717.080    20771715.420
  20771714.680          50.200          48.750
 105202907.496 8  81976449.507 8                  20019379.580    20019375.540
  20019374.840          50.900          50.050
 125306736.027 7  97641603.83646                  23845070.000
  23845062.180          47.100          39.400
 130172781.881 5                                  24394324.560
                        34.700
 104303702.053 7  81125134.778 7                  19505267.040    19505270.700
  19505268.380          43.800          46.700
 128026310.586 7  99576084.923 6                  23983623.700    23983632.660
  23983631.460          43.750          39.900
 110773536.537 7  86157219.307 6                  20729750.440    20729754.200
  20729752.340          46.850          40.800
 120171037.453 7  93466306.481 5                  22504141.380    22504144.400
  22504142.220          45.950          32.500
 123529239.813 7  96078297.474 6                  23092433.820    23092434.920
  23092433.020          44.800          40.400
 103588571.063 8  80568935.465 7                  19432938.820    19432945.220
  19432944.120          48.700          42.350
 106975374.917 8  83203055.949 7                  19990854.560    19990855.860
  19990854.860          49.050          46.700
 15  1 27 23  1 55.0000000  0 17G08G14G31G21G24G12G25G29G02R02R20R22
                                R11R09R19R10R21
 129039564.742 7 100550288.40446                  24555412.820
  24555408.660          45.500          36.300
 118872115.921 8  92627622.52446                  22620604.940
  22620600.160          48.000          40.100
 113350575.312 8  88325125.512 7                  21569892.620    21569887.540
  21569886.740          50.450          46.800
 127739287.834 7  99537165.84445                  24307953.580
  24307948.960          44.650          33.450
 130710414.985 7 101852354.626 6  97608523.667 7  24873335.020    24873334.180
  24873333.440          43.600          40.400
 121377431.742 8  94579927.144 7                  23097291.580    23097287.100
  23097286.260          48.450          43.250
 109161098.596 8  85060705.178 8  81516538.066 8  20772621.880    20772620.200
  20772619.480          50.100          48.900
 105203266.210 8  81976729.031 8                  20019447.840    20019443.800
  20019443.080          50.800          50.000
 125314858.528 7  97647933.06046                  23846615.680
  23846607.880          47.050          39.600
 130178207.195 6 101249729.354 5                  24395341.140    24395343.580
  24395343.120          36.350          30.400
 104310809.861 7  81130663.076 7                  19506596.220    19506599.920
  19506597.600          43.650          46.600
 128004509.271 7  99559128.480 6                  23979539.520    23979548.480
  23979547.200          43.600          40.600
 110759139.167 7  86146021.360 6                  20727056.140    20727059.940
  20727058.080          46.900          40.900
 120187382.064 7  93479018.960 5                  22507202.200    22507205.160
  22507203.020          46.300          32.350
 123549748.962 7  96094249.026 6                  23096267.780    23096268.860
  23096266.960          44.200          39.400
 103591125.802 8  80570922.486 7                  19433418.120    19433424.540
  19433423.400          48.800          42.100
 106962925.490 8  83193373.068 7                  19988528.100    19988529.420
  19988528.400          49.000          46.650
 15  1 27 23  2  0.0000000  0 17G08G14G31G21G24G12G25G29G02R02R20R22
                                R11R09R19R10R21
 129021780.246 7 100536430.34946                  24552028.480
  24552024.440          45.900          36.350
 118883923.243 7  92636823.02546                  22622851.800
  22622847.000          47.850          39.950
 113339844.822 8  88316764.080 7                  21567850.660    21567845.620
  21567844.780          50.300          46.950
 127723605.875 7  99524946.13645                  24304969.380
  24304964.800          44.750          31.050
 130728437.694 7 101866398.265 6  97621982.162 7  24876764.620    24876763.880
  24876763.100          43.150          40.200
 121389744.448 8  94589521.444 7                  23099634.580    23099630.140
  23099629.300          48.600          43.700
 109165858.922 8  85064414.521 8  81520092.859 8  20773527.740    20773526.060
  20773525.340          50.000          49.050
 105203637.652 8  81977018.464 8                  20019518.520    20019514.480
  20019513.760          50.750          50.100
 125322992.093 7  97654270.90146                  23848163.440
  23848155.660          47.050          39.100
 130183648.974 5 101253961.809 4                  24396360.900    24396364.180
  24396362.360          35.700          29.350
 104317935.765 7  81136205.446 7                  19507928.840    19507932.500
  19507930.200          43.750          46.450
 127982710.454 7  99542173.983 6                  23975455.780    23975464.680
  23975463.440          44.250          39.900
 110744748.276 7  86134828.454 6                  20724363.060    20724366.920
  20724365.020          47.000          41.000
 120203734.247 7  93491737.319 5                  22510264.420    22510267.520
  22510265.300          46.300          32.500
 123570261.214 7  96110202.989 6                  23100102.340    23100103.380
  23100101.440          44.400          39.100
 103593695.253 8  80572920.948 7                  19433900.140    19433906.520
  19433905.400          48.700          42.200
 106950492.288 8  83183702.789 7                  19986204.640    19986205.960
  19986204.960          48.950          46.750
 15  1 27 23  2  5.0000000  0 17G08G14G31G21G24G12G25G29G02R02R20R22
                                R11R09R19R10R21
 129003997.850 7 100522573.93245                  24548644.560
  24548640.560          45.750          35.950
 118895741.862 7  92646032.34146                  22625100.800
  22625095.980          47.850          40.000
 113329125.506 8  88308411.373 7                  21565810.820    21565805.800
  21565804.940          50.100          47.250
 127707926.297 7  99512728.30445                  24301985.580
  24301981.060          44.350          32.650
 130746464.426 7 101880445.062 6  97635443.673 7  24880194.980    24880194.240
  24880193.540          43.600          39.950
 121402061.421 8  94599119.081 7                  23101978.420    23101974.000
  23101973.180          49.050          44.000
 109170627.507 8  85068130.303 8  81523653.805 8  20774435.180    20774433.500
  20774432.780          49.900          49.200
 105204024.344 8  81977319.782 8                  20019592.120    20019588.060
  20019587.340          50.800          50.250
 125331139.269 7  97660619.35146                  23849713.800
  23849706.080          47.200          39.950
 130189109.544 6 101258208.931 4                  24397384.180    24397386.240
  24397384.720          37.050          27.150
 104325082.492 7  81141764.017 7                  19509265.300    19509268.960
  19509266.680          43.750          46.300
 127960916.497 7  99525223.236 6                  23971372.960    23971381.820
  23971380.620          44.650          39.750
 110730366.213 7  86123642.413 6                  20721671.600    20721675.520
  20721673.620          46.950          40.850
 120220096.439 7  93504463.468 5                  22513328.520    22513331.620
  22513329.400          46.600          32.550
 123590779.117 7  96126161.365 6                  23103937.980    23103938.920
  23103936.960          44.650          39.100
 103596282.109 8  80574932.953 6                  19434385.400    19434391.800
  19434390.680          48.400          41.850
 106938077.839 8  83174047.107 7                  19983884.700    19983886.000
  19983885.020          49.050          46.550
 15  1 27 23  2 10.0000000  0 17G08G14G31G21G24G12G25G29G02R02R20R22
                                R11R09R19R10R21
 128986214.765 7 100508716.99546                  24545260.520
  24545256.620          45.450          36.700
 118907568.966 7  92655248.26846                  22627351.440
  22627346.620          47.750          39.450
 113318414.632 8  88300065.243 7                  21563772.580    21563767.600
  21563766.720          50.100          47.000
 127692246.291 7  99500510.16645                  24299001.700
  24298997.280          44.650          33.300
 130764492.282 7 101894492.755 6  97648906.039 7  24883625.600    24883624.860
  24883624.060          43.850          40.100
 121414379.891 8  94608717.889 7                  23104322.540    23104318.120
  23104317.380          48.900          43.650
 109175401.546 8  85071850.338 8  81527218.841 8  20775343.660    20775342.000
  20775341.280          49.900          49.200
 105204423.524 8  81977630.836 8                  20019668.080    20019664.020
  20019663.300          50.850          50.200
 125339297.262 7  97666976.24446                  23851266.200
  23851258.500          47.150          38.400
 130194586.347 5 101262468.675 5                  24398410.560    24398412.980
