     2.11           OBSERVATION DATA    M (MIXED)           RINEX VERSION / TYPE
teqc  2011Oct11     IGN-E (SPG)         20150127 06:00:51UTCPGM / RUN BY / DATE
Linux 2.4.21-27.ELsmp|Opteron|gcc -static|Linux x86_64|=+   COMMENT
BIT 2 OF LLI FLAGS DATA COLLECTED UNDER A/S CONDITION       COMMENT
VALE                                                        MARKER NAME
13439M001                                                   MARKER NUMBER
Programas GeodesicosInstituto Geografico Nacional           OBSERVER / AGENCY
1700071             LEICA GR10          3.03/6.214          REC # / TYPE / VERS
10190012            LEIAR25.R3      LEIT                    ANT # / TYPE
  4929534.0457   -29050.6755  4033709.9250                  APPROX POSITION XYZ
        3.0390        0.0000        0.0000                  ANTENNA: DELTA H/E/N
     1     1                                                WAVELENGTH FACT L1/2
     8    L1    L2    L5    C1    C2    P2    S1    S2      # / TYPES OF OBSERV
     5.0000                                                 INTERVAL
Forced Modulo Decimation to 5 seconds                       COMMENT
DefaultJobName                                              COMMENT
DefaultUserDiscription                                      COMMENT
Project creator:                                            COMMENT
 SNR is mapped to RINEX snr flag value [0-9]                COMMENT
  L1 & L2: min(max(int(snr_dBHz/6), 0), 9)                  COMMENT
  2015     1    27     5     0    0.0000000     GPS         TIME OF FIRST OBS
    15                                                      LEAP SECONDS
                                                            END OF HEADER
 15  1 27  5  0  0.0000000  0 23G11G14G21G07G04G16G18G22G27G19G30G32
                                G01R14R21R08R07R22R12R06R13R23E11
 119300471.299 8  92961395.30646                  22702120.200
  22702115.500          48.250          40.750
 130742971.837 7 101877626.23545                  24879560.740
  24879557.120          44.100          35.050
 134640946.805 6 104914997.52945                  25621321.380
  25621316.300          39.950          34.600
 129760989.656 7 101112422.641 6                  24692697.260    24692693.680
  24692693.340          44.350          38.350
 112468174.187 8  87637550.52047                  21401971.780
  21401967.520          50.550          44.950
 117719965.901 8  91729843.10547                  22401363.500
  22401358.340          49.700          43.700
 123299885.211 7  96077827.25846                  23463179.180
  23463173.360          47.550          38.950
 110879528.427 8  86399642.60647                  21099657.980
  21099650.300          50.600          47.350
 107365649.157 8  83661555.930 8  80175652.657 8  20430998.040    20430995.820
  20430995.220          50.900          50.750
 108452983.657 8  84508799.28448                  20637909.720
  20637903.140          49.350          48.950
 132113546.845 7 102945610.503 6  98656206.188 7  25140376.620    25140375.920
  25140375.040          43.350          40.300
 121406159.063 8  94602223.13446                  23102809.140
  23102805.760          48.150          39.450
 125323235.614 7  97654485.757 7  93585538.113 8  23848215.580    23848214.980
  23848214.680          46.100          42.300
 125437512.836 6  97562523.987 5                  23531760.120    23531765.980
  23531765.320          39.650          34.050
 122772751.945 7  95489965.119 6                  22943006.420    22943008.720
  22943007.620          46.250          40.100
 115113574.170 8  89532798.450 7                  21496636.660    21496638.100
  21496637.660          48.050          45.050
 107245994.701 8  83413582.273 7                  20034445.300    20034446.980
  20034445.940          49.300          47.700
 106888287.692 8  83135366.299 7                  20023769.360    20023772.000
  20023770.800          49.800          47.600
 123482464.216 6  96041941.543 6                  23116177.660    23116181.520
  23116180.900          41.200          38.700
 119025589.438 7  92575448.246 6                  22305340.040    22305342.520
  22305342.240          47.050          40.550
 118648025.135 7  92281800.974 7                  22218961.700    22218965.280
  22218962.960          44.700          43.050
 114196844.235 8  88819790.068 7                  21347891.000    21347894.120
  21347893.420          48.950          45.950
 137174610.344 8                 102435691.406 7  26103408.120
                        49.750
 15  1 27  5  0  5.0000000  0 23G11G14G21G07G04G16G18G22G27G19G30G32
                                G01R14R21R08R07R22R12R06R13R23E11
 119286650.913 8  92950626.17646                  22699490.260
  22699485.580          48.250          41.300
 130730448.289 7 101867867.62245                  24877177.600
  24877173.980          43.850          34.900
 134653750.688 6 104924974.54445                  25623757.780
  25623752.840          38.950          34.950
 129769673.110 7 101119188.959 6                  24694349.740    24694346.100
  24694345.820          44.150          38.050
 112457884.993 8  87629532.97047                  21400013.800
  21400009.540          50.600          44.850
 117735874.814 8  91742239.66247                  22404390.840
  22404385.720          49.650          43.250
 123312649.038 7  96087773.08546                  23465608.060
  23465602.280          47.400          38.900
 110883663.454 8  86402864.70747                  21100444.880
  21100437.160          50.550          47.100
 107368502.284 8  83663779.137 8  80177783.242 8  20431540.960    20431538.760
  20431538.160          50.900          50.800
 108448158.391 8  84505039.33148                  20636991.540
  20636984.920          49.300          48.600
 132116023.178 7 102947540.105 6  98658055.406 7  25140847.860    25140847.160
  25140846.260          43.700          40.000
 121387379.366 8  94587589.59646                  23099235.480
  23099232.060          48.000          39.900
 125309208.498 7  97643555.532 7  93575063.323 8  23845546.340    23845545.720
  23845545.380          46.250          42.200
 125427572.477 6  97554792.582 5                  23529895.380    23529901.180
  23529900.540          39.200          34.100
 122785909.196 7  95500198.514 6                  22945465.220    22945467.460
  22945466.380          46.450          39.550
 115093886.246 7  89517485.620 7                  21492960.080    21492961.520
  21492961.100          47.950          45.550
 107243494.797 8  83411637.903 7                  20033978.280    20033979.980
  20033978.960          49.250          47.650
 106891271.936 8  83137687.378 7                  20024328.420    20024331.040
  20024329.820          49.700          47.550
 123501843.772 6  96057014.523 6                  23119805.540    23119809.400
  23119808.780          40.750          38.600
 119041162.163 7  92587560.359 6                  22308258.380    22308260.860
  22308260.580          46.750          40.700
 118655071.200 7  92287281.238 7                  22220281.160    22220284.820
  22220282.480          44.650          43.250
 114185512.988 8  88810976.870 7                  21345772.780    21345775.860
  21345775.200          49.150          46.050
 137183687.734 8                 102442469.991 7  26105135.520
                        50.000
 15  1 27  5  0 10.0000000  0 23G11G14G21G07G04G16G18G22G27G19G30G32
                                G01R14R21R08R07R22R12R06R13R23E11
 119272837.190 8  92939862.24346                  22696861.580
  22696856.900          48.350          40.800
 130717928.798 7 101858112.15345                  24874795.240
  24874791.600          43.350          33.750
 134666555.951 6 104934952.60145                  25626194.420
  25626189.680          40.400          32.900
 129778367.758 7 101125964.018 6                  24696004.240    24696000.560
  24696000.380          43.250          37.600
 112447606.144 8  87621523.48647                  21398057.780
  21398053.560          50.600          45.000
 117751793.906 8  91754644.15247                  22407420.120
  22407415.020          49.550          43.550
 123325422.603 7  96097726.50546                  23468038.780
  23468033.040          47.550          39.550
 110887814.772 8  86406099.50447                  21101234.860
  21101227.120          50.550          47.250
 107371367.900 8  83666012.084 8  80179923.144 8  20432086.260    20432084.060
  20432083.480          50.900          50.650
 108443343.962 8  84501287.83248                  20636075.420
  20636068.760          49.400          48.800
 132118514.845 7 102949481.674 6  98659916.078 7  25141322.000    25141321.320
  25141320.400          43.250          39.850
 121368607.171 8  94572961.91946                  23095663.260
  23095659.840          48.300          39.050
 125295187.853 7  97632630.356 7  93564593.380 8  23842878.340    23842877.660
  23842877.360          46.350          42.050
 125417652.969 6  97547077.390 5                  23528034.540    23528040.360
  23528039.640          39.450          34.100
 122799073.116 7  95510437.132 6                  22947925.280    22947927.400
  22947926.340          46.250          39.750
 115074210.547 7  89502182.303 7                  21489285.760    21489287.260
  21489286.800          47.650          45.850
 107241019.959 8  83409713.036 7                  20033515.960    20033517.660
  20033516.660          49.250          47.700
 106894266.166 8  83140016.216 7                  20024889.360    20024891.940
  20024890.720          49.950          47.500
 123521229.570 6  96072092.368 6                  23123434.580    23123438.460
  23123437.860          40.350          38.900
 119056751.684 7  92599685.549 6                  22311179.840    22311182.320
  22311182.080          46.600          40.350
 118662139.075 7  92292778.462 7                  22221604.760    22221608.460
  22221606.080          44.550          43.250
 114174187.243 8  88802167.960 7                  21343655.580    21343658.640
  21343658.020          49.100          46.300
 137192769.768 8                 102449252.027 7  26106863.820
                        50.000
 15  1 27  5  0 15.0000000  0 23G11G14G21G07G04G16G18G22G27G19G30G32
                                G01R14R21R08R07R22R12R06R13R23E11
 119259029.272 8  92929102.83646                  22694234.000
  22694229.360          48.150          40.700
 130705412.578 7 101848359.25045                  24872413.440
  24872409.840          43.150          35.050
 134679361.645 6 104944931.11545                  25628631.220
  25628626.480          41.050          33.400
 129787072.824 7 101132747.161 6                  24697660.720    24697657.060
  24697656.820          42.650          37.750
 112437336.767 8  87613521.37347                  21396103.580
  21396099.380          50.350          45.200
 117767722.321 8  91767055.90147                  22410451.140
  22410446.120          49.150          43.300
 123338205.061 7  96107686.87346                  23470471.220
  23470465.540          47.200          38.950
 110891981.534 8  86409346.32947                  21102027.760
  21102020.020          50.400          47.200
 107374245.152 8  83668254.104 8  80182071.742 8  20432633.780    20432631.580
  20432631.000          50.850          50.700
 108438539.527 8  84497544.12248                  20635161.200
  20635154.500          49.350          48.900
 132121021.048 7 102951434.553 6  98661787.567 7  25141798.940    25141798.160
  25141797.340          43.550          40.150
 121349841.702 8  94558339.47446                  23092092.320
  23092088.860          48.150          40.000
 125281172.857 7  97621709.578 7  93554127.652 8  23840211.380    23840210.620
  23840210.400          45.750          42.000
 125407753.315 6  97539377.659 5                  23526177.360    23526183.160
  23526182.440          39.050          34.150
 122812242.796 7  95520680.204 6                  22950386.400    22950388.500
  22950387.380          46.350          39.450
 115054546.361 8  89486887.943 7                  21485613.600    21485615.120
  21485614.660          48.100          45.600
 107238569.290 8  83407806.964 7                  20033058.120    20033059.880
  20033058.880          49.250          47.650
 106897269.488 8  83142352.138 7                  20025451.980    20025454.560
  20025453.320          49.900          47.500
 123540620.801 6  96087174.432 6                  23127064.560    23127068.580
  23127067.880          39.700          38.950
 119072357.222 7  92611823.176 6                  22314104.320    22314106.800
  22314106.560          46.400          40.550
 118669227.688 7  92298291.824 7                  22222932.220    22222935.960
  22222933.580          44.100          43.200
 114162865.973 8  88793362.529 7                  21341539.200    21341542.280
  21341541.680          48.850          46.300
 137201855.614 8                 102456036.911 7  26108592.860
                        49.800
 15  1 27  5  0 20.0000000  0 23G11G14G21G07G04G16G18G22G27G19G30G32
                                G01R14R21R08R07R22R12R06R13R23E11
 119245223.040 8  92918344.74046                  22691606.740
  22691602.120          48.050          41.100
 130692895.561 7 101838605.73946                  24870031.520
  24870027.920          43.150          36.200
 134692163.681 6 104954906.69945                  25631067.340
  25631062.780          41.000          32.500
 129795784.094 7 101139535.158 6                  24699318.440    24699314.840
  24699314.580          43.050          38.700
 112427072.705 8  87605523.40347                  21394150.400
  21394146.180          50.300          45.000
 117783655.953 8  91779471.71347                  22413483.160
  22413478.220          49.300          43.150
 123350992.347 7  96117650.98346                  23472904.540
  23472898.940          47.200          38.350
 110896159.642 8  86412601.99447                  21102822.840
  21102815.080          50.400          47.050
 107377129.941 8  83670501.987 8  80184225.965 8  20433182.720    20433180.540
  20433179.960          50.850          50.650
 108433740.973 8  84493804.98748                  20634248.100
  20634241.360          49.400          48.600
 132123537.650 7 102953395.550 6  98663666.866 7  25142277.800    25142277.020
  25142276.340          43.050          39.650
 121331078.803 7  94543719.02946                  23088521.860
  23088518.340          47.950          39.300
 125267159.417 7  97610790.006 6  93543663.078 8  23837544.720    23837544.020
  23837543.740          45.450          41.900
 125397869.398 6  97531690.187 5                  23524323.180    23524329.140
  23524328.200          39.450          33.800
 122825414.089 7  95530924.560 6                  22952847.760    22952849.820
  22952848.740          45.600          39.600
 115034889.396 7  89471599.192 7                  21481942.820    21481944.320
  21481943.840          47.900          45.700
 107236138.640 8  83405916.458 7                  20032604.040    20032605.840
  20032604.840          49.200          47.800
 106900277.732 8  83144691.886 7                  20026015.540    20026018.120
  20026016.840          49.800          47.550
 123560013.238 6  96102257.437 6                  23130694.780    23130698.820
  23130698.160          39.450          38.850
 119087974.499 7  92623969.943 6                  22317030.980    22317033.500
  22317033.280          46.600          40.550
 118676332.903 7  92303818.102 7                  22224262.800    22224266.580
  22224264.160          43.950          43.450
 114151545.145 8  88784557.438 7                  21339422.900    21339426.000
  21339425.440          49.100          46.150
 137210941.155 8                 102462821.573 7  26110321.840
                        49.850
 15  1 27  5  0 25.0000000  0 23G11G14G21G07G04G16G18G22G27G19G30G32
                                G01R14R21R08R07R22R12R06R13R23E11
 119231421.578 8  92907590.35846                  22688980.380
  22688975.760          48.350          41.150
 130680380.862 7 101828854.01446                  24867650.060
  24867646.480          43.750          36.200
 134704965.192 6 104964881.89444                  25633503.380
  25633498.760          41.300          28.750
 129804504.720 7 101146330.416 6                  24700977.860    24700974.460
  24700974.060          43.750          37.800
 112416817.138 8  87597532.05547                  21392198.800
  21392194.640          50.500          44.700
 117799597.908 8  91791894.00947                  22416516.780
  22416511.900          49.600          43.350
 123363787.491 7  96127621.22246                  23475339.340
  23475333.760          47.250          38.600
 110900352.191 8  86415868.90747                  21103620.680
  21103612.900          50.450          47.150
 107380025.373 8  83672758.160 8  80186388.135 8  20433733.700    20433731.520
  20433730.940          50.900          50.650
 108428951.405 8  84490072.85448                  20633336.720
  20633329.940          49.600          48.700
 132126067.734 7 102955367.040 6  98665556.220 7  25142759.180    25142758.460
  25142757.780          43.250          39.650
 121312321.608 7  94529103.03146                  23084952.520
  23084948.900          47.850          39.200
 125253150.620 7  97599874.050 7  93533201.958 8  23834878.900    23834878.220
  23834878.000          45.600          42.650
 125388004.646 6  97524017.590 5                  23522472.540    23522478.520
  23522477.540          39.100          34.050
 122838590.167 7  95541172.608 6                  22955310.060    22955312.140
  22955311.020          46.250          40.050
 115015243.016 8  89456318.672 7                  21478273.980    21478275.500
  21478275.020          48.050          45.850
 107233731.245 8  83404044.036 7                  20032154.320    20032156.100
  20032155.160          49.150          47.950
 106903293.997 8  83147037.867 7                  20026580.600    20026583.200
  20026581.880          49.850          47.450
 123579410.046 6  96117343.853 6                  23134325.860    23134329.980
  23134329.300          39.750          39.250
 119103606.595 7  92636128.242 6                  22319960.420    22319962.980
  22319962.740          46.600          40.750
 118683457.793 7  92309359.677 7                  22225597.080    22225600.780
  22225598.440          44.300          43.400
 114140227.868 8  88775755.105 7                  21337307.260    21337310.360
  21337309.840          49.050          46.300
 137220029.500 8                 102469608.322 7  26112051.320
                        49.850
 15  1 27  5  0 30.0000000  0 23G11G14G21G07G04G16G18G22G27G19G30G32
                                G01R14R21R08R07R22R12R06R13R23E11
 119217624.816 8  92896839.64246                  22686354.940
  22686350.340          48.450          40.650
 130667868.363 7 101819104.02445                  24865269.060
  24865265.300          43.700          34.300
 134717766.035 6 104974856.58045                  25635939.320
  25635934.880          40.600          32.800
 129813234.517 7 101153132.830 6                  24702639.120    24702635.800
  24702635.400          45.050          38.650
 112406569.908 8  87589547.20447                  21390248.820
  21390244.680          50.500          44.850
 117815548.067 8  91804322.70347                  22419551.980
  22419547.120          49.800          43.250
 123376590.431 7  96137597.53646                  23477775.600
  23477770.140          47.100          37.500
 110904559.075 8  86419146.99947                  21104421.220
  21104413.440          50.450          47.150
 107382931.348 8  83675022.561 8  80188558.181 8  20434286.660    20434284.520
  20434283.920          51.000          50.650
 108424170.749 8  84486347.67248                  20632427.020
  20632420.220          49.600          48.600
 132128611.224 7 102957348.998 6  98667455.572 7  25143243.200    25143242.540
  25143241.820          43.400          40.700
 121293570.018 7  94514491.40046                  23081384.240
  23081380.560          47.950          39.250
 125239146.360 7  97588961.652 7  93522744.239 8  23832213.960    23832213.300
  23832213.140          45.250          42.600
 125378158.606 6  97516359.573 5                  23520625.420    23520631.520
  23520630.420          38.750          34.650
 122851770.921 7  95551424.308 6                  22957773.200    22957775.340
  22957774.220          45.800          40.600
 114995606.949 7  89441046.178 7                  21474607.060    21474608.660
  21474608.100          47.550          45.750
 107231346.799 8  83402189.469 7                  20031708.840    20031710.640
  20031709.740          48.900          47.900
 106906318.340 8  83149390.137 7                  20027147.140    20027149.780
  20027148.420          49.550          47.550
 123598811.094 6  96132433.559 6                  23137957.740    23137961.820
  23137961.200          39.600          39.200
 119119253.488 7  92648298.044 6                  22322892.600    22322895.200
  22322895.000          45.900          40.400
 118690602.340 7  92314916.548 7                  22226935.020    22226938.760
  22226936.400          44.000          43.300
 114128914.039 8  88766955.465 7                  21335192.240    21335195.420
  21335194.860          48.900          46.100
 137229120.559 8                 102476397.094 7  26113781.340
                        49.900
 15  1 27  5  0 35.0000000  0 23G11G14G21G07G04G16G18G22G27G19G30G32
                                G01R14R21R08R07R22R12R06R13R23E11
 119203833.128 8  92886092.87646                  22683730.460
  22683725.860          48.600          40.550
 130655358.588 7 101809356.16045                  24862888.540
  24862884.700          43.750          35.100
 134730566.758 6 104984831.15445                  25638375.240
  25638370.880          41.200          30.600
 129821973.903 7 101159942.750 6                  24704302.240    24704298.940
  24704298.580          44.850          39.100
 112396331.446 8  87581569.18847                  21388300.480
  21388296.380          50.600          45.000
 117831506.848 8  91816758.11447                  22422588.840
  22422584.000          50.050          43.000
 123389401.543 7  96147580.22146                  23480213.440
  23480208.000          47.000          38.700
 110908780.697 8  86422436.57847                  21105224.580
  21105216.780          50.550          46.950
 107385848.294 8  83677295.507 8  80190736.418 8  20434841.740    20434839.580
  20434839.000          51.100          50.650
 108419399.427 8  84482629.75648                  20631519.120
  20631512.280          49.800          48.400
 132131168.513 7 102959341.667 6  98669365.228 7  25143729.860    25143729.200
  25143728.440          43.250          39.800
 121274824.518 7  94499884.51546                  23077817.140
  23077813.440          47.850          39.350
 125225147.077 7  97578053.136 7  93512290.235 8  23829549.980    23829549.400
  23829549.180          45.250          42.650
 125368331.898 6  97508716.569 5                  23518782.000    23518787.960
  23518786.980          37.850          34.400
 122864956.714 7  95561679.906 6                  22960237.280    22960239.440
  22960238.380          46.100          40.650
 114975981.672 7  89425782.074 7                  21470942.160    21470943.780
  21470943.200          47.550          45.950
 107228985.843 8  83400353.170 7                  20031267.760    20031269.600
  20031268.700          49.000          47.850
 106909351.102 8  83151748.956 7                  20027715.320    20027717.900
  20027716.540          49.650          47.350
 123618216.796 6  96147526.881 6                  23141590.520    23141594.580
  23141593.980          39.600          39.100
 119134915.749 7  92660479.801 6                  22325827.680    22325830.320
  22325830.120          45.850          40.600
 118697766.871 7  92320488.957 7                  22228276.720    22228280.460
  22228278.120          44.400          43.100
 114117604.213 8  88758158.936 7                  21333078.020    21333081.140
  21333080.620          48.900          46.350
 137238214.737 8                 102483188.206 7  26115511.940
                        49.950
 15  1 27  5  0 40.0000000  0 23G11G14G21G07G04G16G18G22G27G19G30G32
                                G01R14R21R08R07R22R12R06R13R23E11
 119190044.369 8  92875348.38946                  22681106.560
  22681101.900          48.750          40.150
 130642849.265 7 101799608.64445                  24860508.120
  24860504.220          43.600          34.350
 134743364.989 6 104994803.81045                  25640810.720
  25640806.260          40.550          31.400
 129830720.713 7 101166758.448 6                  24705966.740    24705963.440
  24705963.240          45.450          39.200
 112386099.598 8  87573596.32347                  21386353.420
  21386349.320          50.500          44.900
 117847471.995 8  91829198.48747                  22425626.920
  22425622.060          50.000          42.700
 123402218.630 7  96157567.54946                  23482652.420
  23482647.040          47.150          37.700
 110913014.845 8  86425735.91847                  21106030.320
  21106022.520          50.650          46.750
 107388774.017 8  83679575.282 8  80192921.197 8  20435398.460    20435396.340
  20435395.760          51.100          50.550
 108414635.246 8  84478917.40648                  20630612.580
  20630605.680          49.700          48.700
 132133737.387 7 102961343.409 6  98671283.543 7  25144218.780    25144218.020
  25144217.340          42.550          40.350
 121256082.873 7  94485280.63846                  23074250.740
  23074246.980          47.650          39.900
 125211150.592 7  97567146.791 7  93501838.316 8  23826886.500    23826886.000
  23826885.740          45.550          42.400
 125358522.388 6  97501086.949 5                  23516941.680    23516947.800
  23516946.760          37.550          34.650
 122878145.398 7  95571937.780 6                  22962701.920    22962704.160
  22962703.120          46.000          40.800
 114956365.124 7  89410524.765 7                  21467278.880    21467280.540
  21467279.940          47.800          46.050
 107226646.192 8  83398533.445 7                  20030830.660    20030832.520
  20030831.620          49.100          47.750
 106912390.030 8  83154112.566 7                  20028284.580    20028287.160
  20028285.820          49.600          47.350
 123637624.930 6  96162622.094 6                  23145223.760    23145227.880
  23145227.220          39.300          38.650
 119150590.919 7  92672671.589 6                  22328765.160    22328767.800
  22328767.660          45.900          40.700
 118704949.397 7  92326075.369 7                  22229621.800    22229625.580
  22229623.160          44.200          42.950
 114106295.931 8  88749363.608 7                  21330964.080    21330967.200
  21330966.640          48.750          46.200
 137247309.847 8                 102489980.004 7  26117242.720
                        49.900
 15  1 27  5  0 45.0000000  0 23G11G14G21G07G04G16G18G22G27G19G30G32
                                G01R14R21R08R07R22R12R06R13R23E11
 119176262.114 8  92864608.96746                  22678483.900
  22678479.160          48.650          40.750
 130630344.054 7 101789864.31645                  24858128.480
  24858124.540          43.550          34.600
 134756164.424 6 105004777.39244                  25643246.400
  25643241.820          40.350          27.550
 129839478.518 7 101173582.679 6                  24707633.360    24707630.040
  24707629.960          44.700          38.700
 112375877.931 8  87565631.38247                  21384408.280
  21384404.200          50.350          45.000
 117863447.130 8  91841646.63347                  22428666.900
  22428662.040          49.750          43.250
 123415045.254 7  96167562.31146                  23485093.220
  23485087.840          47.150          38.600
 110917265.115 8  86429047.81147                  21106839.120
  21106831.320          50.650          46.900
 107391712.107 8  83681864.695 8  80195115.214 8  20435957.560    20435955.420
  20435954.860          51.050          50.650
 108409881.811 8  84475213.42548                  20629708.060
  20629701.140          49.700          48.650
 132136321.464 7 102963356.962 6  98673213.191 7  25144710.560    25144709.720
  25144709.180          42.600          39.650
 121237348.703 7  94470682.58146                  23070685.780
  23070682.000          47.600          40.000
 125197160.458 7  97556245.377 7  93491391.138 8  23824224.260    23824223.780
  23824223.560          45.350          42.800
 125348733.585 6  97493473.452 5                  23515105.340    23515111.620
  23515110.400          38.500          34.450
 122891340.550 7  95582200.653 6                  22965167.800    22965170.060
  22965169.100          46.100          41.150
 114936760.836 7  89395276.983 7                  21463617.900    21463619.520
  21463618.980          47.750          46.150
 107224331.475 8  83396733.112 7                  20030398.220    20030400.120
  20030399.180          49.000          47.700
 106915438.819 8  83156483.844 7                  20028855.740    20028858.340
  20028856.960          49.700          47.350
 123657039.072 6  96177721.966 6                  23148858.060    23148862.320
  23148861.560          40.050          38.600
 119166282.724 7  92684876.320 6                  22331705.780    22331708.540
  22331708.340          45.800          40.700
 118712153.262 7  92331678.354 7                  22230970.860    22230974.720
  22230972.200          43.650          43.250
 114094993.033 8  88740572.469 7                  21328851.160    21328854.240
  21328853.660          49.100          46.000
 137256409.485 8                 102496775.168 7  26118974.340
                        49.750
 15  1 27  5  0 50.0000000  0 23G11G14G21G07G04G16G18G22G27G19G30G32
                                G01R14R21R08R07R22R12R06R13R23E11
 119162484.664 8  92853873.30746                  22675862.140
  22675857.400          49.350          38.900
 130617841.332 7 101780121.94345                  24855749.260
  24855745.360          43.550          31.900
 134768963.394 6 105014750.59344                  25645681.960
  25645677.500          41.650          28.900
 129848245.728 7 101180414.275 6                  24709301.720    24709298.360
  24709298.260          45.700          37.900
 112365664.833 8  87557673.12247                  21382464.800
  21382460.720          50.800          44.300
 117879430.641 8  91854101.30947                  22431708.460
  22431703.600          50.200          42.550
 123427879.788 7  96177563.25446                  23487535.500
  23487530.140          47.950          37.550
 110921529.939 8  86432371.05047                  21107650.680
  21107642.900          50.900          46.500
 107394660.968 8  83684162.509 8  80197317.291 8  20436518.700    20436516.580
  20436516.000          51.450          50.550
 108405137.518 8  84471516.57548                  20628805.280
  20628798.340          50.150          48.550
 132138919.118 7 102965381.123 6  98675153.009 7  25145204.860    25145204.080
  25145203.520          43.800          40.150
 121218620.442 8  94456089.13546                  23067121.920
  23067118.140          48.000          39.100
 125183175.122 7  97545347.715 7  93480947.553 8  23821562.940    23821562.500
  23821562.240          46.000          43.100
 125338963.882 6  97485874.796 5                  23513272.580    23513278.880
  23513277.600          38.300          34.350
 122904540.604 7  95592467.349 6                  22967634.560    22967636.880
  22967635.940          46.000          40.550
 114917167.215 8  89380037.513 7                  21459958.960    21459960.580
  21459960.020          48.000          45.700
 107222040.055 8  83394950.901 7                  20029970.100    20029972.080
  20029971.100          48.950          47.700
 106918495.859 8  83158861.550 7                  20029428.440    20029431.000
  20029429.640          50.050          47.350
 123676457.457 6  96192825.140 6                  23152493.140    23152497.440
  23152496.700          41.150          38.500
 119181989.502 7  92697092.709 6                  22334649.200    22334651.920
  22334651.840          46.100          40.900
 118719377.043 7  92337296.838 7                  22232323.600    22232327.540
  22232324.980          44.350          43.050
 114083693.851 8  88731784.216 7                  21326738.940    21326741.980
  21326741.380          49.350          46.150
 137265512.058 8                 102503572.534 7  26120706.460
                        50.250
 15  1 27  5  0 55.0000000  0 23G11G14G21G07G04G16G18G22G27G19G30G32
                                G01R14R21R08R07R22R12R06R13R23E11
 119148709.169 8  92843139.15146                  22673240.760
  22673236.020          49.050          39.800
 130605338.296 7 101770379.31845                  24853370.020
  24853366.160          43.550          34.250
 134781759.219 6 105024721.33945                  25648116.980
  25648112.760          40.800          33.250
 129857019.491 7 101187250.957 6                  24710971.320    24710967.900
  24710967.700          45.100          37.850
 112355457.452 8  87549719.31647                  21380522.380
  21380518.340          50.650          44.400
 117895419.630 8  91866560.25547                  22434751.060
  22434746.200          50.050          42.350
 123440719.411 7  96187568.15746                  23489978.780
  23489973.420          47.700          37.750
 110925806.461 8  86435703.39947                  21108464.460
  21108456.700          50.650          46.650
 107397617.763 8  83686466.503 8  80199525.294 8  20437081.360    20437079.240
  20437078.660          51.300          50.550
 108400399.557 8  84467824.65748                  20627903.720
  20627896.740          50.000          48.350
 132141527.497 7 102967413.614 6  98677100.829 7  25145701.240    25145700.420
  25145699.920          42.850          39.600
 121199895.214 7  94441498.05446                  23063558.640
  23063554.900          47.650          40.100
 125169191.698 7  97534451.557 7  93470505.400 8  23818902.000    23818901.600
  23818901.380          45.850          43.100
 125329210.506 6  97478288.841 5                  23511442.860    23511449.160
  23511447.920          38.800          35.400
 122917742.685 7  95602735.632 6                  22970101.660    22970104.060
  22970103.080          45.800          39.750
 114897581.485 7  89364804.158 7                  21456301.480    21456303.040
  21456302.500          47.750          45.800
 107219768.931 8  83393184.473 7                  20029545.800    20029547.820
  20029546.820          49.000          47.700
 106921558.156 8  83161243.343 7                  20030002.120    20030004.640
  20030003.280          49.850          47.500
 123695877.454 6  96207929.565 6                  23156128.660    23156132.900
  23156132.140          41.400          38.850
 119197708.271 7  92709318.423 6                  22337594.900    22337597.640
  22337597.580          46.000          41.050
 118726617.676 7  92342928.448 7                  22233679.560    22233683.540
  22233680.900          44.350          43.000
 114072395.406 8  88722996.533 7                  21324626.840    21324629.860
  21324629.240          49.200          46.200
 137274614.712 8                 102510369.979 7  26122438.620
                        50.050
 15  1 27  5  1  0.0000000  0 23G11G14G21G07G04G16G18G22G27G19G30G32
                                G01R14R21R08R07R22R12R06R13R23E11
 119134941.260 8  92832410.91446                  22670620.840
  22670616.060          48.900          39.950
 130592840.398 7 101760640.67945                  24850991.800
  24850987.840          43.600          32.500
 134794557.109 6 105034693.74144                  25650552.360
  25650548.020          41.100          26.950
 129865805.166 7 101194096.944 6                  24712643.180    24712639.740
  24712639.460          45.250          37.850
 112345261.246 8  87541774.22347                  21378582.100
  21378578.080          50.700          44.550
 117911419.545 8  91879027.71547                  22437795.760
  22437790.880          49.950          42.900
 123453569.559 7  96197581.26446                  23492424.060
  23492418.680          47.400          37.950
 110930100.048 8  86439049.05347                  21109281.500
  21109273.760          50.700          46.650
 107400587.925 8  83688780.913 8  80201743.264 8  20437646.560    20437644.460
  20437643.860          51.250          50.550
 108395673.315 8  84464141.87148                  20627004.360
  20626997.380          50.100          48.250
 132144152.032 7 102969458.727 6  98679060.713 7  25146200.660    25146199.900
  25146199.340          43.200          39.450
 121181178.496 7  94426913.59546                  23059996.960
  23059993.180          47.300          40.600
 125155215.645 7  97523561.134 7  93460068.725 8  23816242.420    23816242.040
  23816241.840          46.150          43.100
 125319478.961 6  97470719.862 6                  23509617.180    23509623.640
  23509622.420          38.600          36.000
 122930952.272 7  95613009.755 6                  22972570.160    22972572.640
  22972571.560          45.600          40.000
 114878009.158 8  89349581.256 7                  21452646.480    21452648.040
  21452647.460          48.250          45.400
 107217523.899 8  83391438.332 7                  20029126.360    20029128.400
  20029127.420          49.050          47.600
 106924631.324 8  83163633.571 7                  20030577.860    20030580.300
  20030579.000          50.150          47.350
 123715304.370 6  96223039.389 6                  23159765.400    23159769.620
  23159768.900          41.250          39.100
 119213444.717 7  92721557.874 6                  22340543.940    22340546.640
  22340546.640          46.050          41.000
 118733880.753 7  92348577.508 7                  22235039.700    22235043.660
  22235041.000          44.250          42.850
 114061103.191 8  88714213.692 7                  21322515.900    21322518.920
  21322518.280          49.300          46.050
 137283722.871 8                 102517171.520 7  26124171.800
                        50.150
 15  1 27  5  1  5.0000000  0 23G11G14G21G07G04G16G18G22G27G19G30G32
                                G01R14R21R08R07R22R12R06R13R23E11
 119121176.102 8  92821684.82946                  22668001.400
  22667996.620          48.900          39.850
 130580342.857 7 101750902.33845                  24848613.620
  24848609.580          43.450          32.600
 134807352.474 6 105044664.17245                  25652987.220
  25652982.640          40.350          35.700
 129874598.060 7 101200948.547 6                  24714316.400    24714312.960
  24714312.600          45.100          37.050
 112335071.422 8  87533834.11347                  21376643.040
  21376639.040          50.700          44.500
 117927425.628 8  91891499.99847                  22440841.660
  22440836.740          49.900          42.650
 123466425.475 7  96207598.86146                  23494870.480
  23494865.080          47.650          38.600
 110934406.000 8  86442404.34747                  21110100.880
  21110093.160          50.750          46.550
 107403566.700 8  83691102.042 8  80203967.675 8  20438213.400    20438211.280
  20438210.700          51.000          50.450
 108390954.069 8  84460464.53948                  20626106.340
  20626099.340          50.100          48.100
 132146787.984 7 102971512.708 6  98681029.115 7  25146702.300    25146701.520
  25146701.020          42.400          38.650
 121162465.580 7  94412332.11246                  23056436.000
  23056432.260          47.250          40.750
 125141242.204 7  97512672.740 7  93449634.020 8  23813583.340    23813583.020
  23813582.820          46.450          42.550
 125309764.336 6  97463164.046 6                  23507794.760    23507801.200
  23507800.160          38.100          36.200
 122944164.558 7  95623285.969 6                  22975039.220    22975041.580
  22975040.540          46.050          39.350
 114858445.340 8  89334364.960 7                  21448993.060    21448994.620
  21448994.020          48.000          45.000
 107215299.767 8  83389708.454 7                  20028710.840    20028712.900
  20028711.940          49.000          47.600
 106927710.589 8  83166028.567 7                  20031154.740    20031157.140
  20031155.840          49.850          47.400
 123734733.413 6  96238150.866 6                  23163402.560    23163406.840
  23163406.100          40.750          39.400
 119229193.747 7  92733807.122 6                  22343495.320    22343498.060
  22343498.040          46.150          40.800
 118741161.257 7  92354240.134 7                  22236403.120    22236407.020
  22236404.380          44.000          43.000
 114049812.623 8  88705432.150 7                  21320405.240    21320408.260
  21320407.620          49.300          46.050
 137292831.778 8                 102523973.628 7  26125905.140
                        50.150
 15  1 27  5  1 10.0000000  0 23G11G14G21G07G04G16G18G22G27G19G30G32
                                G01R14R21R08R07R22R12R06R13R23E11
 119107415.868 8  92810962.56946                  22665382.920
  22665378.100          49.000          39.250
 130567847.815 7 101741165.97445                  24846235.920
  24846231.800          43.800          34.150
 134820147.290 6 105054634.12345                  25655421.980
  25655417.220          41.650          33.350
 129883400.268 7 101207807.446 6                  24715991.440    24715987.920
  24715987.580          45.200          37.350
 112324890.238 8  87525900.72247                  21374705.600
  21374701.620          50.600          44.650
 117943439.955 8  91903978.69847                  22443889.160
  22443884.160          49.800          43.450
 123479289.314 7  96217622.63146                  23497318.380
  23497313.000          47.800          37.350
 110938726.441 8  86445770.93047                  21110923.040
  21110915.340          50.800          46.800
 107406556.206 8  83693431.531 8  80206200.106 8  20438782.280    20438780.180
  20438779.580          50.900          50.500
 108386243.958 8  84456794.32848                  20625210.060
  20625203.040          50.050          48.350
 132149437.497 6 102973577.267 6  98683007.645 7  25147206.460    25147205.720
  25147205.340          41.450          39.600
 121143758.557 7  94397755.22246                  23052876.160
  23052872.460          47.100          39.950
 125127273.536 7  97501788.052 7  93439202.858 8  23810925.180    23810924.840
  23810924.680          46.150          43.050
 125300068.906 6  97455623.163 6                  23505975.960    23505982.360
  23505981.500          38.650          36.100
 122957381.676 7  95633565.963 6                  22977509.140    22977511.500
  22977510.360          45.450          39.250
 114838892.267 7  89319157.006 7                  21445341.660    21445343.160
  21445342.560          47.700          45.150
 107213099.049 8  83387996.789 7                  20028299.700    20028301.800
  20028300.840          48.950          47.700
 106930798.045 8  83168429.917 7                  20031733.140    20031735.520
  20031734.240          49.750          47.400
 123754166.654 6  96253265.613 6                  23167040.540    23167044.860
  23167044.080          40.700          39.600
 119244957.524 7  92746067.829 6                  22346449.440    22346452.220
  22346452.220          46.300          40.950
 118748461.719 7  92359918.267 7                  22237770.280    22237774.180
  22237771.540          44.150          42.950
 114038525.685 8  88696653.410 7                  21318295.280    21318298.300
  21318297.620          49.350          45.950
 137301943.600 8                 102530777.907 7  26127639.040
                        50.050
 15  1 27  5  1 15.0000000  0 23G11G14G21G07G04G16G18G22G27G19G30G32
                                G01R14R21R08R07R22R12R06R13R23E11
 119093660.939 8  92800244.45246                  22662765.440
  22662760.600          48.750          40.350
 130555355.718 7 101731431.86445                  24843858.740
  24843854.480          43.350          34.150
 134832942.016 6 105064604.04445                  25657856.760
  25657851.860          41.300          30.300
 129892212.095 7 101214673.798 6                  24717668.300    24717664.720
  24717664.460          45.100          37.200
 112314717.950 8  87517974.26647                  21372769.880
  21372765.900          50.400          44.650
 117959462.842 8  91916464.06547                  22446938.260
  22446933.240          49.600          43.400
 123492161.378 7  96227652.81646                  23499767.900
  23499762.420          47.600          37.250
 110943061.690 8  86449149.04047                  21111748.000
  21111740.320          50.700          46.650
 107409556.849 8  83695769.699 8  80208440.837 8  20439353.300    20439351.180
  20439350.580          50.750          50.450
 108381543.347 8  84453131.51848                  20624315.580
  20624308.540          49.900          48.450
 132152100.814 6 102975652.549 6  98684996.500 7  25147713.160    25147712.500
  25147712.140          41.850          38.350
 121125057.820 7  94383183.21946                  23049317.520
  23049313.820          46.850          41.150
 125113309.961 7  97490907.342 7  93428775.498 8  23808268.000    23808267.680
  23808267.540          46.100          43.150
 125290392.962 6  97448097.443 5                  23504160.780    23504167.140
  23504166.420          38.800          35.600
 122970604.034 7  95643850.000 6                  22979980.040    22979982.300
  22979981.160          45.750          39.250
 114819350.287 7  89303957.698 7                  21441692.340    21441693.800
  21441693.200          47.550          45.400
 107210921.867 8  83386303.431 7                  20027892.960    20027895.080
  20027894.120          48.900          47.850
 106933894.060 8  83170837.927 7                  20032313.160    20032315.520
  20032314.240          49.800          47.400
 123773604.502 6  96268383.938 6                  23170679.380    23170683.700
  23170682.900          40.350          39.750
 119260736.520 7  92758340.394 6                  22349406.440    22349409.240
  22349409.280          46.150          41.000
 118755782.160 7  92365611.929 7                  22239141.160    22239145.060
  22239142.440          44.350          43.200
 114027242.877 8  88687877.892 7                  21316186.080    21316189.100
  21316188.380          49.050          46.200
 137311058.674 8                 102537584.603 7  26129373.620
                        49.950
 15  1 27  5  1 20.0000000  0 23G11G14G21G07G04G16G18G22G27G19G30G32
                                G01R14R21R08R07R22R12R06R13R23E11
 119079909.291 8  92789528.88746                  22660148.600
  22660143.700          48.700          40.700
 130542864.638 7 101721698.54545                  24841481.760
  24841477.620          43.200          35.100
 134845734.746 6 105074572.39944                  25660291.100
  25660286.060          41.300          26.650
 129901031.676 7 101221546.177 6                  24719346.600    24719342.980
  24719342.640          44.600          37.350
 112304552.709 8  87510053.29947                  21370835.500
  21370831.520          50.400          45.050
 117975492.474 8  91928954.68747                  22449988.660
  22449983.600          49.650          43.650
 123505039.770 7  96237687.92646                  23502218.620
  23502213.100          47.650          38.050
 110947409.830 8  86452537.19947                  21112575.420
  21112567.760          50.600          47.200
 107412566.723 8  83698115.048 8  80210688.464 8  20439926.080    20439923.940
  20439923.340          50.850          50.650
 108376850.343 8  84449474.63248                  20623422.560
  20623415.500          49.900          48.800
 132154776.150 7 102977737.220 6  98686994.335 7  25148222.200    25148221.560
  25148221.100          42.000          39.050
 121106361.494 7  94368614.65346                  23045759.760
  23045756.040          47.100          40.100
 125099349.600 7  97480029.138 7  93418350.562 8  23805611.400    23805611.120
  23805610.940          45.800          43.100
 125280734.744 6  97440585.490 5                  23502348.940    23502355.360
  23502354.580          38.700          34.950
 122983829.685 7  95654136.617 6                  22982451.560    22982453.660
  22982452.680          45.400          39.850
 114799817.610 7  89288765.614 7                  21438044.760    21438046.180
  21438045.560          47.700          45.000
 107208766.450 8  83384627.000 7                  20027490.280    20027492.420
  20027491.480          48.850          47.750
 106936996.809 8  83173251.174 7                  20032894.420    20032896.760
  20032895.500          49.650          47.600
 123793045.048 6  96283504.346 6                  23174318.660    23174323.000
  23174322.260          40.300          39.250
 119276528.723 7  92770623.210 6                  22352365.940    22352368.660
  22352368.780          45.850          40.900
 118763120.710 7  92371319.677 7                  22240515.440    22240519.380
  22240516.700          44.300          43.000
 114015962.213 8  88679104.037 7                  21314077.260    21314080.320
  21314079.540          48.950          46.000
 137320175.126 8                 102544392.348 7  26131108.440
                        49.950
 15  1 27  5  1 25.0000000  0 23G11G14G21G07G04G16G18G22G27G19G30G32
                                G01R14R21R08R07R22R12R06R13R23E11
 119066163.450 8  92778817.84446                  22657532.840
  22657527.920          48.450          39.850
 130530377.031 7 101711967.95745                  24839105.440
  24839101.300          43.450          34.750
 134858527.972 6 105084541.13644                  25662725.540
  25662720.380          40.650          27.750
 129909861.379 7 101228426.460 6                  24721026.800    24721023.220
  24721022.880          45.050          38.500
 112294396.914 8  87502139.69547                  21368902.900
  21368898.960          50.350          44.850
 117991531.215 8  91941452.40747                  22453040.760
  22453035.640          49.450          43.600
 123517926.901 7  96247729.84546                  23504670.960
  23504665.420          47.500          39.050
 110951773.280 8  86455937.29047                  21113405.740
  21113398.100          50.400          47.250
 107415588.201 8  83700469.439 8  80212944.762 8  20440501.060    20440498.900
  20440498.300          50.750          50.600
 108372167.354 8  84445825.55348                  20622531.440
  20622524.360          49.850          48.900
 132157465.833 6 102979833.076 6  98689002.898 7  25148734.000    25148733.340
  25148732.900          41.300          38.700
 121087671.955 7  94354051.37246                  23042203.260
  23042199.540          47.350          41.050
 125085394.850 7  97469155.308 7  93407929.812 8  23802955.880    23802955.620
  23802955.400          45.900          43.050
 125271096.594 6  97433089.150 5                  23500540.860    23500547.300
  23500546.500          37.850          34.300
 122997061.024 7  95664427.642 6                  22984924.180    22984926.200
  22984925.280          46.100          39.000
 114780296.613 7  89273582.610 7                  21434399.340    21434400.740
  21434400.100          47.950          45.050
 107206635.215 8  83382969.369 7                  20027092.140    20027094.320
  20027093.360          48.600          47.700
 106940108.503 8  83175671.380 7                  20033477.360    20033479.700
  20033478.460          49.400          47.400
 123812490.680 6  96298628.735 6                  23177958.860    23177963.140
  23177962.500          40.350          39.000
 119292336.753 7  92782918.336 6                  22355328.400    22355331.060
  22355331.240          46.050          40.400
 118770479.799 7  92377043.411 7                  22241893.600    22241897.520
  22241894.800          44.200          42.550
 114004685.912 8  88670333.593 7                  21311969.260    21311972.320
  21311971.520          48.850          45.900
 137329295.321 8                 102551202.874 7  26132843.980
                        50.000
 15  1 27  5  1 30.0000000  0 23G11G14G21G07G04G16G18G22G27G19G30G32
                                G01R14R21R08R07R22R12R06R13R23E11
 119052421.856 8  92768110.12746                  22654917.900
  22654913.000          48.650          40.100
 130517891.293 7 101702238.78745                  24836729.500
  24836725.280          42.950          35.500
 134871319.929 6 105094508.89345                  25665159.700
  25665154.400          39.800          31.300
 129918699.602 7 101235313.390 6                  24722708.700    24722705.140
  24722704.800          45.350          39.000
 112284248.918 8  87494232.17147                  21366971.800
  21366967.860          50.500          44.700
 118007577.484 8  91953956.00047                  22456094.240
  22456089.160          49.450          43.350
 123530821.166 7  96257777.33446                  23507124.680
  23507119.120          47.400          38.100
 110956150.486 8  86459348.10647                  21114238.680
  21114231.080          50.300          47.250
 107418619.723 8  83702831.666 8  80215208.563 8  20441077.960    20441075.760
  20441075.180          50.900          50.550
 108367492.801 8  84442183.05148                  20621641.920
  20621634.840          49.900          48.750
 132160168.313 7 102981938.926 6  98691021.000 7  25149248.280    25149247.580
  25149247.120          42.750          40.000
 121068987.706 7  94339492.22746                  23038647.780
  23038644.080          47.550          40.050
 125071444.174 7  97458284.648 7  93397512.112 8  23800301.160    23800300.880
  23800300.680          45.650          42.850
 125261476.879 6  97425607.146 5                  23498736.220    23498742.660
  23498741.840          37.550          34.800
 123010296.510 7  95674721.924 6                  22987397.520    22987399.620
  22987398.640          45.900          39.250
 114760785.657 7  89258407.426 7                  21430755.820    21430757.140
  21430756.520          47.850          45.050
 107204526.456 8  83381329.225 7                  20026698.200    20026700.400
  20026699.440          48.700          47.700
 106943227.728 8  83178097.442 7                  20034061.700    20034064.020
  20034062.800          49.700          47.550
 123831939.749 6  96313755.805 6                  23181599.800    23181604.060
  23181603.420          40.200          39.050
 119308158.767 7  92795224.355 6                  22358293.440    22358296.100
  22358296.300          45.750          40.600
 118777857.981 7  92382782.008 7                  22243275.280    22243279.180
  22243276.440          44.150          42.900
 113993412.700 8  88661565.548 7                  21309861.880    21309864.940
  21309864.100          49.000          46.000
 137338417.713 8                 102558015.054 7  26134579.940
                        50.050
 15  1 27  5  1 35.0000000  0 23G11G14G21G07G04G16G18G22G27G19G30G32
                                G01R14R21R08R07R22R12R06R13R23E11
 119038683.491 8  92757404.91146                  22652303.560
  22652298.680          48.450          40.150
 130505406.416 7 101692510.31446                  24834353.640
  24834349.480          42.600          36.250
 134884109.900 6 105104475.12044                  25667593.480
  25667588.160          39.000          29.000
 129927545.411 7 101242206.220 6                  24724392.040    24724388.500
  24724388.160          44.950          39.950
 112274107.774 8  87486329.98847                  21365042.000
  21365038.040          50.450          44.850
 118023630.333 8  91966464.70347                  22459149.000
  22459143.900          49.400          42.900
 123543721.574 7  96267829.59646                  23509579.560
  23509573.960          47.100          38.050
 110960540.503 8  86462768.90347                  21115074.060
  21115066.480          50.200          47.300
 107421660.365 8  83705200.996 8  80217479.171 8  20441656.600    20441654.380
  20441653.780          50.900          50.600
 108362825.793 8  84438546.41648                  20620753.860
  20620746.720          49.750          49.050
 132162882.636 7 102984053.962 6  98693047.913 7  25149764.760    25149764.140
  25149763.660          42.700          38.800
 121050307.794 7  94324936.45146                  23035093.160
  23035089.360          47.550          41.050
 125057496.592 7  97447416.415 7  93387096.713 8  23797647.040    23797646.680
  23797646.520          45.350          42.800
 125251874.678 6  97418138.773 5                  23496934.880    23496941.340
  23496940.480          37.750          33.900
 123023535.138 7  95685018.622 6                  22989871.540    22989873.660
  22989872.560          46.100          38.850
 114741283.865 7  89243239.370 7                  21427114.000    21427115.280
  21427114.640          47.800          45.150
 107202439.400 8  83379705.966 7                  20026308.300    20026310.540
  20026309.540          48.750          47.650
 106946353.522 8  83180528.619 7                  20034647.280    20034649.620
  20034648.400          49.400          47.600
 123851391.265 6  96328884.770 6                  23185241.160    23185245.440
  23185244.780          39.950          39.050
 119323993.731 7  92807540.445 6                  22361260.880    22361263.560
  22361263.800          45.900          40.850
 118785253.945 7  92388534.429 7                  22244660.320    22244664.160
  22244661.440          43.900          42.650
 113982141.495 8  88652799.058 7                  21307754.820    21307757.880
  21307757.040          48.750          46.050
 137347541.346 8                 102564828.154 7  26136316.140
                        49.800
 15  1 27  5  1 40.0000000  0 23G11G14G21G07G04G16G18G22G27G19G30G32
                                G01R14R21R08R07R22R12R06R13R23E11
 119024951.967 8  92746705.02346                  22649690.560
  22649685.640          48.600          40.050
 130492926.072 7 101682785.38145                  24831978.720
  24831974.500          43.650          33.850
 134896901.282 6 105114442.39045                  25670027.500
  25670022.500          39.700          31.000
 129936402.353 7 101249107.706 6                  24726077.460    24726073.940
  24726073.620          45.100          39.800
 112263977.138 8  87478435.98947                  21363114.200
  21363110.240          50.550          44.600
 118039693.310 8  91978981.30347                  22462205.660
  22462200.600          49.600          43.300
 123556631.717 7  96277889.44146                  23512036.260
  23512030.700          46.850          39.400
 110964946.887 8  86466202.44547                  21115912.560
  21115905.000          50.200          47.550
 107424713.670 8  83707580.192 8  80219759.232 8  20442237.640    20442235.400
  20442234.800          51.050          50.600
