     2.11           OBSERVATION DATA    M (MIXED)           RINEX VERSION / TYPE
teqc  2011Oct11     IGN-E (SPG)         20150127 19:00:43UTCPGM / RUN BY / DATE
Linux 2.4.21-27.ELsmp|Opteron|gcc -static|Linux x86_64|=+   COMMENT
BIT 2 OF LLI FLAGS DATA COLLECTED UNDER A/S CONDITION       COMMENT
VALE                                                        MARKER NAME
13439M001                                                   MARKER NUMBER
Programas GeodesicosInstituto Geografico Nacional           OBSERVER / AGENCY
1700071             LEICA GR10          3.03/6.214          REC # / TYPE / VERS
10190012            LEIAR25.R3      LEIT                    ANT # / TYPE
  4929534.0457   -29050.6755  4033709.9250                  APPROX POSITION XYZ
        3.0390        0.0000        0.0000                  ANTENNA: DELTA H/E/N
     1     1                                                WAVELENGTH FACT L1/2
     8    L1    L2    L5    C1    C2    P2    S1    S2      # / TYPES OF OBSERV
     5.0000                                                 INTERVAL
Forced Modulo Decimation to 5 seconds                       COMMENT
DefaultJobName                                              COMMENT
DefaultUserDiscription                                      COMMENT
Project creator:                                            COMMENT
 SNR is mapped to RINEX snr flag value [0-9]                COMMENT
  L1 & L2: min(max(int(snr_dBHz/6), 0), 9)                  COMMENT
  2015     1    27    18     0    0.0000000     GPS         TIME OF FIRST OBS
    15                                                      LEAP SECONDS
                                                            END OF HEADER
 15  1 27 18  0  0.0000000  0 19G22G18G13G17G15G28G24G12G05R18R05R16
                                R17R24R06R09R15E19E20
 135064307.344 6 105244890.44345                  25701883.260
  25701881.320          36.900          30.250
 122757926.827 7  95655542.13346                  23360044.280
  23360040.580          46.200          38.150
 110017390.561 8  85727904.76347                  20935587.040
  20935582.900          49.450          46.050
 123085506.652 8  95910847.114 7                  23422364.280    23422361.200
  23422360.720          48.100          43.950
 107068630.979 8  83430133.631 8                  20374463.000    20374459.320
  20374458.580          49.650          49.750
 124929439.980 7  97347750.05646                  23773213.180
  23773208.540          45.600          40.350
 113395670.015 8  88360346.260 8  84678681.983 8  21578447.460    21578447.120
  21578446.480          48.000          48.750
 121063753.817 7  94335493.428 7                  23037607.400    23037605.560
  23037604.760          47.750          43.100
 130312739.325 7 101542395.380 6                  24797686.860    24797687.360
  24797686.700          45.450          41.100
 127641869.440 6  99277076.355 6                  23911612.040    23911618.460
  23911617.060          41.400          36.200
 114204818.093 7  88826015.570 7                  21364358.820    21364362.360
  21364361.800          46.350          45.400
 105305842.854 7  81904603.188 7                  19713458.840    19713461.740
  19713460.700          46.050          46.350
 122763082.537 7  95482411.938 6                  22941214.000    22941215.840
  22941214.960          44.400          41.000
 128598656.920 6 100021190.359 5                  24048597.920    24048600.560
  24048598.420          38.950          32.800
 104388444.838 7  81191071.724 7                  19562334.620    19562336.720
  19562336.920          47.900          46.000
 117813969.814 7  91633024.769 5                  22062743.620    22062748.400
  22062746.040          44.300          32.900
 116446990.595 7  90570035.508 7                  21791408.920    21791414.500
  21791412.320          43.050          42.900
 137895763.317 7                 102974141.701 7  26240681.880
                        46.450


 15  1 27 18  0  5.0000000  0 20G22G18G13G17G15G28G24G12G05R18R05R16
                                R17R24R06R09R07R15E19E20
 135050570.558 6 105234186.29045                  25699269.200
  25699266.460          39.600          30.700
 122750261.877 7  95649569.44946                  23358585.740
  23358582.000          47.300          38.150
 110026251.709 8  85734809.55247                  20937273.260
  20937269.140          50.150          45.150
 123079910.186 8  95906486.232 7                  23421299.320    23421296.180
  23421295.760          48.900          44.050
 107066166.701 8  83428213.420 8                  20373994.060    20373990.360
  20373989.640          50.200          49.700
 124944312.761 7  97359339.22546                  23776043.380
  23776038.740          46.650          37.800
 113386939.885 8  88353543.570 8  84672162.744 8  21576786.160    21576785.820
  21576785.180          48.800          48.600
 121045847.304 8  94321540.320 7                  23034199.860    23034198.060
  23034197.260          48.250          43.050
 130330664.534 7 101556363.023 6                  24801097.940    24801098.440
  24801097.820          45.750          40.800
 127623732.284 7  99262969.701 6                  23908214.360    23908220.660
  23908219.280          43.000          36.750
 114224450.651 7  88841285.334 7                  21368031.500    21368035.040
  21368034.500          47.650          44.750
 105305729.476 7  81904515.008 7                  19713437.620    19713440.520
  19713439.460          47.750          46.600
 122754243.699 7  95475537.305 6                  22939562.240    22939564.140
  22939563.240          45.850          41.550
 128605506.281 6 100026517.650 5                  24049878.760    24049881.280
  24049879.260          41.050          31.650
 104388959.471 8  81191472.000 7                  19562431.040    19562433.180
  19562433.380          49.450          46.250
 117801186.305 7  91623082.069 5                  22060349.660    22060354.400
  22060352.080          46.000          33.750
 119078566.35217  92616676.10117                  22244876.980    22244880.180
  22244879.000          46.800          43.250
 116461557.887 7  90581365.625 7                  21794134.940    21794140.560
  21794138.380          44.700          43.100
 137885210.531 7                 102966261.403 7  26238673.740
                        47.150


 15  1 27 18  0 10.0000000  0 20G22G18G13G17G15G28G24G12G05R18R05R16
                                R17R24R06R09R07R15E19E20
 135036841.807 6 105223488.53345                  25696656.720
  25696653.780          39.900          30.550
 122742610.159 7  95643607.06746                  23357129.680
  23357125.900          46.700          39.250
 110035124.466 8  85741723.38047                  20938961.700
  20938957.580          49.900          46.000
 123074326.590 8  95902135.384 7                  23420236.800    23420233.640
  23420233.240          48.500          43.950
 107063715.245 8  83426303.191 8                  20373527.560    20373523.860
  20373523.160          49.900          49.750
 124959190.265 7  97370932.08646                  23778874.480
  23778869.820          46.350          38.600
 113378215.822 8  88346745.601 8  84665648.028 8  21575126.020    21575125.660
  21575125.060          48.300          48.650
 121027947.668 7  94307592.572 7                  23030793.680    23030791.840
  23030791.020          47.650          43.050
 130348588.780 7 101570329.900 6                  24804508.880    24804509.360
  24804508.800          45.750          41.150
 127605597.519 7  99248864.905 6                  23904817.140    23904823.320
  23904822.040          43.250          37.750
 114244094.227 7  88856563.651 7                  21371706.240    21371709.820
  21371709.240          47.600          44.650
 105305626.678 7  81904435.058 7                  19713418.380    19713421.280
  19713420.220          47.900          46.700
 122745421.892 7  95468675.910 6                  22937913.660    22937915.520
  22937914.720          45.800          40.900
 128612375.050 6 100031860.001 5                  24051163.320    24051165.740
  24051163.740          41.800          32.500
 104389497.353 8  81191890.351 7                  19562531.840    19562533.980
  19562534.200          49.350          46.300
 117788410.828 7  91613145.599 5                  22057957.180    22057961.980
  22057959.640          46.150          33.950
                                                  22241626.080    22241629.080
  22241628.140          46.700          43.400
 116476127.025 7  90592697.173 7                  21796861.320    21796866.940
  21796864.780          44.850          43.000
 137874665.622 7                 102958386.961 7  26236667.100
                        46.650


 15  1 27 18  0 15.0000000  0 20G22G18G13G17G15G28G24G12G05R18R05R16
                                R17R24R06R09R07R15E19E20
 135023121.458 6 105212797.36743                  25694045.920
  25694042.940          40.800          21.750
 122734971.981 7  95637655.24846                  23355676.220
  23355672.360          47.050          38.050
 110044009.189 8  85748646.53647                  20940652.400
  20940648.300          50.100          45.950
 123068756.250 8  95897794.863 7                  23419176.820    23419173.600
  23419173.300          48.800          43.950
 107061276.925 8  83424403.203 8                  20373063.560    20373059.860
  20373059.180          50.200          49.700
 124974072.870 7  97382528.92546                  23781706.560
  23781701.920          47.000          38.250
 113369498.333 8  88339952.762 8  84659138.214 8  21573467.140    21573466.760
  21573466.160          48.450          48.600
 121010055.268 8  94293650.450 7                  23027388.860    23027386.960
  23027386.140          48.100          43.050
 130366512.413 7 101584296.314 6                  24807919.680    24807920.180
  24807919.620          46.000          40.800
 127587465.429 6  99234762.205 6                  23901420.320    23901426.500
  23901425.320          41.550          38.100
 114263749.070 7  88871850.733 7                  21375383.100    21375386.680
  21375386.080          46.350          44.600
 105305534.861 7  81904363.650 7                  19713401.180    19713404.120
  19713403.060          45.700          46.850
 122736617.437 7  95461827.988 6                  22936268.380    22936270.220
  22936269.360          44.400          40.650
 128619263.573 6 100037217.751 5                  24052451.500    24052453.920
  24052451.880          39.450          31.900
 104390058.897 7  81192327.111 7                  19562637.060    19562639.180
  19562639.460          47.800          46.450
 117775643.643 7  91603215.583 5                  22055566.260    22055571.160
  22055568.720          44.000          33.600
                                                  22238377.640    22238380.340
  22238379.440          44.500          43.050
 116490698.311 7  90604030.385 7                  21799588.160    21799593.740
  21799591.580          42.800          42.700
 137864128.934 7                 102950518.673 7  26234662.040
                        47.050


 15  1 27 18  0 20.0000000  0 20G22G18G13G17G15G28G24G12G05R18R05R16
                                R17R24R06R09R07R15E19E20
 135009407.939 6 105202111.41145                  25691436.420
  25691433.020          39.900          30.400
 122727345.773 7  95631712.76746                  23354225.020
  23354221.100          46.200          39.450
 110052904.253 8  85755577.76047                  20942345.080
  20942340.980          49.250          46.400
 123063197.521 7  95893463.394 7                  23418119.040    23418115.840
  23418115.520          47.750          43.900
 107058850.155 8  83422512.217 8                  20372601.760    20372598.060
  20372597.380          49.600          49.750
 124988958.972 7  97394128.48746                  23784539.320
  23784534.640          46.200          38.500
 113360785.770 7  88333163.759 8  84652632.098 8  21571809.200    21571808.780
  21571808.180          47.550          48.550
 120992168.478 7  94279712.708 7                  23023985.140    23023983.240
  23023982.380          47.450          42.800
 130384433.766 7 101598260.939 6                  24811330.060    24811330.580
  24811329.900          45.300          40.900
 127569334.503 7  99220660.403 6                  23898023.780    23898029.820
  23898028.800          42.600          38.100
 114283413.488 7  88887145.286 7                  21379061.740    21379065.320
  21379064.720          47.250          44.750
 105305452.372 7  81904299.505 7                  19713385.760    19713388.660
  19713387.620          46.550          46.900
 122727828.885 7  95454992.447 6                  22934626.060    22934627.800
  22934626.940          45.650          41.100
 128626170.141 6 100042589.530 5                  24053743.080    24053745.240
  24053743.380          39.800          31.200
 104390642.495 8  81192781.025 7                  19562746.440    19562748.580
  19562748.820          48.400          46.300
 117762883.240 7  91593290.829 5                  22053176.620    22053181.660
  22053179.040          44.600          33.800
                                                  22235131.400    22235134.080
  22235132.720          45.350          42.800
 116505270.168 7  90615364.064 7                  21802315.100    21802320.620
  21802318.440          43.700          42.850
 137853598.862 7                 102942655.318 7  26232658.240
                        46.150


 15  1 27 18  0 25.0000000  0 20G22G18G13G17G15G28G24G12G05R18R05R16
                                R17R24R06R09R07R15E19E20
 134995701.264 6 105191430.93144                  25688828.200
  25688824.480          41.400          27.850
 122719731.574 8  95625779.62946                  23352776.060
  23352772.120          48.800          38.900
 110061809.673 8  85762517.04547                  20944039.720
  20944035.620          50.900          45.750
 123057650.431 8  95889140.995 7                  23417063.480    23417060.260
  23417059.920          49.950          43.600
 107056434.969 8  83420630.259 8                  20372142.180    20372138.460
  20372137.800          51.250          49.700
 125003848.553 8  97405730.76746                  23787372.720
  23787368.060          48.750          37.250
 113352078.042 8  88326378.525 8  84646129.584 8  21570152.180    21570151.740
  21570151.140          49.850          48.600
 120974287.379 8  94265779.394 7                  23020582.480    23020580.540
  23020579.700          49.600          42.500
 130402352.898 7 101612223.850 6                  24814740.000    24814740.480
  24814739.840          47.600          40.950
 127551204.724 7  99206559.507 6                  23894627.480    23894633.480
  23894632.480          44.400          37.650
 114303087.453 7  88902447.265 7                  21382742.180    21382745.780
  21382745.160          47.700          44.750
 105305379.187 7  81904242.579 7                  19713372.080    19713374.980
  19713373.940          47.400          46.800
 122719056.063 7  95448169.149 6                  22932986.660    22932988.340
  22932987.480          45.750          41.200
 128633094.831 6 100047975.409 5                  24055037.980    24055040.160
  24055038.260          40.750          31.600
 104391248.048 8  81193252.005 7                  19562859.940    19562862.060
  19562862.260          49.100          46.100
 117750129.590 7  91583371.344 5                  22050788.240    22050793.140
  22050790.660          45.850          34.200
 119009031.50017  92562590.72417                  22231887.140    22231889.520
  22231888.240          46.300          42.600
 116519842.699 7  90626698.264 7                  21805042.200    21805047.660
  21805045.440          45.050          43.100
 137843075.446 8                 102934796.931 7  26230655.700
                        48.350


 15  1 27 18  0 30.0000000  0 20G22G18G13G17G15G28G24G12G05R18R05R16
                                R17R24R06R09R07R15E19E20
 134982004.434 5 105180758.08345                  25686221.800
  25686217.980          33.350          30.350
 122712132.440 7  95619858.22246                  23351330.000
  23351326.080          46.450          38.400
 110070728.553 8  85769466.81247                  20945736.940
  20945732.820          49.550          46.300
 123052118.032 8  95884830.033 7                  23416010.720    23416007.440
  23416007.080          48.050          43.450
 107054034.398 8  83418759.684 8                  20371685.340    20371681.680
  20371681.000          49.750          49.750
 125018744.668 7  97417338.12446                  23790207.320
  23790202.720          46.650          38.350
 113343378.318 8  88319599.521 8  84639633.036 8  21568496.680    21568496.220
  21568495.600          48.000          48.650
 120956415.009 7  94251852.870 7                  23017181.520    23017179.520
  23017178.680          47.400          42.600
 130420272.884 7 101626187.394 6                  24818150.100    24818150.620
  24818149.980          45.600          41.400
 127533079.218 7  99192461.906 6                  23891231.980    23891237.780
  23891236.920          44.800          37.300
 114322774.218 8  88917759.169 7                  21386425.040    21386428.580
  21386427.960          48.350          44.800
 105305318.418 8  81904195.306 7                  19713360.740    19713363.620
  19713362.560          48.550          46.750
 122710302.205 7  95441360.594 6                  22931350.780    22931352.440
  22931351.620          45.650          40.600
 128640040.748 7 100053377.801 5                  24056336.900    24056339.160
  24056337.160          42.250          32.350
 104391878.682 8  81193742.490 7                  19562978.100    19562980.260
  19562980.420          49.900          46.000
 117737385.802 7  91573459.526 5                  22048401.700    22048406.560
  22048404.200          46.900          33.800
                  92549093.564 7                  22228645.560    22228647.960
  22228646.620          47.550          42.450
 116534419.003 7  90638035.384 7                  21807769.960    21807775.400
  21807773.180          45.500          43.150
 137832561.728 7                 102926945.787 7  26228654.960
                        46.250


 15  1 27 18  0 35.0000000  0 18G18G13G17G15G28G24G12G05R18R05R16R17
                                R24R06R09R15E19E20
 122704546.203 7  95613946.87446                  23349886.380
  23349882.440          45.950          39.050
 110079658.724 8  85776425.38547                  20947436.300
  20947432.160          49.550          46.050
 123046598.196 7  95880528.865 7                  23414960.360    23414957.000
  23414956.620          47.850          43.350
 107051646.350 8  83416898.875 8                  20371230.920    20371227.240
  20371226.580          49.450          49.800
 125033645.198 7  97428948.92446                  23793042.820
  23793038.180          45.900          38.600
 113334684.458 7  88312825.086 8  84633140.888 8  21566842.320    21566841.860
  21566841.180          47.700          48.700
 120938549.191 7  94237931.472 7                  23013781.800    23013779.740
  23013778.920          47.200          42.800
 130438191.551 7 101640149.937 6                  24821559.980    24821560.500
  24821559.900          44.400          41.000
 127514955.840 7  99178365.999 6                  23887836.820    23887842.500
  23887841.800          43.350          36.450
 114342471.428 7  88933079.194 7                  21390109.900    21390113.300
  21390112.740          47.500          44.550
 105305267.914 7  81904156.029 7                  19713351.300    19713354.180
  19713353.120          47.700          46.900
 122701565.116 7  95434565.092 6                  22929717.980    22929719.700
  22929718.840          44.050          40.750
 128647005.547 6 100058794.877 5                  24057639.360    24057641.640
  24057639.660          41.200          32.250
 104392532.182 8  81194250.773 7                  19563100.580    19563102.740
  19563102.880          49.100          46.150
 117724649.664 7  91563553.647 5                  22046016.600    22046021.580
  22046019.100          45.200          34.250
 116548996.648 7  90649373.551 7                  21810497.960    21810503.400
  21810501.160          44.200          43.400
 137822055.599 7                 102919100.321 7  26226655.680
                        46.100


 15  1 27 18  0 40.0000000  0 19G18G13G17G15G28G24G12G05R18R05R16R17
                                R24R06R09R07R15E19E20
 122696972.916 7  95608045.61846                  23348445.240
  23348441.300          47.600          38.000
 110088600.188 8  85783392.75347                  20949137.840
  20949133.680          50.650          45.000
 123041090.958 8  95876237.509 7                  23413912.420    23413909.000
  23413908.540          49.250          43.050
 107049270.837 8  83415047.828 8                  20370778.860    20370775.180
  20370774.540          50.400          49.700
 125048550.118 7  97440563.14846                  23795879.140
  23795874.520          47.300          36.850
 113325996.505 8  88306055.255 8  84626653.137 8  21565189.040    21565188.560
  21565187.920          49.000          48.600
 120920690.008 8  94224015.232 7                  23010383.340    23010381.200
  23010380.380          48.450          42.600
 130456108.902 7 101654111.437 6                  24824969.580    24824970.080
  24824969.500          45.300          40.900
 127496834.637 7  99164271.759 6                  23884442.100    23884447.720
  23884446.960          44.950          36.700
 114362179.217 8  88948407.464 7                  21393796.680    21393800.100
  21393799.480          48.750          44.350
 105305227.687 8  81904124.754 7                  19713343.800    19713346.660
  19713345.620          48.750          46.900
 122692844.925 7  95427782.728 6                  22928088.300    22928090.080
  22928089.220          45.300          40.650
 128653989.418 7 100064226.762 5                  24058945.380    24058947.720
  24058945.700          42.600          32.400
 104393208.749 8  81194776.995 7                  19563227.380    19563229.540
  19563229.680          49.800          46.300
 117711921.226 7  91553653.770 5                  22043632.920    22043637.920
  22043635.520          46.550          34.500
                                                  22222169.200    22222171.820
  22222170.440          47.500          42.850
 116563575.712 7  90660712.818 7                  21813226.240    21813231.720
  21813229.440          45.350          43.750
 137811557.070 7                 102911260.514 7  26224657.800
                        47.650


 15  1 27 18  0 45.0000000  0 18G18G13G17G15G28G24G12G05R18R05R16R17
                                R24R06R09R15E19E20
 122689412.000 7  95602153.99946                  23347006.480
  23347002.540          46.550          40.250
 110097552.385 8  85790368.48547                  20950841.420
  20950837.200          49.750          45.550
 123035595.778 8  95871955.551 7                  23412866.760    23412863.240
  23412862.740          48.250          43.100
 107046907.301 8  83413206.108 8                  20370329.080    20370325.420
  20370324.780          49.350          49.750
 125063458.863 7  97452180.34846                  23798716.140
  23798711.600          46.050          39.850
 113317313.762 8  88299289.479 8  84620169.249 8  21563536.780    21563536.280
  21563535.640          48.000          48.750
 120902836.921 7  94210103.742 7                  23006986.000    23006983.860
  23006983.040          47.000          42.750
 130474024.353 7 101668071.447 6                  24828378.820    24828379.340
  24828378.760          44.100          40.750
 127478715.061 7  99150178.758 6                  23881047.720    23881053.260
  23881052.480          43.550          37.700
 114381896.935 7  88963743.471 7                  21397485.340    21397488.700
  21397488.100          47.400          44.550
 105305197.055 7  81904100.937 7                  19713338.100    19713340.940
  19713339.900          47.050          46.900
 122684140.971 7  95421012.985 6                  22926461.700    22926463.540
  22926462.640          44.400          40.700
 128660991.878 6 100069673.129 5                  24060254.900    24060257.200
  24060255.200          40.400          31.900
 104393907.753 8  81195320.664 7                  19563358.400    19563360.500
  19563360.660          48.600          46.100
 117699199.947 7  91543759.462 5                  22041250.620    22041255.580
  22041253.240          44.750          34.200
 116578155.703 7  90672052.803 7                  21815954.620    21815960.180
  21815957.940          43.650          43.900
 137801065.613 7                 102903425.986 7  26222661.300
                        46.550


 15  1 27 18  0 50.0000000  0 20G22G18G13G17G15G28G24G12G05R18R05R16
                                R17R24R06R09R07R15E19E20
 134927293.31716 105138135.02755                  25675810.320
  25675806.560          37.100          34.100
 122681864.237 7  95596272.62646                  23345570.220
  23345566.220          47.200          39.100
 110106516.096 8  85797353.19147                  20952547.200
  20952542.940          50.150          45.550
 123030113.425 8  95867683.594 7                  23411823.560    23411819.940
  23411819.400          48.800          43.450
 107044556.511 8  83411374.329 8                  20369881.740    20369878.080
  20369877.440          50.000          49.800
 125078372.176 7  97463801.11346                  23801554.060
  23801549.520          46.550          38.350
 113308636.997 8  88292528.374 8  84613689.862 8  21561885.640    21561885.140
  21561884.500          48.800          48.900
 120884990.679 7  94196197.593 7                  23003589.960    23003587.820
  23003587.000          47.750          43.150
 130491938.675 7 101682030.593 6                  24831787.840    24831788.420
  24831787.840          44.550          40.400
 127460597.867 7  99136087.638 6                  23877653.800    23877659.240
  23877658.500          44.550          37.600
 114401625.264 8  88979087.731 7                  21401175.940    21401179.300
  21401178.700          48.600          44.700
 105305176.980 8  81904085.328 7                  19713334.380    19713337.180
  19713336.160          48.500          46.800
 122675454.086 7  95414256.518 6                  22924838.280    22924840.220
  22924839.280          45.850          41.150
 128668013.400 6 100075134.340 5                  24061567.920    24061570.240
  24061568.300          41.550          32.300
 104394629.769 8  81195882.234 7                  19563493.740    19563495.800
  19563495.940          49.750          46.150
 117686486.557 7  91533871.284 5                  22038869.760    22038874.800
  22038872.480          46.400          34.000
                                                  22215701.880    22215704.540
  22215703.440          47.150          43.200
 116592737.508 7  90683394.196 7                  21818683.320    21818688.960
  21818686.800          45.300          44.100
 137790581.985 7                 102895597.319 7  26220666.260
                        47.200


 15  1 27 18  0 55.0000000  0 20G22G18G13G17G15G28G24G12G05R18R05R16
                                R17R24R06R09R07R15E19E20
 134913633.525 6 105127491.06044                  25673211.800
  25673209.440          38.300          24.500
 122674327.707 7  95590400.01146                  23344136.100
  23344132.080          47.600          39.050
 110115489.340 8  85804345.32747                  20954254.800
  20954250.480          50.450          46.150
 123024641.927 8  95863420.091 7                  23410782.440    23410778.720
  23410778.160          49.000          43.500
 107042216.522 8  83409550.964 8                  20369436.420    20369432.800
  20369432.160          50.200          49.800
 125093288.090 7  97475423.89746                  23804392.460
  23804387.980          47.100          38.650
 113299964.415 8  88285770.524 8  84607213.591 8  21560235.300    21560234.820
  21560234.180          48.750          49.050
 120867149.313 8  94182295.249 7                  23000194.820    23000192.740
  23000191.880          48.000          43.200
 130509849.930 7 101695987.355 6                  24835196.300    24835196.860
  24835196.240          44.400          40.250
 127442481.143 7  99121996.904 6                  23874259.880    23874265.360
  23874264.620          44.300          37.750
 114421362.401 8  88994438.823 7                  21404868.200    21404871.560
  21404870.960          48.400          44.800
 105305165.273 8  81904076.229 7                  19713332.200    19713334.940
  19713333.960          48.050          46.750
 122666782.335 7  95407511.847 6                  22923217.720    22923219.700
  22923218.780          46.350          40.850
 128675052.323 6 100080609.055 5                  24062884.160    24062886.580
  24062884.660          41.100          32.200
 104395372.943 8  81196460.261 7                  19563633.000    19563635.060
  19563635.160          49.950          46.000
 117673779.209 7  91523987.800 5                  22036490.060    22036495.020
  22036492.780          46.550          34.200
                                                  22212471.420    22212474.100
  22212473.140          46.950          43.300
 116607319.011 7  90694735.349 7                  21821411.980    21821417.740
  21821415.580          45.650          43.950
 137780104.230 7                 102887773.023 7  26218672.340
                        47.350


 15  1 27 18  1  0.0000000  0 19G22G18G13G17G15G28G24G12G05R18R05R16
                                R17R24R06R09R15E19E20
 134899983.462 6 105116854.60944                  25670614.260
  25670610.620          40.050          29.950
 122666806.031 7  95584538.97646                  23342704.800
  23342700.740          47.800          38.500
 110124475.758 8  85811347.72447                  20955964.920
  20955960.540          50.850          45.700
 123019184.967 8  95859167.918 7                  23409744.060    23409740.220
  23409739.700          49.300          43.450
 107039890.959 8  83407738.830 8                  20368993.880    20368990.280
  20368989.600          50.450          49.700
 125108210.273 7  97487051.56846                  23807232.040
  23807227.620          47.150          37.600
 113291299.519 8  88279018.658 8  84600743.067 8  21558586.380    21558585.960
  21558585.360          48.850          49.100
 120849316.477 8  94168399.542 7                  22996801.320    22996799.240
  22996798.380          48.600          43.300
 130527761.718 7 101709944.532 6                  24838604.800    24838605.440
  24838604.800          43.650          39.950
 127424368.582 7  99107909.405 6                  23870866.820    23870872.240
  23870871.580          43.900          37.700
 114441111.874 7  89009799.495 7                  21408562.760    21408566.120
  21408565.520          47.150          44.900
 105305165.786 7  81904076.630 7                  19713332.340    19713334.960
  19713334.060          46.700          46.750
 122658129.417 7  95400781.792 6                  22921600.740    22921602.780
  22921601.760          45.000          41.000
 128682112.026 6 100086099.924 5                  24064204.280    24064206.760
  24064204.960          40.450          31.850
 104396141.019 8  81197057.640 7                  19563776.960    19563778.960
  19563779.060          48.950          45.850
 117661081.409 7  91514111.750 5                  22034112.180    22034117.060
  22034114.840          45.300          33.700
 116621903.843 7  90706079.105 7                  21824141.300    21824147.120
  21824145.000          44.000          43.600
 137769636.013 7                 102879955.874 7  26216680.260
                        47.550


 15  1 27 18  1  5.0000000  0 20G22G18G13G17G15G28G24G12G05R18R05R16
                                R17R24R06R09R07R15E19E20
 134886341.805 6 105106224.75044                  25668018.440
  25668016.280          38.950          25.900
 122659297.920 7  95578688.50646                  23341276.060
  23341271.980          46.650          39.900
 110133474.029 8  85818359.36647                  20957677.280
  20957672.880          49.950          45.850
 123013741.244 8  95854926.062 7                  23408708.220    23408704.280
  23408703.780          48.000          43.450
 107037578.499 8  83405936.911 8                  20368553.800    20368550.220
  20368549.560          49.550          49.700
 125123137.330 7  97498683.03946                  23810072.560
  23810068.180          46.050          39.100
 113282641.073 7  88272271.832 8  84594277.354 8  21556938.700    21556938.300
  21556937.760          47.650          49.050
 120831490.868 7  94154509.474 7                  22993409.160    22993407.080
  22993406.280          47.550          43.200
 130545672.668 6 101723901.039 6                  24842013.160    24842013.740
  24842013.220          41.950          40.100
 127406258.829 7  99093824.075 6                  23867474.260    23867479.700
  23867479.000          44.200          37.400
 114460872.405 7  89025168.774 7                  21412259.360    21412262.720
  21412262.120          47.450          44.350
 105305177.111 7  81904085.440 7                  19713334.460    19713337.040
  19713336.180          47.200          46.800
 122649493.955 7  95394065.315 6                  22919987.040    22919989.040
  22919988.000          45.250          41.400
 128689191.394 6 100091606.097 5                  24065528.180    24065530.460
  24065528.900          39.750          31.950
 104396932.696 8  81197673.389 7                  19563925.360    19563927.260
  19563927.400          48.750          46.000
 117648391.868 7  91504242.125 5                  22031735.840    22031740.580
  22031738.480          45.500          33.900
                                                  22206018.220    22206021.020
  22206020.180          45.750          43.100
 116636490.741 7  90717424.457 7                  21826871.000    21826876.820
  21826874.740          44.700          42.850
 137759175.988 7                 102872144.826 7  26214689.700
                        46.100


 15  1 27 18  1 10.0000000  0 20G22G18G13G17G15G28G24G12G05R18R05R16
                                R17R24R06R09R07R15E19E20
 134872706.076 6 105095599.47245                  25665423.600
  25665420.020          38.550          33.050
 122651800.768 7  95572846.57246                  23339849.360
  23339845.280          46.350          39.700
 110142481.604 8  85825378.26047                  20959391.440
  20959386.940          49.600          46.350
 123008308.197 7  95850692.538 7                  23407674.380    23407670.400
  23407669.880          47.700          43.400
 107035276.594 8  83404143.223 8                  20368115.760    20368112.180
  20368111.520          49.350          49.700
 125138066.717 7  97510316.33246                  23812913.540
  23812909.120          45.950          38.750
 113273986.565 7  88265528.072 8  84587814.582 8  21555291.780    21555291.440
  21555290.900          47.300          49.000
 120813669.960 7  94140623.077 7                  22990017.920    22990015.840
  22990015.080          47.350          43.200
 130563580.208 6 101737854.886 6                  24845420.880    24845421.460
  24845420.940          41.600          39.250
 127388149.343 7  99079738.962 6                  23864081.760    23864087.160
  23864086.520          45.650          37.050
 114480641.161 8  89040544.485 7                  21415957.540    21415960.880
  21415960.260          48.600          44.000
 105305196.627 8  81904100.627 7                  19713338.120    19713340.700
  19713339.860          48.650          46.700
 122640873.401 7  95387360.455 6                  22918376.060    22918378.180
  22918377.120          46.950          41.150
 128696287.718 6 100097125.474 5                  24066855.180    24066857.480
  24066856.080          41.350          32.550
 104397745.419 8  81198305.507 7                  19564077.700    19564079.560
  19564079.700          49.650          45.950
 117635708.048 7  91494376.953 5                  22029360.560    22029365.460
  22029363.160          46.400          33.900
                                                  22202794.700    22202797.460
  22202796.760          47.400          43.050
 116651077.058 7  90728769.382 7                  21829600.640    21829606.440
  21829604.360          46.050          42.350
 137748721.639 7                 102864338.005 7  26212700.280
                        45.850


 15  1 27 18  1 15.0000000  0 20G22G18G13G17G15G28G24G12G05R18R05R16
                                R17R24R06R09R07R15E19E20
 134859078.850 6 105084980.86043                  25662830.440
  25662827.980          40.500          21.550
 122644317.253 8  95567015.26646                  23338425.280
  23338421.200          48.100          37.750
 110151501.102 8  85832406.44047                  20961107.860
  20961103.300          50.850          45.450
 123002888.440 8  95846469.365 7                  23406643.060    23406639.040
  23406638.480          49.350          43.050
 107032987.876 8  83402359.809 8                  20367680.200    20367676.640
  20367675.980          50.700          49.850
 125153001.073 7  97521953.49746                  23815755.460
  23815751.020          47.650          36.700
 113265338.585 8  88258789.402 8  84581356.694 8  21553646.100    21553645.780
  21553645.280          49.100          49.000
 120795856.375 8  94126742.382 7                  22986628.080    22986626.020
  22986625.260          49.050          43.300
 130581486.983 7 101751808.156 6                  24848828.400    24848829.100
  24848828.460          43.900          39.400
 127370042.814 7  99065656.129 6                  23860689.780    23860695.120
  23860694.460          44.400          36.550
 114500420.992 7  89055928.807 7                  21419657.780    21419661.160
  21419660.500          46.950          44.000
 105305226.974 7  81904124.233 7                  19713343.780    19713346.380
  19713345.560          47.200          46.750
 122632270.435 7  95380669.264 6                  22916768.360    22916770.580
  22916769.540          45.300          41.050
 128703403.582 6 100102660.039 5                  24068185.820    24068188.180
  24068186.780          40.050          31.600
 104398581.699 8  81198955.958 7                  19564234.440    19564236.280
  19564236.420          48.900          46.050
 117623032.537 7  91484518.234 5                  22026986.860    22026991.600
  22026989.440          45.200          33.350
                                                  22199573.700    22199576.520
  22199575.820          46.050          43.000
 116665665.324 7  90740115.821 6                  21832330.640    21832336.380
  21832334.280          44.650          41.900
 137738275.572 7                 102856537.382 7  26210712.400
                        47.600


 15  1 27 18  1 20.0000000  0 20G22G18G13G17G15G28G24G12G05R18R05R16
                                R17R24R06R09R07R15E19E20
 134845459.994 6 105074368.64644                  25660239.140
  25660235.700          37.650          27.950
 122636847.268 7  95561194.50446                  23337003.820
  23336999.680          47.900          37.800
 110160532.390 8  85839443.80847                  20962826.520
  20962821.920          50.650          46.100
 122997481.849 8  95842256.426 7                  23405614.240    23405610.200
  23405609.560          48.900          42.950
 107030712.220 8  83400586.570 8                  20367247.160    20367243.620
  20367242.940          50.550          49.800
 125167940.267 7  97533594.41246                  23818598.300
  23818593.820          47.700          36.550
 113256696.899 8  88252055.624 8  84574903.488 8  21552001.640    21552001.320
  21552000.820          48.850          48.950
 120778049.977 8  94112867.280 7                  22983239.620    22983237.580
  22983236.820          48.850          43.100
 130599392.799 7 101765760.666 6                  24852235.820    24852236.480
  24852235.920          44.550          39.450
 127351939.117 7  99051575.482 6                  23857298.360    23857303.540
  23857302.920          44.850          36.700
 114520211.752 7  89071321.614 7                  21423360.000    21423363.420
  21423362.780          46.800          44.100
 105305268.018 7  81904156.149 7                  19713351.480    19713354.060
  19713353.240          47.950          46.550
 122623684.963 7  95373991.680 6                  22915163.920    22915166.200
  22915165.160          44.950          41.050
 128710539.026 6 100108209.849 5                  24069520.140    24069522.500
  24069521.080          40.750          31.850
 104399441.405 8  81199624.612 7                  19564395.580    19564397.360
  19564397.540          49.250          45.900
 117610365.241 7  91474665.900 5                  22024614.720    22024619.400
  22024617.280          46.050          33.250
                                                  22196355.060    22196357.840
  22196357.200          46.200          42.750
 116680255.703 7  90751463.896 6                  21835061.040    21835066.740
  21835064.600          45.400          41.950
 137727837.658 7                 102848742.846 7  26208726.100
                        47.150


 15  1 27 18  1 25.0000000  0 20G22G18G13G17G15G28G24G12G05R18R05R16
                                R17R24R06R09R07R15E19E20
 134831849.618 5 105063763.18545                  25657648.700
  25657643.620          34.850          32.450
 122629390.940 8  95555384.37746                  23335584.920
  23335580.780          48.450          37.100
 110169575.642 8  85846490.49747                  20964547.440
  20964542.800          50.950          45.100
 122992088.627 8  95838053.918 7                  23404587.940    23404583.840
  23404583.160          49.400          42.600
 107028449.827 8  83398823.665 8                  20366816.620    20366813.100
  20366812.440          50.900          49.850
 125182884.403 8  97545239.19646                  23821442.100
  23821437.600          48.500          36.600
 113248061.786 8  88245326.972 8  84568455.202 8  21550358.420    21550358.120
  21550357.640          49.350          49.000
 120760250.972 8  94098997.938 7                  22979852.580    22979850.540
  22979849.800          49.150          43.150
 130617297.906 7 101779712.635 6                  24855643.060    24855643.740
  24855643.240          45.450          39.550
 127333838.430 7  99037497.181 6                  23853907.500    23853912.580
  23853912.000          45.000          37.350
 114540013.503 7  89086722.961 7                  21427064.320    21427067.760
  21427067.100          47.050          44.150
 105305319.935 8  81904196.529 7                  19713361.160    19713363.780
  19713362.940          48.100          46.450
 122615116.996 7  95367327.716 6                  22913562.780    22913565.080
  22913564.060          45.700          41.450
 128717694.002 6 100113774.816 5                  24070858.160    24070860.640
  24070859.060          40.950          32.500
 104400324.814 8  81200311.706 7                  19564561.140    19564562.920
  19564563.080          49.550          45.800
 117597706.361 7  91464820.127 5                  22022244.120    22022248.740
  22022246.620          46.750          33.200
 118801609.00917  92401262.580 7                  22193138.880    22193141.660
  22193140.940          46.550          42.600
 116694848.193 7  90762813.620 6                  21837791.840    21837797.480
  21837795.340          45.600          41.950
 137717408.102 7                 102840954.567 7  26206741.400
                        47.600


 15  1 27 18  1 30.0000000  0 20G22G18G13G17G15G28G24G12G05R18R05R16
                                R17R24R06R09R07R15E19E20
 134818245.839 5                                  25655059.320
                        33.600
 122621946.202 7  95549583.30346                  23334168.240
  23334164.080          47.700          39.100
 110178628.828 8  85853544.94047                  20966270.240
  20966265.600          50.350          45.550
 122986706.719 8  95833860.230 7                  23403563.800    23403559.620
  23403558.960          48.550          42.900
 107026198.625 8  83397069.498 8                  20366388.220    20366384.720
  20366384.040          50.100          49.850
 125197831.479 7  97556886.28246                  23824286.460
  23824281.900          47.750          38.300
 113239431.128 8  88238601.799 8  84562010.239 8  21548716.080    21548715.780
  21548715.280          48.700          49.000
 120742457.325 8  94085132.779 7                  22976466.540    22976464.540
  22976463.800          48.150          43.300
 130635200.204 7 101793662.398 6                  24859049.760    24859050.480
  24859050.060          45.300          38.900
 127315738.753 7  99023419.704 6                  23850516.780    23850521.880
  23850521.280          43.250          37.850
 114559824.242 7  89102131.310 7                  21430770.280    21430773.740
  21430773.120          46.550          44.100
 105305380.669 7  81904243.777 7                  19713372.520    19713375.160
  19713374.260          47.450          46.500
 122606564.729 7  95360675.954 6                  22911964.540    22911966.920
  22911965.920          44.500          41.300
 128724866.664 6 100119353.561 5                  24072199.460    24072201.920
  24072200.400          40.300          31.800
 104401229.704 8  81201015.513 7                  19564730.720    19564732.480
  19564732.640          48.900          45.900
 117585053.751 7  91454979.224 5                  22019874.720    22019879.300
  22019877.180          45.900          32.600
                                                  22189924.800    22189927.480
  22189926.760          46.000          42.350
 116709440.720 7  90774163.374 7                  21840522.600    21840528.280
  21840526.100          45.250          42.550
 137706984.857 7                 102833170.975 7  26204757.880
                        46.650


 15  1 27 18  1 35.0000000  0 20G22G18G13G17G15G28G24G12G05R18R05R16
                                R17R24R06R09R07R15E19E20
 134804651.241 5                                  25652472.180
                        34.700
 122614515.821 8  95543793.39846                  23332754.300
  23332750.140          49.250          37.300
 110187694.544 8  85860609.13047                  20967995.440
  20967990.740          51.350          45.400
 122981338.793 8  95829677.430 7                  23402542.300    23402538.100
  23402537.380          49.750          43.100
 107023961.296 8  83395326.127 8                  20365962.460    20365958.980
  20365958.300          51.100          49.800
 125212784.115 8  97568537.67245                  23827131.880
  23827127.280          49.150          35.950
 113230807.568 8  88231882.143 8  84555570.573 8  21547075.060    21547074.760
  21547074.280          50.100          48.950
 120724671.720 8  94071273.879 7                  22973082.020    22973080.100
  22973079.320          49.400          43.150
 130653102.275 7 101807612.017 6                  24862456.440    24862457.200
  24862456.720          46.950          38.650
 127297642.785 7  99009345.112 6                  23847126.780    23847131.900
  23847131.300          44.300          37.650
 114579646.555 7  89117548.644 7                  21434478.400    21434481.920
  21434481.280          47.700          44.250
 105305452.938 8  81904299.989 7                  19713386.040    19713388.680
  19713387.760          48.100          46.650
 122598030.731 7  95354038.413 6                  22910369.720    22910372.100
  22910371.160          45.050          40.950
 128732059.497 6 100124947.987 5                  24073544.520    24073547.020
  24073545.480          41.000          32.000
 104402159.037 8  81201738.319 7                  19564904.880    19564906.680
  19564906.800          49.250          46.000
 117572410.223 7  91445145.380 5                  22017507.040    22017511.500
  22017509.380          46.250          33.000
 118767212.679 7  92374509.902 7                  22186713.260    22186715.980
  22186715.180          46.650          42.600
 116724036.018 7  90785515.274 7                  21843253.920    21843259.680
  21843257.400          45.050          42.800
 137696570.562 8                 102825394.080 7  26202776.100
                        48.200


 15  1 27 18  1 40.0000000  0 19G22G18G13G17G15G28G24G12G05R18R05R16
                                R17R24R06R09R15E19E20
 134791064.373 5 105032008.59755                  25649886.460
  25649889.280          33.550          31.700
 122607098.210 8  95538013.44946                  23331342.780
  23331338.560          48.300          38.350
 110196771.299 8  85867681.92247                  20969722.720
  20969718.000          50.650          45.600
 122975983.315 8  95825504.334 7                  23401523.200    23401518.960
  23401518.220          48.900          43.300
 107021736.304 8  83393592.370 8                  20365539.020    20365535.560
  20365534.900          50.300          49.850
 125227740.758 8  97580192.20746                  23829978.060
  23829973.420          48.100          36.650
 113222189.622 8  88225166.873 8  84549135.104 8  21545435.140    21545434.800
  21545434.320          49.300          49.050
 120706892.656 8  94057420.074 7                  22969698.720    22969696.860
  22969696.100          48.350          43.150
 130671002.666 7 101821560.312 6                  24865862.740    24865863.580
  24865863.200          45.400          38.750
 127279548.996 7  98995272.190 6                  23843737.180    23843742.300
  23843741.640          45.250          37.300
 114599478.925 7  89132973.810 7                  21438188.400    21438191.940
  21438191.360          47.900          44.250
 105305535.050 8  81904363.868 7                  19713401.400    19713404.000
  19713403.100          48.350          46.550
 122589513.520 7  95347413.909 6                  22908778.060    22908780.400
  22908779.520          46.350          41.550
 128739271.011 6 100130556.932 5                  24074893.060    24074895.700
  24074894.020          40.350          32.050
 104403110.992 8  81202478.729 7                  19565083.260    19565085.060
  19565085.200          49.650          45.900
 117559774.110 7  91435317.305 5                  22015140.700    22015145.240
  22015142.980          46.600          33.600
 116738632.488 7  90796868.070 7                  21845985.460    21845991.220
  21845988.980          45.850          43.300
 137686163.742 7                 102817622.765 7  26200795.740
                        47.000


 15  1 27 18  1 45.0000000  0 20G22G18G13G17G15G28G24G12G05R18R05R16
                                R17R24R06R09R07R15E19E20
 134777484.665 5 105021427.01945                  25647302.380
  25647303.640          35.650          34.300
 122599692.809 7  95532243.00646                  23329933.580
  23329929.320          47.400          38.950
 110205858.527 8  85874762.87947                  20971451.980
  20971447.260          49.950          46.300
 122970639.737 8  95821340.506 7                  23400506.360    23400502.160
  23400501.360          48.000          43.050
 107019523.096 8  83391867.799 8                  20365117.860    20365114.400
  20365113.740          49.600          49.750
 125242700.869 7  97591849.44146                  23832824.900
  23832820.220          47.350          38.350
 113213576.709 8  88218455.524 8  84542703.398 8  21543796.180    21543795.820
  21543795.340          48.750          48.950
 120689119.511 7  94043570.885 7                  22966316.580    22966314.720
  22966313.980          47.350          43.300
 130688900.775 7 101835506.819 6                  24869268.660    24869269.520
  24869269.240          45.000          38.600
 127261456.818 7  98981200.509 6                  23840347.860    23840352.960
  23840352.320          45.700          37.100
 114619320.722 8  89148406.298 7                  21441900.200    21441903.780
  21441903.180          48.200          44.250
 105305626.524 8  81904435.012 7                  19713418.500    19713421.120
  19713420.200          48.050          46.450
 122581012.509 7  95340802.010 6                  22907189.420    22907191.800
  22907190.920          45.600          41.000
 128746500.642 6 100136179.970 5                  24076245.020    24076247.500
  24076245.960          41.250          31.800
 104404085.063 8  81203236.339 7                  19565265.760    19565267.600
  19565267.740          49.600          45.950
 117547144.918 7  91425494.620 5                  22012775.620    22012780.200
  22012777.880          46.400          33.250
                                                  22180297.040    22180299.780
  22180299.000          46.950          42.750
 116753229.633 7  90808221.411 7                  21848717.140    21848722.920
  21848720.720          45.450          44.200
 137675763.817 7                 102809856.605 7  26198816.700
                        46.200


 15  1 27 18  1 50.0000000  0 20G22G18G13G17G15G28G24G12G05R18R05R16
                                R17R24R06R09R07R15E19E20
 134763913.678 6 105010852.24244                  25644720.100
  25644716.320          39.200          28.850
 122592301.162 7  95526483.27646                  23328526.980
  23328522.760          47.850          38.350
 110214957.747 8  85881853.17847                  20973183.500
  20973178.800          50.350          46.000
 122965309.576 8  95817187.135 7                  23399492.060    23399487.880
  23399487.040          48.700          43.250
 107017323.196 8  83390153.587 8                  20364699.220    20364695.780
  20364695.120          50.050          49.650
 125257666.001 7  97603510.58546                  23835672.700
  23835668.000          47.900          37.400
 113204970.408 8  88211749.318 8  84536276.627 8  21542158.480    21542158.100
  21542157.580          49.250          48.950
 120671353.825 7  94029727.502 7                  22962935.840    22962933.980
  22962933.280          47.950          43.000
 130706798.073 7 101849452.718 6                  24872674.440    24872675.280
  24872675.040          45.350          38.500
 127243367.729 7  98967131.236 6                  23836959.080    23836964.260
  23836963.580          45.950          37.250
 114639173.577 8  89163847.399 7                  21445614.080    21445617.740
  21445617.100          49.200          44.350
 105305728.932 8  81904514.654 7                  19713437.680    19713440.300
  19713439.360          48.500          46.650
 122572529.185 7  95334203.885 6                  22905604.060    22905606.440
  22905605.640          46.450          41.100
 128753749.944 7 100141818.329 5                  24077600.660    24077603.120
  24077601.560          42.250          32.150
 104405082.830 8  81204012.372 7                  19565452.760    19565454.580
  19565454.720          50.200          46.100
 117534524.117 7  91415678.448 5                  22010412.160    22010416.680
  22010414.380          46.950          33.750
                                                  22177092.480    22177095.320
  22177094.460          47.750          42.950
 116767828.847 7  90819576.347 7                  21851449.180    21851454.960
  21851452.840          46.200          44.250
 137665372.305 7                 102802096.717 7  26196839.260
                        46.950


 15  1 27 18  1 55.0000000  0 20G22G18G13G17G15G28G24G12G05R18R05R16
                                R17R24R06R09R07R15E19E20
 134750351.052 6 105000283.93344                  25642139.360
  25642135.400          40.950          29.750
 122584922.959 8  95520734.03646                  23327122.940
  23327118.720          48.300          38.050
 110224068.615 8  85888952.55647                  20974917.240
  20974912.560          50.600          45.550
 122959992.599 8  95813044.047 7                  23398480.260    23398476.060
  23398475.260          49.050          43.300
 107015136.329 8  83388449.533 8                  20364283.060    20364279.640
  20364278.960          50.350          49.650
 125272635.776 8  97615175.34346                  23838521.340
  23838516.720          48.150          37.150
 113196370.306 8  88205047.946 8  84529854.477 8  21540521.980    21540521.540
  21540521.020          49.550          48.850
 120653595.347 8  94015889.739 7                  22959556.460    22959554.640
  22959553.940          48.350          43.150
 130724694.312 7 101863397.770 6                  24876080.020    24876080.920
  24876080.660          46.100          39.100
 127225281.594 7  98953064.273 6                  23833570.860    23833576.140
  23833575.420          44.000          38.200
 114659037.077 8  89179296.784 7                  21449329.960    21449333.620
  21449332.980          48.050          44.550
 105305841.916 7  81904602.532 7                  19713458.820    19713461.420
  19713460.500          46.950          46.700
 122564063.431 7  95327619.412 6                  22904021.980    22904024.400
  22904023.560          45.600          41.000
 128761018.427 6 100147471.604 5                  24078959.900    24078962.300
  24078960.840          39.850          32.450
 104406103.891 8  81204806.537 7                  19565644.080    19565645.940
  19565646.080          49.100          46.200
 117521911.471 7  91405868.629 5                  22008050.200    22008054.740
  22008052.360          45.000          33.500
 118698570.139 7  92321122.068 7                  22173890.320    22173893.180
  22173892.380          46.550          43.200
 116782429.791 7  90830932.629 7                  21854181.620    21854187.360
  21854185.300          44.600          44.350
 137654988.930 7                 102794342.900 7  26194863.360
                        47.150


 15  1 27 18  2  0.0000000  0 20G22G18G13G17G15G28G24G12G05R18R05R16
                                R17R24R06R09R07R15E19E20
 134736795.102 6 104989720.83145                  25639559.940
  25639555.600          41.000          31.150
 122577556.497 8  95514993.93946                  23325721.160
  23325716.900          48.300          37.750
 110233189.486 8  85896059.73247                  20976652.860
  20976648.200          50.600          45.400
 122954687.110 8  95808909.906 7                  23397470.640    23397466.460
  23397465.680          49.000          43.250
 107012960.783 8  83386754.305 8                  20363869.080    20363865.640
  20363864.960          50.550          49.550
 125287608.502 8  97626842.41046                  23841370.580
  23841365.920          48.150          36.600
 113187774.844 8  88198350.192 8  84523435.798 8  21538886.360    21538885.880
  21538885.320          49.600          48.850
 120635842.377 8  94002056.272 7                  22956178.160    22956176.360
  22956175.620          48.700          42.900
