     2.11           OBSERVATION DATA    M (MIXED)           RINEX VERSION / TYPE
teqc  2011Oct11     IGN-E (SPG)         20150127 22:00:53UTCPGM / RUN BY / DATE
Linux 2.4.21-27.ELsmp|Opteron|gcc -static|Linux x86_64|=+   COMMENT
BIT 2 OF LLI FLAGS DATA COLLECTED UNDER A/S CONDITION       COMMENT
VALE                                                        MARKER NAME
13439M001                                                   MARKER NUMBER
Programas GeodesicosInstituto Geografico Nacional           OBSERVER / AGENCY
1700071             LEICA GR10          3.03/6.214          REC # / TYPE / VERS
10190012            LEIAR25.R3      LEIT                    ANT # / TYPE
  4929534.0457   -29050.6755  4033709.9250                  APPROX POSITION XYZ
        3.0390        0.0000        0.0000                  ANTENNA: DELTA H/E/N
     1     1                                                WAVELENGTH FACT L1/2
     8    L1    L2    L5    C1    C2    P2    S1    S2      # / TYPES OF OBSERV
     5.0000                                                 INTERVAL
Forced Modulo Decimation to 5 seconds                       COMMENT
DefaultJobName                                              COMMENT
DefaultUserDiscription                                      COMMENT
Project creator:                                            COMMENT
 SNR is mapped to RINEX snr flag value [0-9]                COMMENT
  L1 & L2: min(max(int(snr_dBHz/6), 0), 9)                  COMMENT
  2015     1    27    21     0    0.0000000     GPS         TIME OF FIRST OBS
    15                                                      LEAP SECONDS
                                                            END OF HEADER
 15  1 27 21  0  0.0000000  0 21G22G14G31G15G06G24G12G25G29G02R18R20
                                R16R01R08R09R07R19R10E19E20
 132283468.900 7 103078032.79845                  25172705.840
  25172702.240          43.200          33.000
 116544076.489 8  90813567.92046                  22177591.400
  22177587.060          48.350          41.850
 134404902.330 7 104731086.615 6                  25576403.220    25576401.120
  25576399.960          42.550          39.600
 129423132.271 7 100849217.539 6                  24628389.480    24628387.200
  24628386.680          45.650          39.750
 128658754.944 7 100253580.551 7  96076344.604 8  24482944.360    24482944.940
  24482944.120          44.700          42.600
 110578984.890 8  86165530.112 8  82575317.328 8  21042447.660    21042446.180
  21042445.600          50.400          49.850
 107364559.765 8  83660807.914 8                  20430728.840    20430724.380
  20430723.640          49.850          48.450
 109834965.415 8  85585795.477 8  82019749.277 8  20900855.140    20900853.500
  20900852.700          49.900          48.750
 119129141.233 8  92828056.031 7                  22669456.940    22669453.820
  22669452.920          49.400          44.000
 127083636.927 7  99026199.91146                  24183204.120
  24183196.980          46.550          38.900
 121429137.779 7  94444962.690 6                  22747749.200    22747752.720
  22747751.940          45.800          41.650
 115947833.227 7  90181677.763 7                  21682780.920    21682785.280
  21682783.040          44.150          43.700
 121017199.800 7  94124499.403 6                  22654673.680    22654676.640
  22654676.080          44.150          41.800
 126328350.413 7  98255407.243 6                  23632332.780    23632336.900
  23632336.740          43.800          36.400
 118948398.413 7  92515429.599 7                  22212772.900    22212774.400
  22212773.080          46.100          43.600
 106698675.543 7  82987805.535 6                  19981198.500    19981201.020
  19981198.700          47.300          37.400
 124824181.184 7  97085481.609 6                  23318209.500    23318213.100
  23318212.280          44.950          40.250
 107048556.471 8  83259988.606 7                  20011543.920    20011544.940
  20011543.200          48.800          46.550
 112321961.130 8  87361571.473 6                  21071301.100    21071307.500
  21071306.380          48.400          40.750
 139317673.710 7                 104035959.543 7  26511261.080
                        47.950
 137989054.365 6                                  26258456.400
                        40.900
 15  1 27 21  0  5.0000000  0 21G22G14G31G15G06G24G12G25G29G02R18R20
                                R16R01R08R09R07R19R10E19E20
 132293290.383 6 103085685.86345                  25174574.780
  25174571.280          40.600          33.900
 116534559.856 8  90806152.36447                  22175780.440
  22175776.100          48.150          42.650
 134389651.014 6 104719202.512 6                  25573501.100    25573498.820
  25573497.620          40.250          37.600
 129441319.363 7 100863389.281 6                  24631850.360    24631848.120
  24631847.620          45.800          39.900
 128656589.562 7 100251893.243 6  96074727.602 8  24482532.360    24482532.880
  24482532.020          43.950          41.850
 110586705.005 8  86171545.788 8  82581082.355 8  21043916.800    21043915.260
  21043914.700          50.250          49.900
 107370111.599 8  83665134.017 8                  20431785.320    20431780.880
  20431780.120          49.700          48.600
 109828760.958 8  85580960.835 8  82015116.080 8  20899674.460    20899672.820
  20899672.000          49.900          48.850
 119111630.385 8  92814411.229 7                  22666124.720    22666121.640
  22666120.720          49.250          44.250
 127074413.694 7  99019012.97846                  24181448.980
  24181441.820          46.650          38.900
 121446290.499 7  94458303.699 6                  22750962.500    22750965.980
  22750965.180          45.500          41.300
 115927440.389 7  90165816.686 7                  21678967.340    21678971.780
  21678969.520          44.600          43.650
 121030118.176 7  94134547.016 6                  22657092.060    22657095.040
  22657094.500          44.100          41.200
 126320164.534 7  98249040.438 5                  23630801.420    23630805.660
  23630805.420          43.150          35.900
 118956146.065 7  92521455.536 7                  22214219.720    22214221.200
  22214219.960          45.750          43.650
 106700968.982 7  82989589.317 6                  19981627.960    19981630.540
  19981628.160          47.450          37.200
 124843138.554 7  97100226.224 6                  23321750.880    23321754.460
  23321753.620          44.550          40.000
 107045447.738 8  83257570.706 7                  20010962.720    20010963.800
  20010962.040          48.750          46.650
 112310783.260 7  87352877.576 6                  21069204.120    21069210.540
  21069209.440          47.850          40.650
 139328835.573 7                 104044294.709 7  26513385.060
                        47.750
 138003056.018 6                                  26261120.880
                        40.400
 15  1 27 21  0 10.0000000  0 21G22G14G31G15G06G24G12G25G29G02R18R20
                                R16R01R08R09R07R19R10E19E20
 132303119.138 6 103093344.64946                  25176445.100
  25176441.660          39.900          37.150
 116525059.588 8  90798749.55747                  22173972.600
  22173968.260          48.050          42.800
 134374401.258 6 104707319.606 6                  25570599.340    25570596.860
  25570595.700          41.200          36.000
 129459509.640 7 100877563.485 6                  24635311.860    24635309.680
  24635309.140          45.900          39.200
 128654441.209 7 100250219.211 6  96073123.305 8  24482123.600    24482124.020
  24482123.180          43.900          41.400
 110594437.934 8  86177571.441 8  82586856.937 8  21045388.380    21045386.780
  21045386.260          50.300          49.950
 107375674.559 8  83669468.785 8                  20432843.920    20432839.460
  20432838.720          49.750          48.650
 109822568.216 8  85576135.316 8  82010491.624 8  20898496.020    20898494.380
  20898493.560          50.050          48.900
 119094129.012 8  92800773.801 7                  22662794.280    22662791.200
  22662790.340          49.050          44.550
 127065200.482 7  99011833.83946                  24179695.760
  24179688.600          46.450          38.700
 121463459.263 7  94471657.180 6                  22754178.780    22754182.320
  22754181.420          45.350          40.900
 115907060.013 7  90149965.283 7                  21675156.120    21675160.600
  21675158.300          44.550          43.600
 121043044.735 7  94144601.007 6                  22659511.900    22659514.900
  22659514.400          44.150          41.250
 126312000.569 7  98242690.668 5                  23629274.160    23629278.400
  23629278.200          42.200          35.550
 118963915.189 7  92527498.188 7                  22215670.500    22215672.060
  22215670.820          45.250          43.650
 106703273.707 7  82991381.885 6                  19982059.560    19982062.140
  19982059.800          47.050          37.300
 124862102.519 7  97114975.943 6                  23325293.520    23325297.100
  23325296.220          44.950          40.150
 107042365.373 8  83255173.320 7                  20010386.440    20010387.580
  20010385.800          48.850          46.600
 112299611.832 7  87344188.687 6                  21067108.320    21067114.800
  21067113.700          47.800          40.650
 139340006.108 7                 104052636.328 7  26515510.720
                        47.750
 138017058.026 6                                  26263785.400
                        40.100
 15  1 27 21  0 15.0000000  0 21G22G14G31G15G06G24G12G25G29G02R18R20
                                R16R01R08R09R07R19R10E19E20
 132312949.883 6 103101004.96845                  25178315.680
  25178312.340          41.750          33.700
 116515570.460 8  90791355.42947                  22172166.900
  22172162.520          48.050          42.400
 134359147.837 6 104695433.852 6                  25567696.780    25567694.020
  25567693.000          37.900          36.900
 129477697.838 7 100891736.103 6                  24638772.960    24638770.900
  24638770.260          45.650          39.250
 128652304.633 7 100248554.330 6  96071527.790 8  24481717.060    24481717.420
  24481716.520          43.850          40.800
 110602178.194 8  86183602.810 8  82592636.995 8  21046861.380    21046859.700
  21046859.200          50.250          49.850
 107381243.357 8  83673808.108 8                  20433903.640    20433899.180
  20433898.420          49.700          48.500
 109816381.944 8  85571314.848 8  82005872.003 8  20897318.820    20897317.160
  20897316.340          50.150          48.800
 119076631.888 8  92787139.691 7                  22659464.640    22659461.600
  22659460.780          49.100          44.400
 127055992.062 7  99004658.44846                  24177943.460
  24177936.300          46.450          38.200
 121480638.796 7  94485019.041 6                  22757397.060    22757400.640
  22757399.660          45.550          41.150
 115886686.878 7  90134119.528 7                  21671346.300    21671350.740
  21671348.460          44.600          43.850
 121055974.171 7  94154657.234 6                  22661932.320    22661935.300
  22661934.840          44.150          41.150
 126303853.095 7  98236353.769 5                  23627750.000    23627754.220
  23627754.020          42.950          35.750
 118971700.361 7  92533553.313 7                  22217124.280    22217125.880
  22217124.680          45.550          43.850
 106705584.368 7  82993179.058 6                  19982492.280    19982494.820
  19982492.520          47.500          37.450
 124881067.656 7  97129726.570 6                  23328836.380    23328839.960
  23328839.040          45.100          40.800
 107039303.959 8  83252792.222 7                  20009814.120    20009815.280
  20009813.480          48.900          46.750
 112288441.384 7  87335500.568 6                  21065012.720    21065019.260
  21065018.140          47.350          40.700
 139351180.045 7                 104060980.500 7  26517637.060
                        47.750
 138031055.146 6                                  26266449.040
                        40.150
 15  1 27 21  0 20.0000000  0 21G22G14G31G15G06G24G12G25G29G02R18R20
                                R16R01R08R09R07R19R10E19E20
 132322785.651 7 103108669.17845                  25180187.360
  25180184.040          42.950          32.250
 116506095.408 8  90783972.27847                  22170363.840
  22170359.480          48.150          42.000
 134343893.610 6 104683547.451 6                  25564794.100    25564791.240
  25564790.760          39.900          36.300
 129495886.929 7 100905909.394 6                  24642234.180    24642232.140
  24642231.560          45.000          39.450
 128650182.741 7 100246900.915 6  96069943.294 8  24481313.240    24481313.620
  24481312.700          43.250          41.200
 110609928.751 8  86189642.206 8  82598424.755 8  21048336.320    21048334.580
  21048334.100          50.300          49.800
 107386820.978 8  83678154.304 8                  20434965.040    20434960.600
  20434959.820          49.750          48.400
 109810205.115 8  85566501.732 8  82001259.436 8  20896143.420    20896141.740
  20896140.920          50.050          48.800
 119059141.979 8  92773511.205 7                  22656136.420    22656133.380
  22656132.560          49.150          44.250
 127046791.372 7  98997489.08946                  24176192.640
  24176185.500          46.450          37.300
 121497831.998 7  94498391.533 6                  22760617.980    22760621.420
  22760620.460          45.800          41.000
 115866324.098 7  90118281.808 7                  21667538.420    21667542.840
  21667540.540          44.350          43.850
 121068909.600 7  94164718.122 6                  22664353.880    22664356.840
  22664356.380          43.800          41.300
 126295725.292 7  98230032.151 5                  23626229.560    23626233.820
  23626233.560          42.750          35.500
 118979504.597 7  92539623.264 7                  22218581.620    22218583.300
  22218582.120          45.600          43.850
 106707903.927 7  82994983.151 6                  19982926.660    19982929.300
  19982926.920          47.250          37.700
 124900036.883 7  97144480.374 6                  23332380.000    23332383.520
  23332382.640          44.700          40.750
 107036266.420 8  83250429.693 7                  20009246.220    20009247.460
  20009245.640          48.700          46.950
 112277275.076 7  87326815.669 6                  21062917.900    21062924.400
  21062923.340          47.200          40.800
 139362360.303 7                 104069329.394 7  26519764.540
                        47.450
 138045050.291 6                                  26269112.320
                        40.300
 15  1 27 21  0 25.0000000  0 21G22G14G31G15G06G24G12G25G29G02R18R20
                                R16R01R08R09R07R19R10E19E20
 132332625.445 7 103116336.50745                  25182059.900
  25182056.460          43.450          31.350
 116496633.498 7  90776599.35547                  22168563.320
  22168558.960          47.950          42.250
 134328637.643 6 104671659.721 6                  25561891.040    25561888.080
  25561887.100          39.650          36.400
 129514075.899 7 100920082.571 6                  24645695.440    24645693.420
  24645692.840          45.900          39.700
 128648074.671 7 100245258.287 6  96068369.077 8  24480912.080    24480912.540
  24480911.560          43.600          41.250
 110617688.691 8  86195688.912 8  82604219.500 8  21049813.040    21049811.260
  21049810.780          50.350          49.750
 107392406.416 8  83682506.599 8                  20436027.920    20436023.500
  20436022.700          49.750          48.450
 109804036.757 8  85561695.221 8  81996653.201 8  20894969.620    20894967.920
  20894967.100          50.000          48.900
 119041658.316 8  92759887.573 7                  22652809.360    22652806.360
  22652805.520          49.300          44.200
 127037597.496 7  98990325.02246                  24174443.140
  24174435.940          46.450          38.100
 121515037.906 7  94511773.903 6                  22763841.260    22763844.660
  22763843.660          45.700          41.000
 115845970.484 7  90102451.225 7                  21663732.180    21663736.640
  21663734.360          44.200          43.950
 121081849.910 7  94174782.780 6                  22666776.340    22666779.320
  22666778.800          44.800          41.400
 126287616.034 7  98223724.969 5                  23624712.620    23624716.780
  23624716.520          43.950          34.900
 118987326.954 7  92545707.309 7                  22220042.380    22220044.060
  22220042.980          45.850          44.050
 106710231.433 7  82996793.439 6                  19983362.520    19983365.180
  19983362.800          47.400          37.800
 124919009.282 7  97159236.651 6                  23335924.260    23335927.720
  23335926.800          44.800          39.750
 107033251.895 8  83248085.070 7                  20008682.700    20008683.940
  20008682.120          48.700          46.850
 112266111.857 7  87318133.172 6                  21060823.680    21060830.200
  21060829.160          47.050          40.800
 139373545.959 7                 104077682.291 7  26521893.080
                        47.300
 138059042.506 6                                  26271775.060
                        40.150
 15  1 27 21  0 30.0000000  0 21G22G14G31G15G06G24G12G25G29G02R18R20
                                R16R01R08R09R07R19R10E19E20
 132342468.179 7 103124006.15445                  25183932.980
  25183929.360          42.200          33.400
 116487183.691 7  90769235.87747                  22166765.100
  22166760.720          47.850          42.450
 134313378.935 6 104659769.827 6                  25558987.440    25558984.380
  25558983.360          41.050          37.300
 129532263.730 7 100934254.878 6                  24649156.480    24649154.460
  24649153.900          45.100          39.750
 128645979.325 7 100243625.536 6  96066804.377 8  24480513.340    24480513.780
  24480512.800          43.000          41.200
 110625456.945 8  86201742.097 8  82610020.476 8  21051291.360    21051289.500
  21051289.020          50.200          49.700
 107397998.643 8  83686864.179 8                  20437092.100    20437087.660
  20437086.840          49.750          48.450
 109797875.829 8  85556894.505 8  81992052.510 8  20893797.240    20893795.520
  20893794.700          49.900          48.800
 119024179.905 8  92746268.043 7                  22649483.300    22649480.320
  22649479.480          49.300          44.200
 127028409.361 7  98983165.44246                  24172694.720
  24172687.480          46.350          38.550
 121532255.441 7  94525165.333 6                  22767066.700    22767070.100
  22767069.040          45.750          41.150
 115825625.169 7  90086627.108 7                  21659927.460    21659931.960
  21659929.740          43.600          43.850
 121094794.046 7  94184850.460 6                  22669199.540    22669202.500
  22669201.940          45.100          41.300
 126279524.378 7  98217431.438 5                  23623198.920    23623202.980
  23623202.800          43.350          35.650
 118995166.275 7  92551804.551 7                  22221506.340    22221508.000
  22221507.000          45.700          43.950
 106712565.832 7  82998609.092 6                  19983799.700    19983802.400
  19983800.020          47.300          37.650
 124937983.734 7  97173994.562 6                  23339468.880    23339472.300
  23339471.300          44.250          40.000
 107030259.368 8  83245757.552 7                  20008123.220    20008124.560
  20008122.720          48.650          46.900
 112254950.725 7  87309452.300 6                  21058729.820    21058736.500
  21058735.360          47.050          40.800
 139384735.911 7                 104086038.432 7  26524022.420
                        47.400
 138073030.754 6                                  26274437.000
                        40.350
 15  1 27 21  0 35.0000000  0 21G22G14G31G15G06G24G12G25G29G02R18R20
                                R16R01R08R09R07R19R10E19E20
 132352317.119 7 103131680.64445                  25185807.260
  25185803.600          43.100          33.300
 116477749.265 7  90761884.37747                  22164969.780
  22164965.420          47.650          42.550
 134298120.732 7 104647880.316 6                  25556083.840    25556080.860
  25556080.040          42.100          38.200
 129550453.620 7 100948428.771 6                  24652617.920    24652615.820
  24652615.360          45.900          39.550
 128643899.992 7 100242005.259 6  96065251.630 8  24480117.620    24480118.060
  24480117.080          43.550          41.100
 110633236.749 8  86207804.271 8  82615830.066 8  21052771.860    21052769.960
  21052769.460          50.250          49.650
 107403600.921 8  83691229.590 8                  20438158.180    20438153.720
  20438152.920          49.750          48.450
 109791725.572 8  85552102.101 8  81987459.799 8  20892626.900    20892625.160
  20892624.360          50.000          48.750
 119006709.981 8  92732655.117 7                  22646158.860    22646155.860
  22646155.020          49.550          43.950
 127019230.280 7  98976012.90946                  24170948.000
  24170940.760          46.250          38.600
 121549487.861 7  94538568.331 6                  22770294.960    22770298.240
  22770297.200          45.450          41.300
 115805291.444 7  90070812.007 7                  21656124.860    21656129.420
  21656127.260          43.850          44.100
 121107745.346 7  94194923.712 6                  22671624.140    22671626.980
  22671626.420          44.850          41.350
 126271453.507 7  98211154.127 5                  23621689.120    23621693.020
  23621692.980          44.350          35.750
 119003025.906 7  92557917.586 7                  22222974.080    22222975.760
  22222974.820          45.550          44.100
 106714910.431 7  83000432.664 6                  19984238.760    19984241.460
  19984239.120          47.250          37.400
 124956963.592 7  97188756.661 6                  23343014.500    23343017.940
  23343016.860          44.050          40.350
 107027292.059 8  83243449.631 7                  20007568.500    20007569.860
  20007568.040          48.650          46.700
 112243794.870 7  87300775.523 6                  21056636.960    21056643.720
  21056642.540          47.400          41.000
 139395933.435 7                 104094400.223 7  26526153.220
                        47.500
 138087018.286 6                                  26277098.760
                        40.800
 15  1 27 21  0 40.0000000  0 21G22G14G31G15G06G24G12G25G29G02R18R20
                                R16R01R08R09R07R19R10E19E20
 132362169.483 7 103139357.79945                  25187682.180
  25187678.480          44.400          32.250
 116468327.460 7  90754542.71247                  22163176.840
  22163172.480          47.800          42.650
 134282860.246 6 104635989.080 6                  25553179.840    25553177.000
  25553176.220          40.300          37.850
 129568642.824 7 100962602.158 6                  24656079.240    24656077.180
  24656076.680          45.950          39.700
 128641833.885 7 100240395.316 6  96063708.768 8  24479724.460    24479724.860
  24479723.900          43.650          41.700
 110641025.505 8  86213873.430 8  82621646.339 8  21054254.080    21054252.100
  21054251.600          50.250          49.650
 107409210.443 8  83695600.646 8                  20439225.640    20439221.160
  20439220.400          49.650          48.400
 109785583.237 8  85547315.872 8  81982872.995 8  20891458.080    20891456.300
  20891455.500          50.050          48.750
 118989245.817 8  92719046.679 7                  22642835.540    22642832.480
  22642831.680          49.600          44.100
 127010057.458 7  98968865.26446                  24169202.480
  24169195.180          46.600          38.000
 121566732.396 7  94551980.749 6                  22773525.440    22773528.700
  22773527.620          45.300          41.000
 115784966.554 7  90055003.766 7                  21652323.980    21652328.540
  21652326.420          43.700          43.950
 121120701.013 7  94205000.342 6                  22674049.540    22674052.300
  22674051.740          44.650          40.950
 126263400.925 7  98204890.989 5                  23620182.780    23620186.540
  23620186.540          43.450          35.700
 119010903.073 7  92564044.264 7                  22224445.080    22224446.780
  22224445.900          45.900          43.650
 106717262.380 7  83002261.960 6                  19984679.200    19984681.960
  19984679.640          47.450          37.250
 124975946.073 7  97203520.774 6                  23346560.600    23346564.040
  23346562.960          43.950          40.350
 107024347.247 8  83241159.226 7                  20007018.000    20007019.360
  20007017.540          48.900          46.450
 112232641.576 7  87292100.735 6                  21054544.600    21054551.400
  21054550.260          47.650          40.750
 139407135.762 7                 104102765.586 7  26528284.940
                        47.050
 138101002.285 6                                  26279759.900
                        41.100
 15  1 27 21  0 45.0000000  0 21G22G14G31G15G06G24G12G25G29G02R18R20
                                R16R01R08R09R07R19R10E19E20
 132372025.736 7 103147037.96145                  25189557.860
  25189554.080          43.850          32.000
 116458918.765 7  90747211.26247                  22161386.400
  22161382.080          47.600          43.100
 134267597.994 6 104624096.465 6                  25550275.460    25550272.640
  25550272.300          41.000          36.650
 129586831.789 7 100976775.341 6                  24659540.500    24659538.460
  24659537.980          46.800          39.250
 128639781.518 7 100238796.071 6  96062176.152 8  24479333.940    24479334.340
  24479333.360          43.350          41.900
 110648823.573 8  86219949.849 8  82627469.572 8  21055738.040    21055736.020
  21055735.500          50.100          49.650
 107414827.692 8  83699977.724 8                  20440294.540    20440290.100
  20440289.320          49.450          48.450
 109779449.268 8  85542536.160 8  81978292.435 8  20890290.820    20890289.040
  20890288.220          50.000          48.700
 118971787.872 8  92705443.096 7                  22639513.380    22639510.300
  22639509.500          49.600          44.050
 127000891.436 7  98961722.90346                  24167458.220
  24167450.880          46.300          37.100
 121583989.436 7  94565402.891 6                  22776758.240    22776761.540
  22776760.420          45.150          40.750
 115764650.917 7  90039202.723 7                  21648524.780    21648529.440
  21648527.300          43.700          43.700
 121133661.517 7  94215080.738 6                  22676475.820    22676478.560
  22676477.980          44.250          40.950
 126255366.884 7  98198642.295 5                  23618679.920    23618683.600
  23618683.560          44.100          35.050
 119018798.153 7  92570184.878 7                  22225919.440    22225921.160
  22225920.280          46.050          43.200
 106719622.264 7  83004097.415 6                  19985121.140    19985123.880
  19985121.580          47.500          37.000
 124994931.384 7  97218287.095 6                  23350107.240    23350110.600
  23350109.600          44.300          40.150
 107021425.341 8  83238886.630 7                  20006471.820    20006473.120
  20006471.340          48.950          46.450
 112221491.332 7  87283428.319 6                  21052452.820    21052459.660
  21052458.540          47.750          40.800
 139418343.339 7                 104111134.867 7  26530417.640
                        47.100
 138114983.262 6                                  26282420.500
                        40.850
 15  1 27 21  0 50.0000000  0 21G22G14G31G15G06G24G12G25G29G02R18R20
                                R16R01R08R09R07R19R10E19E20
 132381885.869 7 103154721.14945                  25191434.280
  25191430.420          43.750          33.550
 116449523.230 8  90739890.06547                  22159598.480
  22159594.160          48.000          42.800
 134252333.942 6 104612202.394 6                  25547370.800    25547367.900
  25547367.420          38.750          36.400
 129605020.518 7 100990948.375 6                  24663001.720    24662999.620
  24662999.160          46.950          38.750
 128637742.871 7 100237207.534 6  96060653.804 8  24478946.060    24478946.360
  24478945.400          44.050          41.950
 110656630.963 8  86226033.530 8  82633299.766 8  21057223.780    21057221.720
  21057221.180          50.200          49.750
 107420452.682 8  83704360.829 8                  20441364.940    20441360.500
  20441359.720          49.600          48.500
 109773323.686 8  85537762.983 8  81973718.147 8  20889125.180    20889123.380
  20889122.560          49.950          48.850
 118954336.198 8  92691844.391 7                  22636192.420    22636189.340
  22636188.500          49.700          44.200
 126991732.201 7  98954585.84546                  24165715.260
  24165707.880          46.350          38.050
 121601259.044 7  94578834.804 6                  22779993.400    22779996.640
  22779995.580          45.000          40.950
 115744344.638 7  90023408.949 7                  21644727.320    21644732.100
  21644729.940          43.400          44.050
 121146626.884 7  94225164.921 6                  22678902.960    22678905.740
  22678905.140          44.200          41.300
 126247351.411 7  98192408.034 5                  23617180.480    23617184.180
  23617184.100          44.950          35.000
 119026711.279 7  92576339.533 7                  22227397.180    22227398.860
  22227398.040          46.550          43.400
 106721990.073 7  83005939.038 6                  19985564.580    19985567.320
  19985565.020          47.450          36.850
 125013919.697 7  97233055.759 6                  23353654.380    23353657.820
  23353656.820          44.800          40.600
 107018526.347 8  83236631.857 7                  20005929.900    20005931.180
  20005929.400          49.250          46.650
 112210344.147 8  87274758.292 6                  21050361.620    21050368.500
  21050367.380          48.050          40.750
 139429556.164 7                 104119508.093 7  26532551.360
                        47.600
 138128961.186 6                                  26285080.440
                        40.700
 15  1 27 21  0 55.0000000  0 21G22G14G31G15G06G24G12G25G29G02R18R20
                                R16R01R08R09R07R19R10E19E20
 132391749.778 7 103162407.32045                  25193311.360
  25193307.460          43.400          33.050
 116440140.705 7  90732579.01047                  22157813.060
  22157808.700          47.950          42.400
 134237068.074 7 104600306.964 6                  25544465.820    25544463.020
  25544462.540          42.250          36.600
 129623208.963 7 101005121.183 6                  24666462.900    24666460.820
  24666460.280          46.950          39.650
 128635717.875 7 100235629.633 6  96059141.630 7  24478560.760    24478560.960
  24478560.000          43.950          41.900
 110664447.532 8  86232124.366 8  82639136.808 8  21058711.280    21058709.180
  21058708.600          50.100          49.800
 107426085.326 8  83708749.902 8                  20442436.780    20442432.340
  20442431.560          49.700          48.650
 109767206.433 8  85532996.299 8  81969150.067 8  20887961.120    20887959.280
  20887958.460          49.850          48.950
 118936890.700 8  92678250.506 7                  22632872.640    22632869.540
  22632868.720          49.550          44.400
 126982579.684 7  98947454.02046                  24163973.540
  24163966.220          46.100          37.050
 121618541.076 7  94592276.381 6                  22783230.860    22783234.160
  22783233.040          45.350          40.700
 115724047.678 7  90007622.442 7                  21640931.600    21640936.440
  21640934.340          43.250          44.150
 121159597.097 7  94235252.839 6                  22681330.980    22681333.860
  22681333.240          44.150          41.000
 126239354.559 7  98186188.264 5                  23615684.560    23615688.120
  23615688.140          44.600          35.150
 119034642.192 7  92582508.025 7                  22228878.240    22228879.900
  22228879.140          46.550          43.450
 106724365.707 7  83007786.749 6                  19986009.480    19986012.260
  19986009.900          47.600          37.000
 125032910.824 7  97247826.622 6                  23357202.080    23357205.520
  23357204.520          44.750          40.250
 107015650.153 8  83234394.828 7                  20005392.260    20005393.480
  20005391.740          49.200          46.700
 112199199.881 8  87266090.540 6                  21048271.000    21048277.800
  21048276.780          48.050          40.700
 139440774.193 7                 104127885.166 7  26534686.100
                        47.350
 138142936.010 6                                  26287739.840
                        41.000
 15  1 27 21  1  0.0000000  0 21G22G14G31G15G06G24G12G25G29G02R18R20
                                R16R01R08R09R07R19R10E19E20
 132401620.025 7 103170098.41345                  25195189.660
  25195185.720          44.150          34.000
 116430773.770 7  90725280.09747                  22156030.600
  22156026.220          47.800          43.200
 134221802.934 7 104588412.032 6                  25541560.960    25541558.060
  25541557.580          44.100          38.050
 129641399.615 7 101019295.692 6                  24669924.460    24669922.420
  24669921.880          46.350          38.950
 128633709.154 7 100234064.373 6  96057641.591 8  24478178.580    24478178.680
  24478177.800          43.900          41.800
 110672275.929 8  86238224.412 8  82644982.697 8  21060200.960    21060198.860
  21060198.260          49.850          49.750
 107431728.149 8  83713146.902 8                  20443510.560    20443506.120
  20443505.360          49.650          48.600
 109761100.008 8  85528238.048 8  81964590.088 8  20886799.120    20886797.260
  20886796.440          49.900          48.900
 118919453.956 8  92664663.440 7                  22629554.500    22629551.440
  22629550.600          49.550          44.350
 126973436.469 7  98940329.44946                  24162233.600
  24162226.240          45.950          39.050
 121635838.105 7  94605729.624 6                  22786471.160    22786474.420
  22786473.300          45.800          40.500
 115703762.495 7  89991845.092 7                  21637138.120    21637143.020
  21637140.940          43.250          44.100
 121172574.623 7  94245346.443 6                  22683760.420    22683763.340
  22683762.680          44.600          41.050
 126231378.790 7  98179984.882 5                  23614192.560    23614195.980
  23614196.060          44.700          34.600
 119042593.448 7  92588692.331 7                  22230363.140    22230364.780
  22230364.040          46.050          43.650
 106726751.720 7  83009642.531 6                  19986456.320    19986459.080
  19986456.720          47.750          36.900
 125051907.486 7  97262601.779 6                  23360750.780    23360754.200
  23360753.260          44.450          40.700
 107012799.484 8  83232177.641 7                  20004859.380    20004860.580
  20004858.880          49.200          46.750
 112188061.206 8  87257427.127 6                  21046181.400    21046188.280
  21046187.200          48.150          40.400
 139451999.889 7                 104136268.007 7  26536822.280
                        47.300
 138156910.198 6                                  26290399.060
                        40.750
 15  1 27 21  1  5.0000000  0 21G22G14G31G15G06G24G12G25G29G02R18R20
                                R16R01R08R09R07R19R10E19E20
 132411492.340 7 103177791.07945                  25197068.340
  25197064.400          44.500          32.350
 116421418.204 7  90717990.05247                  22154250.300
  22154245.940          47.950          42.400
 134206534.161 6 104576514.259 6                  25538655.420    25538652.460
  25538651.760          41.500          37.700
 129659588.242 7 101033468.627 6                  24673385.680    24673383.640
  24673383.040          46.100          38.850
 128631712.374 7 100232508.425 6  96056150.493 8  24477798.620    24477798.640
  24477797.840          43.150          41.600
 110680111.844 8  86244330.320 8  82650834.194 8  21061692.100    21061689.980
  21061689.380          49.900          49.650
 107437376.902 8  83717548.526 8                  20444585.460    20444581.040
  20444580.280          49.750          48.350
 109755000.210 8  85523484.958 8  81960035.038 8  20885638.380    20885636.500
  20885635.680          50.000          48.700
 118902021.748 8  92651079.909 7                  22626237.240    22626234.200
  22626233.380          49.450          44.250
 126964298.278 7  98933208.77646                  24160494.640
  24160487.280          46.050          38.900
 121653145.816 7  94619191.172 6                  22789713.460    22789716.680
  22789715.580          45.650          40.750
 115683484.929 7  89976073.671 7                  21633346.100    21633351.040
  21633348.920          43.550          43.700
 121185555.185 7  94255442.420 6                  22686190.420    22686193.420
  22686192.660          44.050          40.600
 126223419.876 7  98173794.601 5                  23612703.700    23612707.040
  23612707.080          43.450          34.300
 119050560.906 7  92594889.234 7                  22231851.000    22231852.660
  22231851.980          46.100          43.400
 106729143.831 7  83011503.072 6                  19986904.300    19986907.080
  19986904.640          47.750          36.850
 125070905.336 7  97277377.834 6                  23364299.720    23364303.160
  23364302.260          44.000          40.650
 107009969.958 8  83229976.901 7                  20004330.420    20004331.640
  20004329.940          49.150          46.750
 112176923.728 7  87248764.638 6                  21044092.080    21044098.860
  21044097.800          47.700          40.400
 139463229.046 7                 104144653.392 7  26538959.140
                        47.350
 138170879.595 6                                  26293057.380
                        41.100
 15  1 27 21  1 10.0000000  0 21G22G14G31G15G06G24G12G25G29G02R18R20
                                R16R01R08R09R07R19R10E19E20
 132421369.321 7 103185487.43245                  25198947.940
  25198943.880          43.900          33.600
 116412076.709 8  90710710.96447                  22152472.660
  22152468.300          48.050          42.800
 134191264.473 6 104564615.848 6                  25535749.700    25535746.780
  25535745.880          41.900          37.250
 129677777.456 7 101047642.017 6                  24676847.040    24676844.960
  24676844.400          45.900          39.400
 128629730.225 7 100230963.907 6  96054670.324 8  24477421.400    24477421.460
  24477420.580          43.150          41.700
 110687957.959 8  86250444.183 8  82656693.309 8  21063185.140    21063183.080
  21063182.420          49.700          49.600
 107443034.245 8  83721956.853 8                  20445662.000    20445657.580
  20445656.840          49.650          48.450
 109748909.669 8  85518739.086 8  81955486.910 8  20884479.380    20884477.500
  20884476.680          49.950          48.700
 118884596.707 8  92637501.971 7                  22622921.340    22622918.320
  22622917.520          49.450          44.400
 126955167.816 7  98926094.14746                  24158757.140
  24158749.820          46.700          38.050
 121670466.899 7  94632663.130 6                  22792958.300    22792961.520
  22792960.360          45.400          40.650
 115663217.708 7  89960310.279 7                  21629555.980    21629560.980
  21629558.860          43.800          43.900
 121198541.506 7  94265542.896 6                  22688621.500    22688624.380
  22688623.620          44.550          40.650
 126215480.379 7  98167619.450 5                  23611218.480    23611221.800
  23611221.780          43.100          34.150
 119058547.063 7  92601100.692 7                  22233342.400    22233343.980
  22233343.360          45.800          43.350
 106731544.731 7  83013370.439 6                  19987353.940    19987356.620
  19987354.240          47.700          36.900
 125089906.751 7  97292156.688 6                  23367849.320    23367852.760
  23367851.940          44.250          41.500
 107007164.218 8  83227794.667 7                  20003805.920    20003807.140
  20003805.480          48.850          46.700
 112165790.224 7  87240105.258 6                  21042003.460    21042010.280
  21042009.140          47.350          40.700
 139474464.307 7                 104153043.374 7  26541097.160
                        47.300
 138184846.752 6                                  26295715.300
                        41.600
 15  1 27 21  1 15.0000000  0 21G22G14G31G15G06G24G12G25G29G02R18R20
                                R16R01R08R09R07R19R10E19E20
 132431250.616 7 103193187.12045                  25200828.360
  25200824.200          42.700          34.050
 116402748.837 7  90703442.48747                  22150697.620
  22150693.240          47.800          42.650
 134175993.547 6 104552716.440 6                  25532843.780    25532840.880
  25532840.060          39.050          37.000
 129695966.923 7 101061815.583 6                  24680308.420    24680306.280
  24680305.800          45.050          39.100
 128627762.301 7 100229430.472 6  96053200.798 8  24477046.880    24477047.000
  24477046.140          43.100          41.750
 110695813.908 8  86256565.701 8  82662559.767 8  21064680.060    21064678.020
  21064677.360          49.350          49.450
 107448699.761 8  83726371.538 8                  20446740.100    20446735.700
  20446734.960          49.650          48.450
 109742828.014 8  85514000.128 8  81950945.412 8  20883322.060    20883320.200
  20883319.340          49.850          48.650
 118867178.456 8  92623929.310 7                  22619606.740    22619603.740
  22619602.940          49.250          44.350
 126946044.691 7  98918985.21946                  24157021.080
  24157013.760          46.700          38.400
 121687800.876 7  94646145.110 6                  22796205.580    22796208.740
  22796207.580          45.800          40.650
 115642960.377 7  89944554.582 7                  21625767.800    21625772.720
  21625770.620          43.800          43.600
 121211533.201 7  94275647.549 6                  22691053.580    22691056.460
  22691055.620          44.250          40.700
 126207560.090 7  98161459.199 5                  23609736.800    23609740.020
  23609740.000          42.800          34.650
 119066551.603 7  92607326.431 7                  22234837.220    22234838.760
  22234838.180          45.750          43.300
 106733954.106 7  83015244.388 6                  19987805.160    19987807.860
  19987805.400          47.650          36.900
 125108911.704 7  97306938.289 6                  23371399.580    23371403.100
  23371402.300          44.050          41.700
 107004381.975 8  83225630.698 7                  20003285.820    20003287.020
  20003285.400          48.800          46.750
 112154660.380 7  87231448.700 6                  21039915.540    21039922.360
  21039921.200          47.550          40.550
 139485705.258 7                 104161437.585 7  26543236.240
                        47.050
 138198811.344 6                                  26298372.760
                        41.750
 15  1 27 21  1 20.0000000  0 21G22G14G31G15G06G24G12G25G29G02R18R20
                                R16R01R08R09R07R19R10E19E20
 132441135.905 7 103200889.95145                  25202709.520
  25202705.300          43.300          32.000
 116393434.342 8  90696184.44047                  22148925.140
  22148920.760          48.050          42.000
 134160720.977 6 104540815.769 6                  25529937.460    25529934.660
  25529933.880          40.050          37.100
 129714156.270 7 101075989.062 6                  24683769.740    24683767.600
  24683767.100          45.350          39.250
 128625808.384 7 100227907.939 6  96051741.681 8  24476675.040    24476675.200
  24476674.280          43.450          41.550
 110703679.327 8  86262694.594 8  82668433.290 8  21066176.760    21066174.740
  21066174.100          49.350          49.550
 107454373.124 8  83730792.346 8                  20447819.680    20447815.300
  20447814.580          49.700          48.450
 109736754.922 8  85509267.852 8  81946410.319 8  20882166.380    20882164.520
  20882163.660          49.950          48.750
 118849766.708 8  92610361.720 7                  22616293.380    22616290.400
  22616289.620          49.500          44.600
 126936928.616 7  98911881.78746                  24155286.360
  24155279.100          46.750          38.400
 121705147.510 7  94659636.940 6                  22799455.260    22799458.440
  22799457.220          45.850          40.600
 115622712.696 7  89928806.398 7                  21621981.380    21621986.240
  21621984.160          44.550          43.400
 121224529.861 7  94285756.073 6                  22693486.600    22693489.440
  22693488.520          44.200          40.700
 126199658.670 7  98155313.669 5                  23608258.700    23608261.860
  23608261.780          43.050          34.500
 119074574.161 7  92613566.198 7                  22236335.420    22236336.860
  22236336.340          45.950          43.150
 106736371.600 7  83017124.662 6                  19988257.960    19988260.600
  19988258.120          47.550          37.400
 125127919.610 7  97321722.166 6                  23374950.400    23374953.960
  23374953.200          44.100          41.250
 107001622.841 8  83223484.700 7                  20002770.060    20002771.220
  20002769.620          48.950          46.650
 112143533.843 7  87222794.731 6                  21037828.220    21037835.060
  21037833.860          47.350          40.400
 139496951.615 7                 104169835.815 7  26545376.360
                        47.300
 138212773.056 6                                  26301029.680
                        41.650
 15  1 27 21  1 25.0000000  0 21G22G14G31G15G06G24G12G25G29G02R18R20
                                R16R01R08R09R07R19R10E19E20
 132451023.967 7 103208594.92145                  25204591.180
  25204586.920          42.850          32.950
 116384131.996 8  90688935.86647                  22147154.960
  22147150.580          48.400          42.250
 134145445.632 6 104528912.948 6                  25527030.640    25527027.980
  25527027.080          41.300          37.850
 129732344.231 7 101090161.473 6                  24687230.820    24687228.720
  24687228.200          46.400          39.300
 128623867.176 7 100226395.306 6  96050292.094 8  24476305.640    24476305.800
  24476304.920          43.200          41.600
 110711553.000 8  86268829.923 8  82674312.981 8  21067675.020    21067673.060
  21067672.400          49.250          49.650
 107460053.181 8  83735218.363 8                  20448900.560    20448896.180
  20448895.460          49.650          48.450
 109730689.173 8  85504541.301 8  81941880.702 8  20881012.100    20881010.240
  20881009.380          49.950          48.750
 118832360.238 8  92596798.244 7                  22612981.040    22612978.060
  22612977.300          49.600          44.500
 126927818.386 7  98904782.91346                  24153552.740
  24153545.560          46.850          38.100
 121722505.484 7  94673137.593 6                  22802707.040    22802710.140
  22802708.960          45.900          40.250
 115602473.439 7  89913064.747 7                  21618196.600    21618201.340
  21618199.280          44.100          43.650
 121237530.380 7  94295867.586 6                  22695920.320    22695923.120
  22695922.200          44.650          40.950
 126191774.890 7  98149181.818 5                  23606783.920    23606787.020
  23606786.940          42.450          34.850
 119082613.538 7  92619819.051 7                  22237836.740    22237838.160
  22237837.620          46.350          42.950
 106738795.953 7  83019010.272 6                  19988711.960    19988714.600
  19988712.120          47.350          37.100
 125146929.288 7  97336507.440 6                  23378501.580    23378505.220
  23378504.400          44.550          40.400
 106998885.768 8  83221355.874 7                  20002258.440    20002259.580
  20002257.960          49.050          46.600
 112132409.254 7  87214142.273 6                  21035741.260    21035748.140
  21035746.900          47.700          40.500
 139508202.128 7                 104178237.164 7  26547517.240
                        47.250
 138226730.588 6                                  26303685.820
                        41.900
 15  1 27 21  1 30.0000000  0 21G22G14G31G15G06G24G12G25G29G02R18R20
                                R16R01R08R09R07R19R10E19E20
 132460917.264 6 103216303.93645                  25206473.840
  25206469.620          41.950          35.700
 116374844.281 8  90681698.68747                  22145387.560
  22145383.160          48.600          42.600
 134130169.932 6 104517009.838 6                  25524123.760    25524121.180
  25524120.260          41.700          38.050
 129750533.302 7 101104334.777 6                  24690692.140    24690690.040
  24690689.460          45.400          39.350
 128621941.216 7 100224894.560 7  96048853.863 8  24475939.180    24475939.320
  24475938.460          43.350          42.100
 110719437.455 8  86274973.649 8  82680200.714 8  21069175.320    21069173.420
  21069172.760          49.400          49.650
 107465742.372 8  83739651.506 8                  20449983.160    20449978.780
  20449978.080          49.450          48.650
 109724633.231 8  85499822.389 8  81937358.417 8  20879859.680    20879857.820
  20879856.960          49.850          48.750
 118814961.551 8  92583240.834 7                  22609670.200    22609667.200
  22609666.440          49.850          44.750
 126918716.494 7  98897690.52846                  24151820.700
  24151813.580          46.700          38.400
 121739877.265 7  94686648.980 6                  22805961.380    22805964.460
  22805963.300          46.250          40.300
 115582245.127 7  89897331.623 7                  21614413.840    21614418.520
  21614416.440          44.000          43.800
 121250537.187 7  94305983.999 6                  22698355.240    22698358.020
  22698357.080          44.950          41.300
 126183911.181 7  98143065.589 5                  23605312.860    23605315.920
  23605315.860          43.200          34.150
 119090672.223 7  92626086.904 7                  22239341.660    22239343.080
  22239342.520          46.450          43.000
 106741229.724 7  83020903.200 6                  19989167.740    19989170.340
  19989167.920          47.350          37.050
 125165943.326 7  97351296.117 6                  23382053.560    23382057.320
  23382056.440          44.550          39.750
 106996172.945 8  83219245.903 7                  20001751.340    20001752.440
  20001750.840          49.250          46.550
 112121289.269 7  87205493.408 6                  21033655.160    21033662.060
  21033660.800          47.650          40.150
 139519459.237 7                 104186643.444 7  26549659.360
                        47.600
 138240686.472 6                                  26306341.620
                        41.850
 15  1 27 21  1 35.0000000  0 21G22G14G31G15G06G24G12G25G29G02R18R20
                                R16R01R08R09R07R19R10E19E20
 132470813.939 6 103224015.62446                  25208357.100
  25208352.880          41.750          36.950
 116365569.351 8  90674471.46246                  22143622.620
  22143618.220          48.650          41.800
 134114891.965 6 104505104.975 6                  25521216.440    25521213.880
  25521213.120          41.250          36.900
 129768721.639 7 101118507.458 6                  24694153.260    24694151.180
  24694150.640          45.450          38.950
 128620028.596 7 100223404.203 7  96047425.619 8  24475575.240    24475575.400
  24475574.520          43.650          42.050
 110727330.839 8  86281124.331 8  82686095.124 8  21070677.320    21070675.500
  21070674.800          49.550          49.700
 107471438.802 8  83744090.277 8                  20451067.140    20451062.760
  20451062.060          49.550          48.450
 109718585.308 8  85495109.718 8  81932842.093 8  20878708.780    20878706.920
  20878706.040          49.800          48.700
 118797568.826 8  92569688.065 7                  22606360.460    22606357.440
  22606356.700          49.900          44.500
 126909621.129 7  98890603.23446                  24150089.880
  24150082.800          46.800          37.950
 121757261.012 7  94700169.666 6                  22809217.980    22809221.020
  22809219.940          46.350          40.600
 115562025.950 7  89881605.603 7                  21610632.760    21610637.480
  21610635.340          44.050          44.000
 121263548.478 7  94316103.874 6                  22700790.980    22700793.740
  22700792.880          45.250          41.300
 126176065.748 7  98136963.623 5                  23603845.160    23603848.420
  23603848.180          43.050          34.050
 119098748.372 7  92632368.352 7                  22240849.800    22240851.260
  22240850.680          46.200          43.400
 106743671.021 7  83022801.972 6                  19989624.900    19989627.540
  19989625.100          47.400          36.900
 125184959.590 7  97366086.512 6                  23385605.960    23385609.740
  23385608.860          43.800          39.400
 106993482.764 8  83217153.542 7                  20001248.480    20001249.520
  20001247.940          49.000          46.450
 112110172.076 7  87196846.699 6                  21031569.620    21031576.460
  21031575.240          47.850          40.200
 139530721.122 7                 104195053.288 7  26551802.460
                        47.500
 138254638.881 6                                  26308996.760
                        41.800
 15  1 27 21  1 40.0000000  0 21G22G14G31G15G06G24G12G25G29G02R18R20
                                R16R01R08R09R07R19R10E19E20
 132480714.541 6 103231730.36245                  25210241.140
  25210237.020          41.550          35.150
 116356307.834 8  90667254.69647                  22141860.260
  22141855.780          48.850          42.000
 134099612.463 6 104493198.897 5                  25518308.780    25518306.320
  25518305.440          41.850          35.900
 129786909.839 7 101132680.070 6                  24697614.340    24697612.320
  24697611.800          44.500          39.200
 128618129.962 7 100221924.777 6  96046007.832 8  24475213.960    24475214.120
  24475213.300          43.700          41.900
 110735233.761 8  86287282.452 8  82691996.664 8  21072181.140    21072179.360
  21072178.700          49.650          49.700
 107477143.137 8  83748535.218 8                  20452152.620    20452148.260
  20452147.540          49.550          48.500
 109712545.924 8  85490403.701 8  81928332.176 8  20877559.500    20877557.640
  20877556.780          49.850          48.750
 118780182.704 8  92556140.446 7                  22603052.000    22603048.940
  22603048.240          49.800          44.650
 126900532.886 7  98883521.48746                  24148360.440
  24148353.360          46.650          39.300
 121774657.311 7  94713700.123 6                  22812476.900    22812479.940
  22812478.900          46.150          40.500
 115541816.455 7  89865887.113 7                  21606853.500    21606858.220
  21606856.060          43.750          43.700
 121276564.804 7  94326227.691 6                  22703227.660    22703230.440
  22703229.600          44.550          41.400
 126168239.144 7  98130876.261 5                  23602381.000    23602384.320
  23602384.040          42.750          34.000
 119106842.509 7  92638663.786 7                  22242361.340    22242362.780
  22242362.240          46.800          43.500
 106746120.434 7  83024707.078 6                  19990083.600    19990086.260
  19990083.820          47.450          36.900
 125203978.997 7  97380879.332 6                  23389158.940    23389162.760
  23389161.900          44.150          39.950
 106990815.796 8  83215079.234 7                  20000749.940    20000750.960
  20000749.380          48.900          46.600
 112099058.120 8  87188202.520 6                  21029484.700    21029491.460
  21029490.280          48.150          40.150
 139541988.367 7                 104203467.146 7  26553946.540
                        47.550
 138268588.338 7                                  26311651.320
                        42.300
 15  1 27 21  1 45.0000000  0 21G22G14G31G15G06G24G12G25G29G02R18R20
                                R16R01R08R09R07R19R10E19E20
 132490620.577 7 103239449.31944                  25212126.160
  25212122.160          42.400          29.800
 116347061.202 8  90660049.53347                  22140100.720
  22140096.220          48.750          42.050
 134084332.956 7 104481292.779 6                  25515401.140    25515398.680
  25515397.760          42.400          36.200
 129805099.372 7 101146853.691 6                  24701075.700    24701073.780
  24701073.120          44.050          39.000
 128616246.810 7 100220457.403 6  96044601.578 7  24474855.620    24474855.740
  24474854.960          43.750          41.350
 110743147.584 8  86293449.066 8  82697906.333 8  21073687.000    21073685.320
  21073684.640          49.700          49.600
 107482856.714 8  83752987.347 8                  20453239.880    20453235.500
  20453234.780          49.700          48.400
 109706516.591 8  85485705.517 8  81923829.749 8  20876412.140    20876410.300
  20876409.420          49.850          48.700
 118762804.657 8  92542599.122 7                  22599745.080    22599742.040
  22599741.280          49.700          44.550
 126891453.173 7  98876446.39846                  24146632.640
  24146625.520          46.650          37.750
 121792067.651 7  94727241.505 6                  22815738.500    22815741.480
  22815740.480          46.050          40.550
 115521618.194 7  89850177.355 7                  21603076.380    21603081.040
  21603078.860          44.150          43.700
 121289587.631 7  94336356.534 6                  22705665.480    22705668.420
  22705667.560          44.800          41.250
 126160432.999 7  98124804.831 5                  23600920.700    23600924.000
  23600923.700          43.000          34.000
 119114956.047 7  92644974.311 7                  22243876.520    22243877.880
  22243877.420          47.000          43.450
 106748579.481 7  83026619.666 6                  19990544.100    19990546.780
  19990544.340          47.750          36.650
 125223002.786 7  97395675.572 6                  23392712.820    23392716.620
  23392715.760          44.850          39.600
 106988173.476 8  83213024.093 7                  20000256.020    20000257.000
  20000255.440          49.050          46.600
