     2.11           OBSERVATION DATA    M (MIXED)           RINEX VERSION / TYPE
teqc  2011Oct11     IGN-E (SPG)         20150127 10:00:49UTCPGM / RUN BY / DATE
Linux 2.4.21-27.ELsmp|Opteron|gcc -static|Linux x86_64|=+   COMMENT
BIT 2 OF LLI FLAGS DATA COLLECTED UNDER A/S CONDITION       COMMENT
VALE                                                        MARKER NAME
13439M001                                                   MARKER NUMBER
Programas GeodesicosInstituto Geografico Nacional           OBSERVER / AGENCY
1700071             LEICA GR10          3.03/6.214          REC # / TYPE / VERS
10190012            LEIAR25.R3      LEIT                    ANT # / TYPE
  4929534.0457   -29050.6755  4033709.9250                  APPROX POSITION XYZ
        3.0390        0.0000        0.0000                  ANTENNA: DELTA H/E/N
     1     1                                                WAVELENGTH FACT L1/2
     8    L1    L2    L5    C1    C2    P2    S1    S2      # / TYPES OF OBSERV
     5.0000                                                 INTERVAL
Forced Modulo Decimation to 5 seconds                       COMMENT
DefaultJobName                                              COMMENT
DefaultUserDiscription                                      COMMENT
Project creator:                                            COMMENT
 SNR is mapped to RINEX snr flag value [0-9]                COMMENT
  L1 & L2: min(max(int(snr_dBHz/6), 0), 9)                  COMMENT
  2015     1    27     9     0    0.0000000     GPS         TIME OF FIRST OBS
    15                                                      LEAP SECONDS
                                                            END OF HEADER
 15  1 27  9  0  0.0000000  0 23G11G06G28G08G04G17G03G23G31G09G19G20
                                G32G01R24R17R02R08R09R10R03R23R01
 113333216.343 8  88311580.24347                  21566593.960
  21566590.360          50.100          44.850
 132523222.586 6 103264849.907 6  98962145.490 7  25218331.300    25218332.900
  25218332.280          40.900          40.400
 130241219.377 7 101486618.52645                  24784090.340
  24784089.220          42.450          34.000
 132148179.612 7 102972619.95545                  25146959.700
  25146961.800          44.050          35.600
 117567145.050 8  91610765.25547                  22372280.940
  22372278.900          49.350          42.750
 115654078.109 8  90120016.620 7                  22008244.260    22008240.700
  22008240.120          49.900          46.300
 106917849.526 8  83312610.598 8  79841255.335 8  20345787.440    20345787.160
  20345786.460          50.200          49.800
 114344998.328 8  89099965.86347                  21759124.540
  21759119.460          50.600          44.950
 127663808.440 7  99478288.116 6                  24293611.420    24293611.360
  24293610.520          45.600          39.550
 125056774.855 7  97446855.004 7  93386577.031 8  23797506.540    23797507.700
  23797507.380          47.500          43.450
 136116733.287 7 106064931.68046                  25902173.900
  25902175.260          42.150          36.850
 116248900.655 8  90583520.29747                  22121433.540
  22121429.940          49.400          42.900
 116446732.456 8  90737730.91547                  22159065.040
  22159061.940          49.450          43.550
 108485629.469 8  84534272.459 8  81012000.060 8  20644126.400    20644125.760
  20644125.540          50.350          49.700
 104355008.902 7  81165021.427 7                  19514913.480    19514915.700
  19514913.620          47.750          42.650
 108962891.859 8  84748916.134 7                  20362326.420    20362328.180
  20362326.940          48.750          46.450
 107414907.872 8  83544946.036 7                  20129508.880    20129512.960
  20129512.040          49.200          46.450
 126785315.845 7  98610803.839 6                  23676265.240    23676268.660
  23676267.900          45.100          40.850
 131615691.95415                                  24647390.920
                        30.700
 128070007.021 7  99610061.328 5                  24025604.580    24025616.220
  24025615.140          43.100          32.500
 129335530.359 6 100594318.983 6                  24160962.160    24160968.340
  24160967.280          41.400          39.550
 123079313.745 7  95728360.989 6                  23008387.420    23008393.360
  23008392.380          45.450          39.950
 106470059.889 8  82810055.752 7                  19917422.160    19917426.860
  19917426.500          48.250          42.750
 15  1 27  9  0  5.0000000  0 23G11G06G28G08G04G17G03G23G31G09G19G20
                                G32G01R24R17R02R08R09R10R03R23R01
 113346494.601 8  88321926.92747                  21569120.740
  21569117.120          50.250          44.850
 132507151.195 7 103252326.745 6  98950144.088 7  25215273.060    25215274.640
  25215273.840          42.150          40.300
 130252434.986 7 101495357.94245                  24786224.580
  24786223.520          42.350          34.850
 132136784.349 7 102963740.54945                  25144791.240
  25144793.440          44.300          34.950
 117580436.480 8  91621122.20547                  22374810.240
  22374808.160          49.600          42.350
 115645924.580 8  90113663.212 7                  22006692.720    22006689.120
  22006688.540          50.050          46.200
 106919161.138 8  83313632.633 8  79842234.780 8  20346037.020    20346036.740
  20346036.040          50.200          49.750
 114332267.902 8  89090046.05147                  21756702.020
  21756696.940          50.550          45.350
 127660005.917 7  99475325.116 6                  24292887.760    24292887.780
  24292886.960          45.700          39.900
 125038274.130 7  97432438.862 7  93372761.583 8  23793986.000    23793987.100
  23793986.780          47.150          43.750
 136135249.510 7 106079359.89345                  25905697.440
  25905698.980          42.250          35.550
 116237146.200 8  90574360.97947                  22119196.780
  22119193.120          49.450          42.450
 116459838.539 8  90747943.43747                  22161559.060
  22161555.960          49.450          43.150
 108490723.015 8  84538241.456 8  81015803.668 8  20645095.700    20645095.040
  20645094.820          50.400          49.700
 104363785.815 7  81171847.917 7                  19516554.780    19516557.040
  19516554.940          47.900          42.450
 108949503.333 8  84738502.834 7                  20359824.460    20359826.220
  20359824.980          48.600          46.250
 107407002.555 8  83538797.452 7                  20128027.480    20128031.500
  20128030.580          49.350          46.400
 126803676.064 7  98625083.993 6                  23679693.860    23679697.340
  23679696.700          45.700          41.000
 131621253.388 5                                  24648432.180
                        30.800
 128061859.784 7  99603724.594 5                  24024076.200    24024087.920
  24024086.680          43.600          33.100
 129318119.948 6 100580777.627 6                  24157709.600    24157715.980
  24157714.800          41.200          38.600
 123100552.747 7  95744880.223 6                  23012357.760    23012363.700
  23012362.620          45.550          40.800
 106479890.326 8  82817701.646 7                  19919261.160    19919265.840
  19919265.520          48.550          42.600
 15  1 27  9  0 10.0000000  0 23G11G06G28G08G04G17G03G23G31G09G19G20
                                G32G01R24R17R02R08R09R10R03R23R01
 113359783.343 8  88332281.77347                  21571649.500
  21571645.880          50.200          45.000
 132491079.431 7 103239803.258 6  98938142.409 7  25212214.720    25212216.320
  25212215.460          42.450          41.050
 130263654.802 7 101504100.62745                  24788359.600
  24788358.580          42.800          32.150
 132125394.632 7 102954865.42946                  25142623.820
  25142625.980          44.300          36.200
 117593735.516 8  91631485.07747                  22377340.980
  22377338.880          49.400          43.100
 115637786.130 8  90107321.555 7                  22005144.020    22005140.460
  22005139.840          49.850          46.350
 106920482.183 8  83314662.006 8  79843221.261 8  20346288.400    20346288.140
  20346287.400          49.900          49.900
 114319548.501 8  89080134.83147                  21754281.620
  21754276.520          50.550          45.200
 127656217.689 7  99472373.270 6                  24292166.840    24292166.920
  24292166.080          45.900          39.950
 125019777.973 7  97418026.299 7  93358949.542 8  23790466.320    23790467.400
  23790467.080          46.900          44.050
 136153764.981 6 106093787.50545                  25909220.840
  25909222.480          40.950          33.300
 116225398.781 8  90565207.14047                  22116961.340
  22116957.680          49.400          42.900
 116472949.056 8  90758159.40647                  22164053.900
  22164050.800          49.200          44.000
 108495827.522 8  84542218.984 8  81019615.468 8  20646067.100    20646066.400
  20646066.200          50.300          49.750
 104372583.848 7  81178690.825 7                  19518200.020    19518202.320
  19518200.200          47.900          42.350
 108936130.923 8  84728102.072 7                  20357325.520    20357327.240
  20357326.020          48.750          46.300
 107399111.456 8  83532659.935 7                  20126548.740    20126552.700
  20126551.780          49.750          46.650
 126822035.638 7  98639363.630 6                  23683122.360    23683126.000
  23683125.340          45.250          40.750
 131626834.223 5                                  24649477.140
                        30.050
 128053730.094 7  99597401.538 5                  24022551.080    24022562.940
  24022561.600          44.350          32.300
 129300715.367 6 100567240.743 6                  24154458.240    24154464.640
  24154463.380          39.850          38.700
 123121799.049 7  95761405.079 6                  23016329.640    23016335.540
  23016334.400          46.650          41.750
 106489731.834 8  82825356.143 7                  19921102.240    19921106.920
  19921106.580          48.450          42.600
 15  1 27  9  0 15.0000000  0 23G11G06G28G08G04G17G03G23G31G09G19G20
                                G32G01R24R17R02R08R09R10R03R23R01
 113373081.142 8  88342643.68247                  21574180.000
  21574176.380          50.250          44.900
 132475005.794 7 103227278.337 6  98926139.309 7  25209156.040    25209157.620
  25209156.800          42.900          40.650
 130274877.283 7 101512845.38845                  24790495.180
  24790494.100          42.850          34.100
 132114008.933 7 102945993.46245                  25140457.140
  25140459.360          44.050          34.600
 117607040.712 8  91641852.75147                  22379872.880
  22379870.780          49.350          42.800
 115629661.281 8  90100990.497 7                  22003597.920    22003594.360
  22003593.720          49.800          46.250
 106921811.116 8  83315697.528 8  79844213.624 8  20346541.280    20346541.020
  20346540.280          49.850          49.850
 114306838.670 8  89070231.06447                  21751863.040
  21751857.900          50.650          45.150
 127652442.324 7  99469431.433 6                  24291448.360    24291448.520
  24291447.680          45.350          40.500
 125001284.912 7  97403616.147 7  93345139.808 8  23786947.200    23786948.280
  23786947.980          46.800          44.300
 136172278.200 6 106108213.28145                  25912743.820
  25912745.420          41.300          33.550
 116213656.872 8  90556057.60047                  22114726.980
  22114723.280          49.250          42.700
 116486062.450 8  90768377.62147                  22166549.300
  22166546.220          49.000          44.000
 108500941.481 8  84546203.877 8  81023434.320 8  20647040.300    20647039.580
  20647039.360          50.500          49.750
 104381401.300 7  81185548.827 7                  19519848.880    19519851.220
  19519849.120          47.650          42.650
 108922773.116 8  84717712.661 7                  20354829.280    20354831.000
  20354829.780          48.750          46.400
 107391233.041 8  83526532.270 7                  20125072.400    20125076.240
  20125075.380          49.850          46.700
 126840392.977 7  98653641.537 6                  23686550.460    23686554.140
  23686553.460          44.900          40.150
 131632432.975 4                                  24650524.760
                        28.700
 128045616.509 7  99591091.002 5                  24021029.020    24021040.820
  24021039.540          44.550          31.600
 129283315.427 6 100553707.463 6                  24151207.760    24151214.100
  24151212.840          40.850          38.500
 123143051.319 7  95777934.576 6                  23020302.600    23020308.560
  23020307.420          46.100          41.500
 106499582.912 8  82833018.077 7                  19922945.100    19922949.760
  19922949.440          48.600          42.450
 15  1 27  9  0 20.0000000  0 23G11G06G28G08G04G17G03G23G31G09G19G20
                                G32G01R24R17R02R08R09R10R03R23R01
 113386388.831 8  88353013.30347                  21576712.380
  21576708.740          50.250          44.650
 132458931.119 7 103214752.594 6  98914135.438 7  25206097.180    25206098.720
  25206097.940          42.950          40.150
 130286103.279 7 101521592.96245                  24792631.480
  24792630.220          44.050          34.200
 132102628.103 7 102937125.30745                  25138291.360
  25138293.640          44.250          34.350
 117620352.920 8  91652225.89247                  22382406.120
  22382404.000          49.550          42.450
 115621550.869 8  90094670.692 7                  22002054.560    22002050.980
  22002050.360          49.900          46.200
 106923148.814 8  83316739.884 8  79845212.556 8  20346795.840    20346795.560
  20346794.820          50.000          49.850
 114294139.233 8  89060335.40347                  21749446.440
  21749441.280          50.750          45.300
 127648680.649 7  99466500.264 6                  24290732.520    24290732.680
  24290731.920          45.400          40.500
 124982795.793 7  97389209.073 7  93331333.038 8  23783428.840    23783429.920
  23783429.640          46.600          44.200
 136190790.019 7 106122638.01245                  25916266.500
  25916268.260          42.300          33.350
 116201921.343 8  90546913.03647                  22112493.820
  22112490.060          49.250          42.650
 116499179.584 8  90778598.75047                  22169045.360
  22169042.340          48.850          43.450
 108506065.708 8  84550196.779 8  81027260.851 8  20648015.420    20648014.680
  20648014.460          50.550          49.700
 104390239.006 7  81192422.589 7                  19521501.540    19521503.820
  19521501.820          47.850          42.650
 108909430.812 8  84707335.317 7                  20352335.960    20352337.640
  20352336.440          49.000          46.450
 107383368.061 8  83520415.063 7                  20123598.560    20123602.360
  20123601.480          49.750          46.800
 126858749.047 7  98667918.459 6                  23689978.300    23689982.080
  23689981.360          45.600          40.550
 131638050.511 4                                  24651577.020
                        29.350
 128037519.861 7  99584793.595 5                  24019510.120    24019521.800
  24019520.580          45.000          32.200
 129265920.880 6 100540178.421 6                  24147958.220    24147964.580
  24147963.320          41.600          38.750
 123164310.304 7  95794469.291 6                  23024276.720    23024282.760
  23024281.620          44.900          40.650
 106509444.220 8  82840687.976 7                  19924789.920    19924794.520
  19924794.180          48.750          42.700
 15  1 27  9  0 25.0000000  0 22G11G06G28G08G04G17G03G23G31G09G19G20
                                G32G01R24R17R02R08R10R03R23R01
 113399705.955 8  88363390.27747                  21579246.560
  21579242.920          50.000          44.900
 132442855.001 7 103202225.720 6  98902130.500 7  25203038.020    25203039.540
  25203038.800          42.350          39.900
 130297332.443 7 101530342.93445                  24794768.380
  24794767.020          43.700          32.900
 132091251.771 7 102928260.63745                  25136126.500
  25136128.780          44.600          34.400
 117633671.658 8  91662604.10947                  22384940.620
  22384938.460          49.100          42.800
 115613454.480 8  90088361.817 7                  22000513.860    22000510.300
  22000509.660          49.650          46.300
 106924494.797 8  83317788.706 8  79846217.677 8  20347051.980    20347051.700
  20347050.960          50.050          49.900
 114281449.760 8  89050447.51047                  21747031.700
  21747026.560          50.750          45.200
 127644932.221 7  99463579.417 6                  24290019.200    24290019.360
  24290018.580          45.650          40.300
 124964310.189 7  97374804.741 7  93317528.888 8  23779911.080    23779912.260
  23779911.940          46.100          44.300
 136209299.933 7 106137061.28445                  25919788.840
  25919790.680          42.650          33.850
 116190191.788 8  90537773.13247                  22110261.800
  22110258.000          49.100          43.200
 116512300.017 8  90788822.45447                  22171542.060
  22171539.080          48.750          43.550
 108511199.828 8  84554197.390 8  81031094.768 8  20648992.440    20648991.660
  20648991.480          50.450          49.750
 104399096.641 8  81199311.861 7                  19523157.940    19523160.280
  19523158.260          48.000          42.650
 108896103.680 8  84696969.771 7                  20349845.440    20349847.160
  20349845.920          49.100          46.200
 107375516.175 8  83514308.043 7                  20122127.160    20122130.920
  20122130.060          49.600          46.650
 126877103.255 7  98682193.930 6                  23693405.840    23693409.700
  23693408.900          45.550          40.250
 128029439.672 7  99578508.987 5                  24017994.260    24018005.880
  24018004.680          44.500          31.950
 129248531.172 6 100526653.159 6                  24144709.680    24144715.980
  24144714.820          41.100          38.500
 123185575.628 7  95811008.943 6                  23028252.000    23028258.060
  23028256.840          45.250          39.050
 106519315.617 8  82848365.725 7                  19926636.600    19926641.160
  19926640.820          48.800          42.550
 15  1 27  9  0 30.0000000  0 22G11G06G28G08G04G17G03G23G31G09G19G20
                                G32G01R24R17R02R08R10R03R23R01
 113413033.918 8  88373775.68447                  21581782.780
  21581779.160          49.800          44.800
 132426778.807 6 103189698.785 6  98890125.516 7  25199978.840    25199980.380
  25199979.620          41.600          39.300
 130308566.104 7 101539096.40945                  24796906.140
  24796904.500          43.100          34.050
 132079881.324 7 102919400.54745                  25133962.800
  25133964.860          45.650          35.600
 117646998.372 8  91672988.54647                  22387476.600
  22387474.460          49.250          42.250
 115605373.552 8  90082064.986 7                  21998976.120    21998972.540
  21998971.900          49.700          46.100
 106925850.525 8  83318845.114 8  79847230.064 8  20347309.980    20347309.680
  20347308.940          50.050          49.850
 114268771.703 8  89040568.50547                  21744619.160
  21744614.020          50.800          45.200
 127641198.511 7  99460670.039 6                  24289308.680    24289308.840
  24289308.120          45.350          40.350
 124945829.532 7  97360404.260 7  93303728.421 8  23776394.260    23776395.540
  23776395.200          46.150          44.350
 136227809.445 7 106151484.26245                  25923311.200
  25923313.100          43.350          34.850
 116178469.606 8  90528638.95647                  22108031.180
  22108027.380          49.000          43.000
 116525425.141 8  90799049.80447                  22174039.660
  22174036.740          48.800          43.600
 108516345.220 8  84558206.774 8  81034937.092 8  20649971.600    20649970.800
  20649970.620          50.350          49.650
 104407975.343 7  81206217.512 7                  19524818.280    19524820.660
  19524818.620          47.650          42.800
 108882793.103 8  84686617.089 7                  20347358.040    20347359.760
  20347358.480          49.000          46.200
 107367678.948 8  83508212.409 7                  20120658.520    20120662.220
  20120661.380          49.450          46.900
 126895457.097 7  98696469.117 6                  23696833.280    23696837.180
  23696836.400          45.350          40.250
 128021377.531 7  99572238.423 5                  24016481.800    24016493.400
  24016492.180          42.850          31.350
 129231147.877 6 100513132.861 6                  24141462.280    24141468.700
  24141467.480          40.350          39.300
 123206848.631 7  95827554.611 6                  23032228.800    23032234.760
  23032233.460          45.300          40.200
 106529198.237 8  82856052.206 7                  19928485.360    19928489.840
  19928489.560          48.800          42.900
 15  1 27  9  0 35.0000000  0 22G11G06G28G08G04G17G03G23G31G09G19G20
                                G32G01R24R17R02R08R10R03R23R01
 113426368.967 8  88384166.61147                  21584320.360
  21584316.760          49.850          45.150
 132410698.858 6 103177168.936 6  98878117.721 7  25196918.900    25196920.420
  25196919.760          41.550          39.000
 130319800.490 7 101547850.50445                  24799043.960
  24799042.220          42.600          33.550
 132068513.083 7 102910542.15245                  25131799.540
  25131801.380          45.650          33.650
 117660329.339 8  91683376.30947                  22390013.420
  22390011.260          49.250          42.700
 115597304.356 8  90075777.293 7                  21997440.600    21997437.020
  21997436.380          49.750          46.150
 106927212.202 8  83319906.157 8  79848246.895 8  20347569.120    20347568.800
  20347568.060          50.150          49.800
 114256101.289 8  89030695.45747                  21742208.080
  21742202.920          50.900          45.100
 127637475.765 7  99457769.196 6                  24288600.300    24288600.400
  24288599.700          44.900          40.400
 124927350.087 7  97346004.723 7  93289928.867 8  23772877.720    23772879.040
  23772878.700          46.550          44.450
 136246314.760 7 106165903.92545                  25926832.740
  25926834.720          44.150          35.300
 116166751.056 8  90519507.61847                  22105801.260
  22105797.380          49.250          42.800
 116538551.242 8  90809277.92347                  22176537.460
  22176534.580          48.950          43.400
 108521498.155 8  84562222.042 8  81038785.057 8  20650952.200    20650951.380
  20650951.180          50.400          49.700
 104416871.654 7  81213136.859 7                  19526481.920    19526484.300
  19526482.300          47.750          43.100
 108869495.214 8  84676274.282 7                  20344872.980    20344874.720
  20344873.420          49.050          46.150
 107359852.371 8  83502125.062 7                  20119191.840    20119195.540
  20119194.720          49.700          46.850
 126913806.775 7  98710741.054 6                  23700259.900    23700263.860
  23700263.120          45.250          39.950
 128013329.610 7  99565978.924 5                  24014971.940    24014983.420
  24014982.340          42.700          32.650
 129213767.251 6 100499614.606 6                  24138215.420    24138221.860
  24138220.640          40.800          39.350
 123228125.582 7  95844103.309 6                  23036206.400    23036212.300
  23036210.940          46.550          41.100
 106539088.480 8  82863744.611 7                  19930335.600    19930340.000
  19930339.760          48.700          42.800
 15  1 27  9  0 40.0000000  0 22G11G06G28G08G04G17G03G23G31G09G19G20
                                G32G01R24R17R02R08R10R03R23R01
 113439715.110 8  88394566.19347                  21586860.040
  21586856.440          49.950          44.900
 132394619.164 6 103164639.288 6  98866110.142 7  25193858.960    25193860.600
  25193859.840          41.500          38.500
 130331039.697 6 101556608.30245                  24801182.600
  24801180.980          40.850          35.600
 132057151.063 7 102901688.62645                  25129637.480
  25129639.180          45.850          32.600
 117673668.602 8  91693770.52247                  22392551.780
  22392549.620          49.450          42.950
 115589250.962 8  90069501.916 7                  21995908.080    21995904.520
  21995903.880          49.700          46.350
 106928583.932 8  83320975.035 8  79849271.240 8  20347830.160    20347829.820
  20347829.100          50.100          49.800
 114243442.634 8  89020831.57447                  21739799.240
  21739794.080          50.900          44.850
 127633768.001 7  99454880.043 6                  24287894.700    24287894.800
  24287894.140          45.150          40.200
 124908875.907 7  97331609.295 7  93276133.270 8  23769362.120    23769363.520
  23769363.200          46.200          44.550
 136264819.940 7 106180323.53545                  25930354.180
  25930356.240          42.650          32.600
 116155040.220 8  90510382.29347                  22103572.780
  22103568.880          49.350          42.900
 116551682.333 8  90819509.92747                  22179036.200
  22179033.380          49.100          43.350
 108526662.675 8  84566246.337 8  81042641.677 8  20651935.020    20651934.160
  20651933.980          50.500          49.650
 104425789.480 7  81220072.936 7                  19528149.600    19528151.980
  19528149.980          47.800          42.900
 108856214.239 8  84665944.635 7                  20342391.100    20342392.840
  20342391.520          48.650          46.150
 107352040.571 8  83496049.217 7                  20117727.920    20117731.640
  20117730.840          49.600          46.800
 126932156.400 7  98725012.957 6                  23703686.580    23703690.500
  23703689.820          45.800          39.950
 128005299.944 7  99559733.676 5                  24013465.600    24013477.020
  24013475.960          42.800          33.500
 129196393.279 6 100486101.556 6                  24134969.800    24134976.280
  24134975.020          41.600          39.200
 123249410.450 7  95860658.181 6                  23040185.480    23040191.340
  23040190.040          46.100          41.350
 106548990.270 8  82871445.988 7                  19932187.980    19932192.300
  19932192.140          48.850          42.650
 15  1 27  9  0 45.0000000  0 22G11G06G28G08G04G17G03G23G31G09G19G20
                                G32G01R24R17R02R08R10R03R23R01
 113453071.371 8  88404973.65947                  21589401.640
  21589398.060          49.900          44.950
 132378538.824 7 103152109.110 6  98854102.025 7  25190798.980    25190800.540
  25190799.760          42.000          38.200
 130342282.658 6 101565369.04345                  24803321.860
  24803320.560          40.150          35.950
 132045794.314 7 102892839.23145                  25127476.440
  25127478.020          45.950          34.300
 117687015.060 8  91704170.34647                  22395091.520
  22395089.340          49.550          42.800
 115581212.402 8  90063238.098 7                  21994378.380    21994374.860
  21994374.220          49.650          46.250
 106929964.671 8  83322050.934 8  79850302.308 8  20348092.940    20348092.560
  20348091.840          49.950          49.700
 114230794.744 8  89010976.07947                  21737392.440
  21737387.280          50.800          44.800
 127630074.281 7  99452001.849 6                  24287191.780    24287191.940
  24287191.260          45.050          39.950
 124890406.047 7  97317217.238 7  93262340.868 8  23765847.340    23765848.820
  23765848.520          46.200          44.250
 136283323.955 7 106194742.18345                  25933875.420
  25933877.500          42.000          32.400
 116143336.076 8  90501262.18547                  22101345.580
  22101341.640          49.400          42.700
 116564817.439 8  90829745.07147                  22181535.720
  22181532.940          49.000          43.450
 108531837.810 8  84570278.904 8  81046506.217 8  20652919.820    20652918.980
  20652918.780          50.450          49.650
 104434727.913 7  81227025.035 7                  19529821.160    19529823.540
  19529821.540          47.800          42.700
 108842949.214 8  84655627.398 7                  20339912.160    20339913.940
  20339912.620          48.600          46.050
 107344242.698 8  83489984.217 7                  20116266.620    20116270.300
  20116269.560          49.650          46.650
 126950504.975 7  98739284.059 6                  23707113.080    23707117.020
  23707116.360          45.650          40.400
 127997287.682 7  99553501.966 5                  24011962.580    24011974.040
  24011972.980          43.100          33.200
 129179025.013 7 100472592.963 6                  24131725.220    24131731.760
  24131730.440          42.100          38.950
 123270702.288 7  95877218.475 6                  23044165.820    23044171.680
  23044170.360          45.350          41.300
 106558902.702 8  82879155.645 7                  19934042.340    19934046.600
  19934046.500          48.850          42.350
 15  1 27  9  0 50.0000000  0 22G11G06G28G08G04G17G03G23G31G09G19G20
                                G32G01R24R17R02R08R10R03R23R01
 113466437.000 8  88415388.41847                  21591945.040
  21591941.460          49.850          45.050
 132362456.944 6 103139577.724 6  98842092.788 7  25187738.720    25187740.260
  25187739.400          41.100          37.800
 130353528.629 6 101574132.08745                  24805461.800
  24805460.660          41.100          35.900
 132034442.057 7 102883993.31345                  25125316.240
  25125317.700          45.650          32.900
 117700368.024 8  91714575.24247                  22397632.500
  22397630.320          49.400          42.600
 115573187.834 8  90056985.183 7                  21992851.320    21992847.840
  21992847.220          49.400          46.350
 106931353.659 8  83323133.264 8  79851339.527 8  20348357.280    20348356.880
  20348356.160          49.950          49.750
 114218156.812 8  89001128.34447                  21734987.500
  21734982.360          50.700          44.950
 127626393.838 7  99449133.990 6                  24286491.400    24286491.520
  24286490.880          44.900          40.600
 124871939.719 7  97302827.928 7  93248551.102 8  23762333.260    23762334.840
  23762334.500          46.700          44.250
 136301825.973 7 106209159.30745                  25937396.320
  25937398.260          42.750          33.650
 116131637.810 8  90492146.65447                  22099119.480
  22099115.520          49.350          42.600
 116577955.732 8  90839982.68147                  22184035.820
  22184033.120          49.050          43.300
 108537022.770 8  84574319.126 8  81050378.082 8  20653906.520    20653905.660
  20653905.440          50.550          49.700
 104443686.121 7  81233992.539 7                  19531496.420    19531498.820
  19531496.800          47.750          42.650
 108829699.285 8  84645321.906 7                  20337436.060    20337437.900
  20337436.560          48.650          46.050
 107336457.787 8  83483929.288 7                  20114807.740    20114811.440
  20114810.700          49.450          46.600
 126968851.612 7  98753553.634 6                  23710539.200    23710543.120
  23710542.500          45.600          39.950
 127989291.883 7  99547283.032 5                  24010462.600    24010474.040
  24010473.100          42.450          32.700
 129161661.581 6 100459088.121 6                  24128481.500    24128488.020
  24128486.700          41.000          38.400
 123292000.359 7  95893783.592 6                  23048147.180    23048153.220
  23048151.840          45.400          41.350
 106568824.952 8  82886872.924 7                  19935898.540    19935902.780
  19935902.700          48.600          42.200
 15  1 27  9  0 55.0000000  0 22G11G06G28G08G04G17G03G23G31G09G19G20
                                G32G01R24R17R02R08R10R03R23R01
 113479811.903 8  88425810.40647                  21594490.220
  21594486.620          49.800          45.000
 132346373.561 6 103127045.179 6  98830082.432 7  25184678.120    25184679.680
  25184678.760          40.750          38.150
 130364777.626 7 101582897.47645                  24807602.420
  24807601.340          42.900          34.500
 132023094.229 7 102875150.87045                  25123156.820
  25123158.400          45.100          34.550
 117713727.464 8  91724985.17347                  22400174.720
  22400172.540          49.600          42.550
 115565177.271 8  90050743.184 7                  21991326.940    21991323.500
  21991322.880          49.350          46.400
 106932750.836 8  83324221.971 8  79852382.878 8  20348623.160    20348622.760
  20348622.060          49.950          49.800
 114205528.822 8  88991288.35747                  21732584.460
  21732579.340          50.600          45.100
 127622726.570 7  99446276.400 6                  24285793.500    24285793.640
  24285793.060          44.650          39.600
 124853476.863 7  97288441.314 7  93234763.949 8  23758819.820    23758821.440
  23758821.100          46.600          44.400
 136320326.023 7 106223574.92645                  25940916.800
  25940918.680          42.900          31.900
 116119945.427 8  90483035.70047                  22096894.520
  22096890.500          49.200          42.700
 116591097.183 8  90850222.75847                  22186536.560
  22186533.900          49.100          43.550
 108542217.491 8  84578366.956 8  81054257.259 8  20654895.060    20654894.200
  20654893.980          50.550          49.750
 104452663.913 8  81240975.260 7                  19533175.320    19533177.740
  19533175.700          48.000          42.550
 108816464.468 8  84635028.156 7                  20334962.780    20334964.640
  20334963.320          48.900          46.100
 107328685.869 8  83477884.455 7                  20113351.300    20113355.000
  20113354.280          49.300          46.550
 126987196.374 7  98767821.768 6                  23713964.920    23713968.920
  23713968.280          45.450          39.750
 127981312.468 7  99541076.818 5                  24008965.680    24008977.180
  24008976.320          43.400          32.700
 129144303.001 6 100445587.033 6                  24125238.700    24125245.140
  24125243.880          41.400          38.150
 123313304.444 7  95910353.380 7                  23052129.760    23052135.900
  23052134.500          46.850          42.150
 106578757.019 8  82894597.852 7                  19937756.580    19937760.820
  19937760.720          48.800          42.400
 15  1 27  9  1  0.0000000  0 22G11G06G28G08G04G17G03G23G31G09G19G20
                                G32G01R24R17R02R08R10R03R23R01
 113493197.246 8  88436240.53347                  21597037.380
  21597033.740          50.200          44.850
 132330289.779 6 103114512.321 6  98818071.798 7  25181617.480    25181619.060
  25181618.160          41.650          38.800
 130376030.622 7 101591666.02045                  24809743.860
  24809742.800          43.200          33.050
 132011752.039 7 102866312.82245                  25120998.440
  25121000.100          45.550          34.750
 117727094.488 8  91735401.02947                  22402718.360
  22402716.200          49.750          42.650
 115557181.869 8  90044513.002 7                  21989805.440    21989802.060
  21989801.440          49.400          46.450
 106934157.328 8  83325317.939 8  79853433.180 8  20348890.820    20348890.400
  20348889.700          50.100          49.800
 114192911.921 8  88981457.00947                  21730183.520
  21730178.420          50.550          45.100
 127619073.661 7  99443429.988 6                  24285098.340    24285098.480
  24285097.820          45.850          39.650
 124835018.638 7  97274058.328 7  93220980.256 8  23755307.280    23755308.980
  23755308.600          46.850          44.300
 136338825.211 7 106237989.88545                  25944437.140
  25944438.900          42.900          33.950
 116108260.015 8  90473930.19247                  22094670.860
  22094666.800          49.200          42.650
 116604242.935 8  90860466.19447                  22189038.120
  22189035.480          49.150          43.250
 108547423.137 8  84582423.300 8  81058144.588 8  20655885.700    20655884.800
  20655884.580          50.550          49.750
 104461662.668 8  81247974.281 7                  19534858.160    19534860.580
  19534858.540          48.050          42.600
 108803245.939 8  84624747.077 7                  20332492.580    20332494.440
  20332493.120          49.050          46.250
 107320928.103 8  83471850.635 7                  20111897.500    20111901.240
  20111900.500          49.350          46.850
 127005540.339 7  98782089.271 6                  23717390.500    23717394.540
  23717393.940          45.100          39.450
 127973350.795 7  99534884.411 5                  24007472.040    24007483.600
  24007482.740          43.150          32.900
 129126950.562 6 100432090.725 6                  24121997.040    24122003.460
  24122002.240          41.050          38.500
 123334615.754 7  95926928.812 6                  23056113.800    23056119.900
  23056118.520          47.550          41.350
 106588699.878 8  82902331.189 7                  19939616.640    19939620.820
  19939620.740          49.000          42.150
 15  1 27  9  1  5.0000000  0 22G11G06G28G08G04G17G03G23G31G09G19G20
                                G32G01R24R17R02R08R10R03R23R01
 113506590.686 8  88446676.97447                  21599586.120
  21599582.400          50.200          44.750
 132314203.324 6 103101977.390 6  98806059.141 7  25178556.280    25178557.960
  25178557.100          41.800          39.750
 130387285.271 7 101600435.86045                  24811885.660
  24811884.620          44.400          32.850
 132000413.186 7 102857477.38345                  25118840.740
  25118842.460          45.250          35.350
 117740466.764 8  91745820.97047                  22405263.040
  22405260.860          49.550          42.600
 115549199.275 8  90038292.798 7                  21988286.360    21988283.040
  21988282.420          49.200          46.450
 106935570.838 8  83326419.371 8  79854488.715 8  20349159.820    20349159.360
  20349158.700          50.100          49.850
 114180303.817 8  88971632.51847                  21727784.260
  21727779.200          50.400          45.000
 127615432.841 7  99440592.989 6                  24284405.560    24284405.640
  24284404.820          46.050          38.850
 124816562.796 7  97259677.187 7  93207198.321 8  23751795.200    23751796.920
  23751796.600          46.900          43.800
 136357321.255 6 106252402.33945                  25947956.780
  25947958.560          41.900          33.350
 116096579.280 8  90464828.32047                  22092448.100
  22092444.020          48.950          43.350
 116617390.684 8  90870711.17347                  22191540.100
  22191537.460          49.100          43.400
 108552637.385 8  84586486.342 8  81062038.331 8  20656877.940    20656877.060
  20656876.840          50.400          49.800
 104470679.823 8  81254987.620 7                  19536544.420    19536546.840
  19536544.840          48.150          43.100
 108790041.356 8  84614476.841 7                  20330024.980    20330026.780
  20330025.560          48.750          46.550
 107313182.088 8  83465825.954 7                  20110445.920    20110449.640
  20110448.920          49.300          46.950
 127023881.080 7  98796354.271 6                  23720815.540    23720819.540
  23720818.960          44.900          39.350
 127965404.461 7  99528703.941 5                  24005981.340    24005992.900
  24005992.020          43.350          32.700
 129109601.642 6 100418597.166 6                  24118755.980    24118762.560
  24118761.320          40.250          38.750
 123355931.988 7  95943508.107 6                  23060098.720    23060104.800
  23060103.360          46.900          41.800
 106598651.213 8  82910071.121 7                  19941478.300    19941482.460
  19941482.320          48.950          42.300
 15  1 27  9  1 10.0000000  0 22G11G06G28G08G04G17G03G23G31G09G19G20
                                G32G01R24R17R02R08R10R03R23R01
 113519993.447 8  88457120.67947                  21602136.620
  21602132.840          50.200          44.950
 132298115.470 6 103089441.359 6  98794045.443 7  25175494.880    25175496.620
  25175495.820          41.900          40.150
 130398542.916 7 101609208.05745                  24814028.040
  24814026.800          43.850          35.000
 131989078.970 7 102848645.53145                  25116683.920
  25116685.580          45.650          33.550
 117753845.564 8  91756246.00547                  22407808.940
  22407806.780          49.600          42.950
 115541230.789 8  90032083.590 7                  21986770.000    21986766.700
  21986766.100          49.300          46.600
 106936992.659 8  83327527.289 8  79855550.461 8  20349430.400    20349429.940
  20349429.280          50.200          49.800
 114167705.786 8  88961815.87947                  21725386.920
  21725381.880          50.600          45.450
 127611805.340 7  99437766.357 6                  24283715.340    24283715.300
  24283714.460          45.550          39.650
 124798110.585 7  97245298.872 7  93193419.093 8  23748283.860    23748285.560
  23748285.240          47.100          44.100
 136375815.361 7 106266813.27846                  25951476.080
  25951477.880          42.000          36.000
 116084904.556 8  90455731.13947                  22090226.460
  22090222.380          48.850          43.350
 116630541.681 8  90880958.68647                  22194042.680
  22194040.000          49.150          43.200
 108557861.558 8  84590557.120 8  81065939.482 8  20657872.080    20657871.180
  20657870.960          50.400          49.700
 104479716.799 8  81262016.377 7                  19538234.400    19538236.880
  19538234.840          48.300          42.750
 108776852.024 8  84604218.480 7                  20327560.260    20327562.020
  20327560.800          48.650          46.300
 107305449.161 8  83459811.473 7                  20108996.760    20109000.520
  20108999.800          49.450          46.850
 127042220.003 7  98810617.876 6                  23724240.200    23724244.280
  23724243.580          44.750          39.600
 127957474.799 7  99522536.451 5                  24004493.800    24004505.400
  24004504.400          44.750          33.300
 129092257.805 6 100405107.550 6                  24115515.980    24115522.580
  24115521.300          39.750          37.900
 123377254.443 7  95960092.195 6                  23064084.680    23064090.840
  23064089.400          46.450          41.900
 106608612.397 8  82917818.712 7                  19943341.800    19943345.920
  19943345.720          49.100          42.300
 15  1 27  9  1 15.0000000  0 23G11G06G28G08G04G17G03G23G31G09G19G20
                                G32G01R24R17R02R08R10R03R18R23R01
 113533406.483 8  88467572.37647                  21604689.060
  21604685.200          50.350          44.750
 132282027.084 6 103076904.909 6  98782031.354 7  25172433.400    25172435.180
  25172434.440          41.850          41.000
 130409804.373 7 101617983.19245                  24816171.100
  24816169.840          43.050          34.800
 131977750.225 7 102839817.92545                  25114528.160
  25114529.540          45.800          31.950
 117767231.779 8  91766676.80247                  22410356.260
  22410354.100          49.700          42.750
 115533277.298 8  90025886.048 7                  21985256.480    21985253.200
  21985252.600          49.250          46.450
 106938423.605 8  83328642.302 8  79856619.024 8  20349702.700    20349702.240
  20349701.580          50.150          49.800
 114155118.686 8  88952007.74747                  21722991.660
  21722986.640          50.350          45.250
 127608192.067 7  99434950.820 6                  24283027.760    24283027.620
  24283026.780          45.350          39.350
 124779662.893 7  97230924.076 7  93179643.248 8  23744773.340    23744775.060
  23744774.720          47.000          43.600
 136394308.367 6 106281223.35345                  25954995.160
  25954997.040          41.550          35.200
 116073236.686 8  90446639.29047                  22088006.140
  22088002.060          48.900          43.300
 116643696.772 8  90891209.38647                  22196546.040
  22196543.320          49.050          43.100
 108563096.464 8  84594636.255 8  81069848.667 8  20658868.260    20658867.380
  20658867.160          50.400          49.700
 104488774.520 7  81269061.252 7                  19539928.260    19539930.720
  19539928.700          47.800          42.700
 108763678.847 8  84593972.669 7                  20325098.540    20325100.260
  20325099.080          48.650          46.250
 107297730.320 8  83453807.923 7                  20107550.240    20107553.980
  20107553.320          49.150          46.800
 127060557.989 7  98824880.708 6                  23727664.680    23727668.800
  23727668.080          45.300          39.550
 127949562.636 7  99516382.565 5                  24003009.520    24003020.920
  24003020.120          44.350          33.750
 129074919.733 6 100391622.419 6                  24112277.080    24112283.660
  24112282.320          40.900          37.850
 131460075.63317                                  24626902.120
                        42.300
 123398583.812 7  95976681.640 6                  23068071.960    23068078.220
  23068076.780          47.050          41.650
 106618584.313 8  82925574.630 7                  19945207.300    19945211.300
  19945211.140          49.050          42.250
 15  1 27  9  1 20.0000000  0 23G11G06G28G08G04G17G03G23G31G09G19G20
                                G32G01R24R17R02R08R10R03R18R23R01
 113546829.108 8  88478031.55347                  21607243.360
  21607239.400          50.250          44.300
 132265937.542 7 103064367.581 6  98770016.372 7  25169371.720    25169373.520
  25169372.800          42.150          41.350
 130421068.993 6 101626760.86145                  24818314.760
  24818313.300          41.950          33.150
 131966426.354 7 102830994.16245                  25112373.340
  25112374.580          45.500          34.400
 117780624.720 8  91777112.84647                  22412904.860
  22412902.680          49.750          42.050
 115525338.156 8  90019699.703 7                  21983745.700    21983742.440
  21983741.860          49.200          46.450
 106939863.061 8  83329763.953 8  79857693.949 8  20349976.640    20349976.160
  20349975.500          50.050          49.800
 114142541.878 8  88942207.65147                  21720598.360
  21720593.360          50.300          45.100
 127604592.315 7  99432145.822 6                  24282342.780    24282342.580
  24282341.760          45.700          39.450
 124761219.040 7  97216552.269 7  93165870.284 8  23741263.600    23741265.300
  23741264.940          46.800          43.550
 136412799.710 6 106295632.16746                  25958513.940
  25958515.820          40.050          36.650
 116061575.031 8  90437552.29147                  22085786.980
  22085782.920          48.950          42.850
 116656855.323 8  90901462.79247                  22199050.040
  22199047.280          49.200          42.800
 108568341.478 8  84598723.279 8  81073765.404 8  20659866.360    20659865.480
  20659865.260          50.300          49.700
 104497852.211 7  81276121.670 7                  19541625.860    19541628.300
  19541626.280          47.700          42.450
 108750521.151 8  84583738.906 7                  20322639.720    20322641.400
  20322640.220          48.350          46.300
 107290024.814 8  83447814.752 7                  20106106.240    20106109.960
  20106109.320          48.800          46.700
 127078894.253 7  98839142.226 6                  23731088.840    23731092.940
  23731092.200          45.250          39.650
 127941667.500 7  99510241.912 5                  24001528.380    24001539.900
  24001539.040          43.950          32.600
 129057587.000 6 100378141.442 6                  24109039.180    24109045.680
  24109044.360          41.250          38.050
 131438713.518 6                                  24622900.660    24622905.820
  24622904.440          40.350          33.850
 123419919.709 7  95993276.207 7                  23072060.520    23072066.820
  23072065.400          46.800          42.400
 106628566.283 8  82933338.374 7                  19947074.680    19947078.660
  19947078.440          48.700          42.000
 15  1 27  9  1 25.0000000  0 23G11G06G28G08G04G17G03G23G31G09G19G20
                                G32G01R24R17R02R08R10R03R18R23R01
 113560260.111 8  88488497.26247                  21609799.240
  21609795.200          50.350          44.400
 132249845.607 7 103051828.378 6  98757999.614 7  25166309.600    25166311.460
  25166310.740          42.650          41.400
 130432335.618 6 101635540.00045                  24820458.700
  24820457.080          40.700          33.900
 131955106.170 7 102822173.23745                  25110219.220
  25110220.420          45.900          35.550
 117794023.292 8  91787553.28346                  22415454.540
  22415452.380          49.800          41.800
 115517412.217 8  90013523.647 7                  21982237.420    21982234.160
  21982233.620          49.350          46.650
 106941309.833 8  83330891.299 8  79858774.317 8  20350251.980    20350251.480
  20350250.800          50.200          49.750
 114129974.201 8  88932414.65647                  21718206.780
  21718201.800          50.300          45.300
 127601004.999 7  99429350.507 6                  24281660.160    24281659.880
  24281659.020          46.200          39.750
 124742777.928 7  97202182.600 7  93152099.346 8  23737754.360    23737756.040
  23737755.600          46.750          42.900
 136431288.170 6 106310038.71245                  25962032.160
  25962034.100          41.000          33.800
 116049918.385 8  90428469.19447                  22083568.800
  22083564.700          49.200          42.650
 116670016.170 8  90911717.98947                  22201554.460
  22201551.700          49.150          43.100
 108573595.428 8  84602817.263 8  81077688.793 8  20660866.140    20660865.280
  20660865.060          50.350          49.650
 104506948.664 8  81283196.689 7                  19543326.940    19543329.360
  19543327.360          48.000          42.800
 108737377.817 8  84573516.313 7                  20320183.540    20320185.280
  20320184.080          48.650          46.600
 107282331.376 8  83441830.961 7                  20104664.480    20104668.220
  20104667.580          49.150          46.650
 127097227.689 7  98853401.538 6                  23734512.440    23734516.560
  23734515.840          45.300          40.100
 127933788.097 7  99504113.485 5                  24000050.200    24000061.720
  24000060.860          43.350          32.400
 129040258.195 6 100364663.540 6                  24105802.040    24105808.480
  24105807.120          41.800          37.300
 131417350.690 6 102213517.011 4                  24618898.660    24618904.120
  24618902.320          38.200          28.550
 123441260.470 7  96009874.528 7                  23076050.020    23076056.260
  23076054.900          47.050          42.000
 106638557.060 8  82941108.970 7                  19948943.700    19948947.580
  19948947.400          48.650          42.050
 15  1 27  9  1 30.0000000  0 23G11G06G28G08G04G17G03G23G31G09G19G20
                                G32G01R24R17R02R08R10R03R18R23R01
 113573701.530 8  88498971.08547                  21612357.080
  21612353.000          50.250          44.550
 132233753.374 6 103039288.952 6  98745982.632 7  25163247.420    25163249.280
  25163248.580          41.750          41.050
 130443606.277 6 101644322.33845                  24822603.320
  24822601.760          38.900          33.800
 131943791.721 7 102813356.83345                  25108066.200
  25108067.340          45.400          34.150
 117807429.450 8  91797999.62647                  22418005.660
  22418003.500          49.600          42.050
 115509501.521 8  90007359.466 7                  21980732.060    21980728.840
  21980728.300          49.500          46.600
 106942765.951 8  83332025.932 8  79859861.668 8  20350529.120    20350528.560
  20350527.900          50.150          49.750
 114117417.693 8  88922630.37047                  21715817.340
  21715812.360          50.350          45.400
 127597432.161 7  99426566.488 6                  24280980.300    24280979.960
  24280979.120          45.850          39.550
 124724341.537 7  97187816.606 7  93138331.954 8  23734246.000    23734247.660
  23734247.200          46.900          43.300
 136449775.742 6 106324444.57746                  25965550.220
  25965552.340          41.250          36.000
 116038268.813 8  90419391.60547                  22081351.960
  22081347.840          49.050          42.550
 116683181.259 8  90921976.48847                  22204059.700
  22204056.920          49.050          42.750
 108578860.357 8  84606919.798 8  81081620.387 8  20661868.020    20661867.140
  20661866.960          50.250          49.650
 104516066.011 8  81290287.951 7                  19545031.880    19545034.340
  19545032.340          48.100          42.650
 108724250.995 8  84563306.556 7                  20317730.480    20317732.200
  20317731.020          48.600          46.350
 107274652.084 8  83435858.180 7                  20103225.380    20103229.120
  20103228.480          49.600          46.650
 127115560.261 7  98867660.172 6                  23737935.980    23737940.000
  23737939.320          45.850          40.350
 127925926.442 7  99497998.883 5                  23998575.380    23998586.780
  23998586.000          43.600          32.600
 129022935.489 6 100351190.387 6                  24102566.000    24102572.380
  24102571.040          41.650          36.650
 131395989.405 6 102196897.289 4                  24614896.960    24614899.820
  24614899.920          38.350          29.650
 123462608.628 7  96026478.626 6                  23080040.840    23080047.140
  23080045.760          46.450          41.500
 106648558.743 8  82948888.040 6                  19950814.740    19950818.620
  19950818.420          48.750          41.950
 15  1 27  9  1 35.0000000  0 23G11G06G28G08G04G17G03G23G31G09G19G20
                                G32G01R24R17R02R08R10R03R18R23R01
 113587152.248 8  88509452.14947                  21614916.700
  21614912.580          50.250          44.800
 132217659.673 6 103026748.371 6  98733964.555 7  25160184.940    25160186.820
  25160186.100          41.600          40.800
 130454879.799 6 101653106.89345                  24824748.460
  24824746.800          41.500          32.600
 131932481.847 7 102804543.96445                  25105914.000
  25105915.140          45.050          35.400
 117820842.072 8  91808451.00347                  22420558.000
  22420555.860          49.650          42.400
 115501604.868 8  90001206.228 7                  21979229.360    21979226.180
  21979225.660          49.400          46.600
 106944230.266 8  83333166.957 8  79860955.150 8  20350807.780    20350807.200
  20350806.540          50.200          49.800
 114104871.243 8  88912853.91847                  21713429.820
  21713424.860          50.200          45.350
 127593872.607 7  99423792.822 6                  24280302.960    24280302.560
  24280301.740          45.700          39.950
 124705908.796 7  97173453.455 7  93124567.268 8  23730738.360    23730739.960
  23730739.500          46.900          43.100
 136468261.241 6 106338848.84645                  25969067.920
  25969070.000          41.400          35.300
 116026625.175 8  90410318.64147                  22079136.260
  22079132.160          48.700          43.150
 116696349.508 8  90932237.45147                  22206565.520
  22206562.760          48.950          43.400
 108584135.104 8  84611029.980 8  81085559.312 8  20662871.780    20662870.920
  20662870.740          50.300          49.750
 104525203.059 8  81297394.533 7                  19546740.560    19546743.040
  19546741.000          48.050          42.850
 108711139.279 8  84553108.549 7                  20315280.200    20315281.960
  20315280.800          48.850          46.400
 107266985.823 8  83429895.533 7                  20101788.720    20101792.500
  20101791.820          49.400          46.650
 127133890.887 7  98881917.319 6                  23741359.100    23741363.100
  23741362.480          45.000          40.200
 127918081.431 7  99491897.225 5                  23997103.720    23997115.060
  23997114.240          43.700          32.400
 129005617.753 6 100337721.085 6                  24099330.900    24099337.120
  24099335.880          41.700          36.550
 131374628.379 6 102180279.407 5                  24610895.500    24610903.160
  24610898.660          36.550          30.850
 123483962.776 7  96043087.376 7                  23084032.720    23084039.100
  23084037.740          45.900          42.200
 106658570.033 8  82956674.593 7                  19952687.600    19952691.400
  19952691.240          48.700          42.550
 15  1 27  9  1 40.0000000  0 23G11G06G28G08G04G17G03G23G31G09G19G20
                                G32G01R24R17R02R08R10R03R18R23R01
 113600613.229 8  88519941.21547                  21617478.300
  21617474.120          50.300          44.800
 132201565.517 6 103014207.435 6  98721946.177 7  25157122.360    25157124.260
  25157123.520          41.350          40.500
 130466157.169 6 101661894.40045                  24826894.440
  24826892.520          41.750          34.550
 131921177.587 7 102795735.46745                  25103762.840
  25103764.040          45.250          34.850
 117834262.174 8  91818908.21347                  22423111.760
  22423109.620          49.400          43.050
 115493723.298 8  89995064.745 7                  21977729.560    21977726.360
  21977725.840          49.600          46.650
 106945703.763 8  83334315.138 8  79862055.486 8  20351088.200    20351087.600
  20351086.940          50.150          49.800
 114092335.850 8  88903086.08747                  21711044.400
  21711039.460          50.300          45.450
 127590327.395 7  99421030.317 6                  24279628.360    24279627.960
  24279627.200          45.650          40.050
 124687480.659 7  97159093.896 7  93110806.028 8  23727231.600    23727233.120
  23727232.660          46.800          43.100
 136486745.645 6 106353252.26345                  25972585.380
  25972587.460          41.800          33.600
 116014988.469 8  90401251.08247                  22076921.860
  22076917.760          48.750          43.050
 116709521.880 8  90942501.62647                  22209072.140
  22209069.360          48.600          43.600
