     2.11           OBSERVATION DATA    M (MIXED)           RINEX VERSION / TYPE
teqc  2011Oct11     IGN-E (SPG)         20150127 07:00:49UTCPGM / RUN BY / DATE
Linux 2.4.21-27.ELsmp|Opteron|gcc -static|Linux x86_64|=+   COMMENT
BIT 2 OF LLI FLAGS DATA COLLECTED UNDER A/S CONDITION       COMMENT
VALE                                                        MARKER NAME
13439M001                                                   MARKER NUMBER
Programas GeodesicosInstituto Geografico Nacional           OBSERVER / AGENCY
1700071             LEICA GR10          3.03/6.214          REC # / TYPE / VERS
10190012            LEIAR25.R3      LEIT                    ANT # / TYPE
  4929534.0457   -29050.6755  4033709.9250                  APPROX POSITION XYZ
        3.0390        0.0000        0.0000                  ANTENNA: DELTA H/E/N
     1     1                                                WAVELENGTH FACT L1/2
     8    L1    L2    L5    C1    C2    P2    S1    S2      # / TYPES OF OBSERV
     5.0000                                                 INTERVAL
Forced Modulo Decimation to 5 seconds                       COMMENT
DefaultJobName                                              COMMENT
DefaultUserDiscription                                      COMMENT
Project creator:                                            COMMENT
 SNR is mapped to RINEX snr flag value [0-9]                COMMENT
  L1 & L2: min(max(int(snr_dBHz/6), 0), 9)                  COMMENT
  2015     1    27     6     0    0.0000000     GPS         TIME OF FIRST OBS
    15                                                      LEAP SECONDS
                                                            END OF HEADER
 15  1 27  6  0  0.0000000  0 22G11G14G28G04G16G03G18G22G27G19G32G01
                                R24R14R08R07R22R15R13R23R01E11
 110732787.416 8  86285280.21647                  21071742.200
  21071736.900          49.550          45.250
 123081336.421 7  95907522.72046                  23421598.760
  23421594.000          47.100          38.400
 129739097.496 7 101095371.31945                  24688527.080
  24688521.780          45.250          33.300
 107235806.916 8  83560382.77047                  20406284.640
  20406279.760          50.550          47.000
 130497697.639 7 101686515.62445                  24832886.080
  24832881.340          43.100          33.600
 126596646.332 7  98646738.346 7  94536461.211 8  24090538.200    24090537.100
  24090536.280          46.750          42.700
 133873451.347 7 104316969.55245                  25475261.620
  25475255.760          42.100          32.500
 117091709.828 8  91240303.68247                  22281796.680
  22281789.140          49.150          45.050
 112195983.524 8  87425451.786 8  83782719.215 8  21350180.780    21350178.920
  21350178.240          50.250          49.450
 107543912.023 8  83800431.90548                  20464919.860
  20464912.620          50.100          49.950
 110059161.243 8  85760408.72747                  20943545.700
  20943541.820          50.050          45.900
 116448000.751 8  90738722.352 7  86957932.473 8  22159311.660    22159310.180
  22159310.040          48.700          47.400
 122452072.323 7  95240519.322 6                  22899152.900    22899154.200
  22899152.280          44.950          37.350
 123523407.027 6  96073775.619 6                  23172678.860    23172684.880
  23172683.840          40.200          36.000
 104693419.895 8  81428236.203 7                  19550744.620    19550745.800
  19550745.000          49.000          47.750
 111184776.766 8  86477080.287 7                  20770242.620    20770243.540
  20770242.580          48.950          46.200
 111262736.979 8  86537714.914 7                  20843251.740    20843254.380
  20843253.180          49.800          46.650
 130757557.254 6 101700339.424 5                  24469495.080    24469499.580
  24469497.440          39.600          35.850
 127754348.422 6  99364494.802 6                  23924284.640    23924289.340
  23924287.560          36.450          39.750
 107277851.918 8  83438353.164 7                  20054457.080    20054459.980
  20054459.080          49.150          47.750
 121193167.408 7  94261363.023 6                  22671683.300    22671687.220
  22671686.920          45.600          38.050
 144412400.094 7                 107840531.354 7  27480715.840
                        46.750
 15  1 27  6  0  5.0000000  0 22G11G14G28G04G16G03G18G22G27G19G32G01
                                R24R14R08R07R22R15R13R23R01E11
 110723143.955 8  86277765.84047                  21069907.080
  21069901.820          49.700          44.950
 123073707.802 7  95901578.34346                  23420147.080
  23420142.360          46.800          38.500
 129726175.978 7 101085302.60045                  24686068.220
  24686062.840          45.050          33.650
 107231607.354 8  83557110.38847                  20405485.500
  20405480.620          50.400          47.250
 130516208.071 7 101700939.33745                  24836408.520
  24836403.700          43.400          34.050
 126578723.280 7  98632772.337 7  94523077.115 8  24087127.600    24087126.460
  24087125.640          46.600          42.750
 133889261.415 6 104329289.06344                  25478270.220
  25478264.220          41.700          29.550
 117104104.342 8  91249961.73647                  22284155.280
  22284147.740          49.350          44.800
 112206564.446 8  87433696.659 8  83790620.553 8  21352194.220    21352192.400
  21352191.760          50.300          49.450
 107546595.901 8  83802523.23648                  20465430.580
  20465423.340          50.100          50.100
 110047424.557 8  85751263.26347                  20941312.260
  20941308.400          50.250          45.450
 116437474.671 8  90730520.216 7  86950072.079 8  22157308.600    22157307.120
  22157306.980          48.550          47.350
 122435551.554 7  95227669.877 6                  22896063.440    22896064.660
  22896062.840          45.050          36.900
 123528156.537 6  96077469.686 5                  23173569.820    23173575.940
  23173574.820          40.200          35.650
 104685530.242 8  81422099.811 8                  19549271.240    19549272.460
  19549271.660          48.900          48.000
 111197507.963 8  86486982.331 7                  20772620.960    20772621.800
  20772620.840          49.200          46.400
 111272160.665 8  86545044.454 7                  20845017.120    20845019.760
  20845018.560          50.000          46.950
 130748980.995 6 101693669.027 6                  24467890.140    24467894.580
  24467892.520          39.100          36.300
 127770963.143 6  99377417.369 6                  23927396.080    23927400.660
  23927399.020          36.850          39.950
 107270640.925 8  83432744.622 7                  20053109.080    20053111.940
  20053111.060          49.050          47.850
 121171321.310 7  94244371.627 6                  22667596.540    22667600.540
  22667600.200          46.000          38.350
 144423470.118 7                 107848797.938 7  27482822.400
                        46.650
 15  1 27  6  0 10.0000000  0 22G11G14G28G04G16G03G18G22G27G19G32G01
                                R24R14R08R07R22R15R13R23R01E11
 110713506.370 8  86270256.03947                  21068073.080
  21068067.880          49.850          45.350
 123066089.059 7  95895641.66946                  23418697.280
  23418692.540          46.700          39.000
 129713261.991 7 101075239.76145                  24683610.780
  24683605.400          44.950          35.900
 107227415.010 8  83553843.62747                  20404687.720
  20404682.840          50.400          47.200
 130534716.282 7 101715361.31845                  24839930.540
  24839925.660          43.650          33.300
 126560802.781 7  98618808.310 7  94509694.923 8  24083717.440    24083716.320
  24083715.540          46.550          43.000
 133905071.119 7 104341608.32245                  25481278.800
  25481272.940          42.600          30.800
 117116505.642 8  91259625.08947                  22286515.160
  22286507.640          49.350          44.600
 112217154.380 8  87441948.558 8  83798528.607 8  21354209.380    21354207.600
  21354206.960          50.200          49.600
 107549290.182 8  83804622.67148                  20465943.300
  20465936.060          50.200          50.150
 110035700.103 8  85742127.33347                  20939081.200
  20939077.300          50.400          45.800
 116426952.411 8  90722321.052 7  86942214.547 8  22155306.260    22155304.780
  22155304.620          48.600          47.400
 122419028.887 7  95214818.901 6                  22892973.640    22892974.800
  22892972.940          44.900          36.800
 123532924.179 6  96081177.865 5                  23174464.160    23174470.380
  23174469.220          39.900          35.750
 104677660.438 8  81415978.845 8                  19547801.600    19547802.840
  19547802.040          49.000          48.000
 111210254.933 8  86496896.638 7                  20775002.240    20775003.060
  20775002.080          49.150          46.400
 111281592.732 8  86552380.508 7                  20846784.100    20846786.720
  20846785.540          50.050          46.900
 130740421.213 6 101687011.431 5                  24466288.220    24466292.740
  24466290.740          39.950          35.650
 127787582.627 6  99390343.618 6                  23930508.380    23930513.060
  23930511.340          36.200          39.950
 107263437.309 8  83427141.810 8                  20051762.460    20051765.280
  20051764.440          49.100          48.000
 121149479.619 7  94227383.650 6                  22663510.660    22663514.600
  22663514.300          45.450          38.350
 144434541.660 7                 107857065.595 7  27484929.240
                        46.350
 15  1 27  6  0 15.0000000  0 22G11G14G28G04G16G03G18G22G27G19G32G01
                                R24R14R08R07R22R15R13R23R01E11
 110703877.040 8  86262752.66747                  21066240.660
  21066235.500          49.800          45.450
 123058482.577 7  95889714.53846                  23417249.800
  23417245.120          46.400          38.850
 129700357.803 7 101065184.55945                  24681155.220
  24681149.840          45.250          34.700
 107223232.176 8  83550584.27547                  20403891.760
  20403886.880          50.450          47.150
 130553224.627 7 101729783.40745                  24843452.580
  24843447.640          43.650          35.500
 126542887.191 7  98604848.109 7  94496316.392 8  24080308.240    24080307.120
  24080306.340          46.200          43.050
 133920882.798 7 104353929.10144                  25484287.740
  25484282.020          42.550          29.400
 117128916.066 8  91269295.54447                  22288876.760
  22288869.240          49.250          44.700
 112227755.668 8  87450209.291 8  83806445.151 8  21356226.700    21356224.960
  21356224.340          50.200          49.600
 107551997.192 8  83806732.02648                  20466458.440
  20466451.160          50.200          50.100
 110023990.163 8  85733002.70547                  20936852.880
  20936849.000          50.050          46.450
 116416436.349 8  90714126.716 7  86934361.649 8  22153305.080    22153303.600
  22153303.460          48.550          47.500
 122402506.755 7  95201968.350 6                  22889883.880    22889885.060
  22889883.220          44.000          37.650
 123537712.320 6  96084901.964 6                  23175362.380    23175368.620
  23175367.460          39.900          36.200
 104669812.746 8  81409875.092 7                  19546336.100    19546337.340
  19546336.540          49.050          47.950
 111223019.803 8  86506824.877 7                  20777386.840    20777387.680
  20777386.680          48.800          46.600
 111291035.486 8  86559724.872 7                  20848553.100    20848555.680
  20848554.500          49.850          46.700
 130731880.182 6 101680368.393 5                  24464689.820    24464694.460
  24464692.380          40.400          35.150
 127804209.088 5  99403275.314 6                  23933622.040    23933626.680
  23933624.980          35.700          39.800
 107256243.555 8  83421546.670 8                  20050417.680    20050420.500
  20050419.640          48.850          48.050
 121127644.746 7  94210400.975 6                  22659426.020    22659430.000
  22659429.660          45.400          38.650
 144445616.987 7                 107865336.137 7  27487036.760
                        46.400
 15  1 27  6  0 20.0000000  0 22G11G14G28G04G16G03G18G22G27G19G32G01
                                R24R14R08R07R22R15R13R23R01E11
 110694252.992 8  86255253.40947                  21064409.260
  21064404.120          49.900          45.000
 123050885.348 7  95883794.61546                  23415804.080
  23415799.440          46.550          37.550
 129687460.524 7 101055134.71745                  24678700.980
  24678695.520          45.600          34.400
 107219055.870 8  83547330.01147                  20403097.060
  20403092.140          50.700          47.000
 130571730.119 7 101744203.27945                  24846974.040
  24846969.140          44.150          33.600
 126524973.521 7  98590889.402 7  94482939.312 8  24076899.440    24076898.240
  24076897.440          45.950          42.950
 133936693.523 7 104366249.14745                  25487296.480
  25487290.700          42.600          31.000
 117141332.608 8  91278970.76847                  22291239.500
  22291232.020          49.300          44.700
 112238365.353 8  87458476.576 8  83814367.962 8  21358245.620    21358243.920
  21358243.320          50.250          49.550
 107554713.922 8  83808848.96048                  20466975.420
  20466968.140          50.350          50.100
 110012291.857 8  85723887.14447                  20934626.780
  20934622.920          49.950          46.200
 116405923.470 8  90705934.856 7  86926511.118 8  22151304.540    22151303.020
  22151302.900          48.300          47.450
 122385982.238 7  95189115.963 6                  22886793.700    22886794.900
  22886793.080          44.250          37.500
 123542517.958 6  96088639.680 6                  23176263.860    23176270.120
  23176268.980          39.900          36.200
 104661984.215 8  81403786.242 7                  19544874.200    19544875.420
  19544874.600          49.000          47.900
 111235799.544 8  86516764.667 7                  20779774.200    20779775.080
  20779774.060          48.600          46.300
 111300486.095 8  86567075.338 7                  20850323.540    20850326.120
  20850324.920          49.950          46.550
 130723354.885 6 101673737.600 5                  24463094.440    24463099.000
  24463096.920          40.400          35.550
 127820839.562 5  99416210.129 6                  23936736.300    23936741.080
  23936739.380          35.350          39.100
 107249056.602 8  83415956.824 7                  20049074.200    20049076.980
  20049076.120          49.000          47.950
 121105813.698 7  94193421.265 6                  22655342.120    22655346.000
  22655345.780          45.550          38.700
 144456693.161 7                 107873607.289 7  27489144.500
                        46.300
 15  1 27  6  0 25.0000000  0 22G11G14G28G04G16G03G18G22G27G19G32G01
                                R24R14R08R07R22R15R13R23R01E11
 110684636.766 8  86247760.25047                  21062579.340
  21062574.240          49.950          45.150
 123043299.978 7  95877883.94346                  23414360.620
  23414356.000          46.950          37.550
 129674572.683 7 101045092.24845                  24676248.520
  24676243.020          45.100          34.250
 107214888.638 8  83544082.81247                  20402304.060
  20402299.140          50.800          46.800
 130590235.311 7 101758622.90946                  24850495.480
  24850490.580          44.000          36.450
 126507064.360 7  98576934.197 7  94469565.590 8  24073491.460    24073490.220
  24073489.420          45.600          42.850
 133952505.804 6 104378570.42345                  25490305.440
  25490299.700          41.800          30.800
 117153757.819 8  91288652.74347                  22293603.920
  22293596.420          49.550          44.600
 112248985.964 8  87466752.373 8  83822298.934 8  21360266.620    21360264.940
  21360264.360          50.250          49.550
 107557442.928 8  83810975.46048                  20467494.740
  20467487.440          50.400          50.000
 110000607.656 8  85714782.56847                  20932403.360
  20932399.500          49.850          46.250
 116395416.352 8  90697747.495 7  86918664.896 8  22149305.040    22149303.560
  22149303.460          48.100          47.400
 122369457.890 7  95176263.704 6                  22883703.580    22883704.720
  22883702.960          44.550          37.550
 123547343.663 6  96092392.992 5                  23177169.020    23177175.320
  23177174.220          40.100          35.950
 104654177.465 8  81397714.328 7                  19543416.340    19543417.560
  19543416.740          49.050          47.800
 111248596.931 8  86526718.191 7                  20782164.820    20782165.760
  20782164.740          48.700          46.400
 111309946.990 8  86574433.807 7                  20852095.940    20852098.480
  20852097.260          49.800          46.450
 130714848.014 6 101667121.139 6                  24461502.460    24461507.040
  24461505.000          39.350          36.750
 127837476.497 5  99429149.984 6                  23939851.840    23939856.640
  23939854.980          34.600          38.800
 107241879.000 8  83410374.236 7                  20047732.440    20047735.200
  20047734.340          49.200          47.950
 121083989.030 7  94176446.527 6                  22651259.320    22651263.300
  22651263.060          45.350          38.150
 144467772.752 7                 107881881.000 7  27491252.840
                        46.100
 15  1 27  6  0 30.0000000  0 22G11G14G28G04G16G03G18G22G27G19G32G01
                                R24R14R08R07R22R15R13R23R01E11
 110675028.729 8  86240273.46847                  21060751.000
  21060745.920          49.800          45.450
 123035726.838 7  95871982.79646                  23412919.500
  23412914.860          46.950          37.800
 129661694.609 7 101035057.39245                  24673797.900
  24673792.340          44.650          34.550
 107210730.832 8  83540842.95847                  20401512.860
  20401507.920          50.750          46.650
 130608740.533 7 101773042.54845                  24854016.860
  24854012.080          44.950          33.700
 126489160.076 7  98562982.805 7  94456195.500 8  24070084.380    24070083.100
  24070082.340          45.250          42.550
 133968320.045 7 104390893.19445                  25493314.820
  25493309.020          42.000          31.950
 117166192.047 8  91298341.75647                  22295970.060
  22295962.560          49.450          44.350
 112259617.865 8  87475036.963 8  83830238.344 8  21362289.780    21362288.120
  21362287.520          50.150          49.350
 107560184.661 8  83813111.87448                  20468016.480
  20468009.180          50.300          50.100
 109988937.999 8  85705689.32247                  20930182.720
  20930178.860          50.050          46.300
 116384915.362 8  90689564.910 7  86910823.255 8  22147306.720    22147305.260
  22147305.160          48.050          47.450
 122352934.052 7  95163411.830 6                  22880613.540    22880614.760
  22880612.880          44.800          37.650
 123552189.683 6  96096162.121 5                  23178078.140    23178084.340
  23178083.360          40.000          35.350
 104646392.732 8  81391659.535 7                  19541962.600    19541963.780
  19541962.980          49.050          47.750
 111261412.086 8  86536685.529 7                  20784558.800    20784559.720
  20784558.720          49.000          46.200
 111319418.586 8  86581800.594 7                  20853870.320    20853872.860
  20853871.600          49.800          46.500
 130706360.025 6 101660519.371 5                  24459913.880    24459918.680
  24459916.620          38.400          35.800
 127854120.343 5  99442095.207 6                  23942968.740    23942973.460
  23942971.820          34.700          38.200
 107234711.200 8  83404799.279 7                  20046392.480    20046395.220
  20046394.400          49.200          47.950
 121062171.170 7  94159477.086 6                  22647177.780    22647181.860
  22647181.580          45.100          37.400
 144478856.103 7                 107890157.502 7  27493361.860
                        46.250
 15  1 27  6  0 35.0000000  0 22G11G14G28G04G16G03G18G22G27G19G32G01
                                R24R14R08R07R22R15R13R23R01E11
 110665427.499 8  86232791.99247                  21058923.940
  21058918.880          49.900          45.100
 123028164.538 7  95866090.09646                  23411480.480
  23411475.740          46.700          37.400
 129648825.014 7 101025029.15645                  24671348.880
  24671343.380          45.450          33.950
 107206581.112 8  83537609.41447                  20400723.200
  20400718.240          50.700          46.850
 130627244.374 7 101787461.14445                  24857538.020
  24857533.280          44.750          34.200
 126471259.239 7  98549034.099 7  94442828.004 8  24066677.940    24066676.720
  24066675.960          45.150          42.950
 133984134.730 7 104403216.29745                  25496324.300
  25496318.460          42.050          31.500
 117178633.911 8  91308036.71347                  22298337.700
  22298330.160          49.650          44.350
 112270259.688 8  87483329.288 8  83838185.156 8  21364314.860    21364313.180
  21364312.600          50.300          49.300
 107562937.721 8  83815257.11448                  20468540.380
  20468533.060          50.400          49.950
 109977281.474 8  85696606.31147                  20927964.580
  20927960.700          50.300          46.000
 116374419.117 8  90681386.020 7  86902985.152 8  22145309.300    22145307.880
  22145307.760          48.300          47.500
 122336409.404 7  95150559.316 6                  22877523.320    22877524.600
  22877522.640          43.900          37.850
 123557054.725 6  96099946.032 5                  23178990.780    23178997.000
  23178996.040          40.300          35.650
 104638628.827 8  81385620.940 7                  19540512.740    19540513.940
  19540513.120          48.850          47.900
 111274243.711 8  86546665.682 7                  20786955.860    20786956.740
  20786955.740          49.000          46.200
 111328899.675 8  86589174.774 7                  20855646.480    20855648.960
  20855647.740          49.800          46.650
 130697889.560 6 101653931.226 6                  24458328.680    24458333.580
  24458331.460          39.200          36.700
 127870769.605 5  99455044.648 6                  23946086.680    23946091.280
  23946089.660          33.850          38.650
 107227551.912 8  83399230.949 8                  20045054.160    20045056.880
  20045056.060          49.350          48.050
 121040358.768 7  94142511.876 6                  22643097.320    22643101.360
  22643101.080          45.000          37.700
 144489941.821 7                 107898435.814 7  27495471.340
                        46.200
 15  1 27  6  0 40.0000000  0 22G11G14G28G04G16G03G18G22G27G19G32G01
                                R24R14R08R07R22R15R13R23R01E11
 110655834.140 8  86225316.65147                  21057098.400
  21057093.340          49.850          45.650
 123020614.150 7  95860206.67346                  23410043.680
  23410038.900          46.850          38.100
 129635964.939 7 101015008.32045                  24668901.720
  24668896.120          45.750          35.500
 107202440.446 8  83534382.92347                  20399935.260
  20399930.300          50.700          46.950
 130645747.906 7 101801879.45845                  24861059.180
  24861054.500          45.200          35.200
 126453362.979 7  98535088.965 7  94429463.908 8  24063272.380    24063271.200
  24063270.480          45.500          43.650
 133999950.957 6 104415540.65244                  25499334.080
  25499328.160          41.850          29.450
 117191084.449 8  91317738.43447                  22300706.960
  22300699.420          49.700          44.450
 112280912.446 8  87491630.137 8  83846140.124 8  21366342.020    21366340.340
  21366339.740          50.600          49.350
 107565703.144 8  83817411.98348                  20469066.620
  20469059.300          50.400          50.050
 109965639.126 8  85687534.36047                  20925749.120
  20925745.260          50.450          45.850
 116363928.642 8  90673211.624 7  86895151.356 8  22143312.980    22143311.620
  22143311.480          48.400          47.700
 122319884.900 7  95137706.936 6                  22874433.120    22874434.360
  22874432.500          43.100          37.950
 123561939.778 6  96103745.524 5                  23179907.260    23179913.360
  23179912.420          40.150          34.400
 104630886.722 8  81379599.303 8                  19539066.980    19539068.160
  19539067.360          48.750          48.100
 111287092.721 8  86556659.354 7                  20789356.140    20789357.040
  20789356.020          48.900          46.200
 111338391.112 8  86596557.001 7                  20857424.580    20857427.060
  20857425.820          49.650          46.850
 130689437.480 6 101647357.384 6                  24456747.000    24456751.960
  24456749.760          39.700          36.600
 127887425.447 5  99467999.164 6                  23949205.700    23949210.320
  23949208.680          33.900          37.900
 107220401.947 8  83393669.853 7                  20043717.560    20043720.280
  20043719.460          49.350          47.950
 121018552.846 7  94125551.719 6                  22639018.020    22639022.140
  22639021.800          44.550          37.600
 144501030.978 7                 107906716.656 7  27497581.500
                        46.450
 15  1 27  6  0 45.0000000  0 22G11G14G28G04G16G03G18G22G27G19G32G01
                                R24R14R08R07R22R15R13R23R01E11
 110646248.887 8  86217847.62747                  21055274.400
  21055269.340          49.750          45.300
 123013075.920 7  95854332.73146                  23408609.220
  23408604.340          46.950          37.400
 129623114.643 7 101004995.09545                  24666456.420
  24666450.760          45.700          33.150
 107198309.158 8  83531163.74247                  20399149.080
  20399144.140          50.650          46.850
 130664251.367 7 101816297.75246                  24864580.300
  24864575.660          44.550          37.350
 126435471.546 7  98521147.605 7  94416103.410 8  24059867.740    24059866.660
  24059865.940          45.550          43.600
 134015769.071 6 104427866.44745                  25502344.220
  25502338.320          41.200          31.250
 117203543.949 8  91327447.13647                  22303077.940
  22303070.360          49.750          44.250
 112291576.408 8  87499939.715 8  83854103.467 8  21368371.320    21368369.620
  21368369.000          50.650          49.350
 107568481.208 8  83819576.70448                  20469595.260
  20469587.960          50.300          49.850
 109954011.249 8  85678473.68347                  20923536.420
  20923532.560          50.350          46.050
 116353444.223 8  90665041.949 7  86887322.085 8  22141317.820    22141316.480
  22141316.360          48.400          47.550
 122303360.955 7  95124855.002 6                  22871343.020    22871344.380
  22871342.460          43.400          37.750
 123566845.121 6  96107560.804 5                  23180827.500    23180833.440
  23180832.620          40.850          34.900
 104623166.637 8  81373594.792 8                  19537625.340    19537626.500
  19537625.700          48.950          48.250
 111299959.619 8  86566666.941 7                  20791759.840    20791760.680
  20791759.600          48.900          46.350
 111347893.175 8  86603947.488 7                  20859204.700    20859207.120
  20859205.920          49.950          46.800
 130681004.162 6 101640798.126 6                  24455168.900    24455173.860
  24455171.620          40.900          36.400
 127904088.206 5  99480959.092 6                  23952326.140    23952330.720
  23952329.020          34.150          38.150
 107213261.822 8  83388116.416 7                  20042382.800    20042385.540
  20042384.720          49.000          47.950
 120996753.744 7  94108596.874 6                  22634940.020    22634944.120
  22634943.820          44.900          37.350
 144512123.838 7                 107915000.266 7  27499692.320
                        46.250
 15  1 27  6  0 50.0000000  0 22G11G14G28G04G16G03G18G22G27G19G32G01
                                R24R14R08R07R22R15R13R23R01E11
 110636667.851 8  86210381.88947                  21053451.200
  21053446.140          49.850          45.400
 123005545.964 7  95848465.22346                  23407176.340
  23407171.420          46.600          38.750
 129610270.144 7 100994986.40445                  24664012.200
  24664006.480          45.100          33.700
 107194183.306 8  83527948.79447                  20398363.960
  20398359.000          50.450          46.950
 130682750.789 7 101830712.88045                  24868100.640
  24868095.960          44.900          35.750
 126417581.020 7  98507206.952 7  94402743.604 8  24056463.280    24056462.240
  24056461.560          45.350          43.500
 134031585.033 6 104440190.55345                  25505353.920
  25505348.220          40.600          30.200
 117216008.449 8  91337159.73747                  22305449.880
  22305442.260          49.650          44.500
 112302247.635 8  87508254.957 8  83862072.244 8  21370402.020    21370400.260
  21370399.640          50.700          49.300
 107571267.964 8  83821748.20448                  20470125.560
  20470118.240          50.300          50.050
 109942393.932 8  85669421.23847                  20921325.740
  20921321.880          50.250          46.100
 116342961.946 8  90656873.945 7  86879494.406 8  22139323.080    22139321.780
  22139321.640          48.300          47.450
 122286833.486 7  95112000.331 6                  22868252.160    22868253.700
  22868251.780          43.300          38.050
 123571766.795 6  96111388.776 5                  23181750.820    23181756.760
  23181755.840          40.500          34.900
 104615464.579 8  81367604.303 8                  19536187.080    19536188.180
  19536187.400          49.000          48.000
 111312840.121 8  86576685.116 7                  20794166.040    20794166.840
  20794165.780          48.700          46.300
 111357401.870 8  86611343.148 7                  20860986.040    20860988.440
  20860987.240          49.800          46.700
 130672585.608 6 101634250.370 5                  24453593.500    24453598.400
  24453596.220          41.150          35.400
 127920753.451 5  99493920.945 6                  23955447.000    23955451.560
  23955449.900          34.300          39.300
 107206127.309 8  83382567.348 7                  20041049.100    20041051.820
  20041051.000          48.950          47.950
 120974957.407 7  94091644.156 6                  22630862.560    22630866.540
  22630866.340          44.650          36.950
 144523216.429 7                 107923283.699 7  27501803.140
                        46.550
 15  1 27  6  0 55.0000000  0 22G11G14G28G04G16G03G18G22G27G19G32G01
                                R24R14R08R07R22R15R13R23R01E11
 110627096.973 8  86202924.06047                  21051629.940
  21051624.820          49.900          45.600
 122998030.225 7  95842608.81546                  23405746.140
  23405741.180          46.950          37.600
 129597437.455 7 100984986.92445                  24661570.240
  24661564.480          45.000          34.300
 107190068.876 8  83524742.73947                  20397580.980
  20397576.060          50.400          47.100
 130701252.142 7 101845129.52545                  24871621.360
  24871616.740          44.900          35.200
 126399697.298 7  98493271.601 7  94389388.892 8  24053060.060    24053059.080
  24053058.440          45.450          43.200
 134047404.816 6 104452517.63345                  25508364.320
  25508358.680          40.650          30.050
 117228483.830 8  91346880.80747                  22307823.880
  22307816.240          49.700          44.300
 112312932.084 8  87516580.498 8  83870050.887 8  21372435.240    21372433.440
  21372432.800          50.750          49.300
 107574069.371 8  83823931.11248                  20470658.640
  20470651.340          50.250          49.950
 109930793.118 8  85660381.63947                  20919118.180
  20919114.320          50.300          46.100
 116332487.720 8  90648712.212 7  86871672.744 8  22137329.900    22137328.620
  22137328.460          48.300          47.450
 122270308.528 7  95099147.588 6                  22865161.880    22865163.520
  22865161.580          43.200          37.850
 123576710.706 6  96115234.040 5                  23182678.320    23182684.260
  23182683.260          40.750          34.800
 104607786.688 8  81361632.601 7                  19534753.300    19534754.360
  19534753.600          49.100          47.950
 111325740.301 8  86586718.593 7                  20796575.900    20796576.700
  20796575.680          48.750          46.300
 111366923.235 8  86618748.647 7                  20862769.780    20862772.120
  20862770.940          49.850          46.850
 130664187.906 6 101627718.816 6                  24452022.080    24452026.800
  24452024.660          40.400          36.000
 127937427.640 5  99506889.772 6                  23958569.600    23958574.180
  23958572.500          34.500          39.650
 107199004.740 8  83377027.579 7                  20039717.600    20039720.320
  20039719.520          48.500          47.750
 120953169.851 7  94074698.264 6                  22626786.720    22626790.800
  22626790.520          44.250          37.350
 144534314.739 7                 107931571.360 7  27503915.060
                        46.350
 15  1 27  6  1  0.0000000  0 22G11G14G28G04G16G03G18G22G27G19G32G01
                                R24R14R08R07R22R15R13R23R01E11
 110617532.504 8  86195471.22547                  21049809.900
  21049804.740          49.950          45.450
 122990524.973 7  95836760.56746                  23404317.960
  23404312.940          47.200          37.450
 129584612.848 7 100974993.71845                  24659129.840
  24659123.980          45.650          35.550
 107185962.027 8  83521542.59847                  20396799.460
  20396794.540          50.550          47.100
 130719751.612 7 101859544.68245                  24875141.700
  24875137.140          45.100          34.500
 126381816.701 7  98479338.670 7  94376036.516 8  24049657.480    24049656.560
  24049655.860          45.900          43.200
 134063224.577 6 104464844.73145                  25511374.740
  25511368.980          41.350          30.250
 117240966.360 8  91356607.45247                  22310199.220
  22310191.580          49.850          44.100
 112323625.994 8  87524913.415 8  83878036.587 8  21374470.260    21374468.420
  21374467.760          50.800          49.200
 107576881.651 8  83826122.50348                  20471193.780
  20471186.520          50.350          49.900
 109919205.092 8  85651352.00247                  20916913.080
  20916909.180          50.250          46.000
 116322017.803 8  90640553.839 7  86863854.309 8  22135337.520    22135336.260
  22135336.100          48.600          47.550
 122253782.246 7  95086293.826 6                  22862071.340    22862073.040
  22862071.100          43.150          38.100
 123581673.113 6  96119093.688 5                  23183609.340    23183615.180
  23183614.080          39.850          34.150
 104600129.161 8  81355676.752 7                  19533323.360    19533324.340
  19533323.620          48.950          47.900
 111338656.492 8  86596764.524 7                  20798988.720    20798989.600
  20798988.580          48.650          46.400
 111376453.469 8  86626161.046 7                  20864555.180    20864557.480
  20864556.320          49.650          46.950
 130655807.207 6 101621200.486 6                  24450453.800    24450458.400
  24450456.280          40.400          36.000
 127954106.689 5  99519862.380 6                  23961693.080    23961697.680
  23961696.020          34.900          39.100
 107191890.193 8  83371494.038 7                  20038387.620    20038390.320
  20038389.500          48.350          47.600
 120931387.357 7  94057756.326 6                  22622711.860    22622715.920
  22622715.620          44.100          37.250
 144545414.974 7                 107939860.494 7  27506027.340
                        46.600
 15  1 27  6  1  5.0000000  0 22G11G14G28G04G16G03G18G22G27G19G32G01
                                R24R14R08R07R22R15R13R23R01E11
 110607976.256 8  86188024.80047                  21047991.440
  21047986.200          49.950          45.700
 122983031.952 7  95830921.83746                  23402892.120
  23402887.100          47.000          37.800
 129571798.092 7 100965008.19645                  24656691.260
  24656685.400          45.400          34.700
 107181864.615 8  83518349.81847                  20396019.700
  20396014.840          50.300          47.200
 130738251.010 7 101873959.79545                  24878662.040
  24878657.460          45.050          35.800
 126363941.004 7  98465409.564 7  94362687.787 8  24046255.840    24046254.900
  24046254.200          46.000          43.450
 134079046.149 6 104477173.21245                  25514385.480
  25514379.640          41.700          30.950
 117253457.802 8  91366341.04747                  22312576.260
  22312568.620          49.800          44.100
 112334331.127 8  87533255.077 8  83886030.688 8  21376507.420    21376505.540
  21376504.880          50.650          49.300
 107579706.611 8  83828323.77248                  20471731.340
  20471724.080          50.150          50.100
 109907631.591 8  85642333.69247                  20914710.740
  20914706.820          50.150          46.000
 116311553.973 8  90632400.214 7  86856040.426 8  22133346.280    22133345.040
  22133344.920          48.450          47.600
 122237256.588 7  95073440.550 6                  22858981.000    22858982.660
  22858980.720          43.150          37.950
 123586655.758 6  96122969.087 5                  23184544.100    23184549.760
  23184548.680          39.950          34.200
 104592493.746 8  81349738.106 7                  19531897.520    19531898.500
  19531897.800          49.050          47.950
 111351590.332 8  86606824.177 7                  20801404.880    20801405.760
  20801404.760          48.600          46.400
 111385994.515 8  86633581.866 7                  20866342.560    20866344.820
  20866343.700          49.800          46.950
 130647445.417 6 101614696.893 6                  24448889.040    24448893.560
  24448891.480          40.600          36.700
 127970792.482 5  99532840.206 6                  23964817.720    23964822.340
  23964820.740          35.250          38.500
 107184785.331 8  83365968.045 7                  20037059.420    20037062.160
  20037061.320          48.400          47.700
 120909611.807 7  94040819.785 6                  22618638.300    22618642.280
  22618642.040          44.200          37.250
 144556518.937 7                 107948152.417 7  27508140.360
                        46.700
 15  1 27  6  1 10.0000000  0 22G11G14G28G04G16G03G18G22G27G19G32G01
                                R24R14R08R07R22R15R13R23R01E11
 110598425.297 8  86180582.50047                  21046173.980
  21046168.680          50.000          45.450
 122975548.290 7  95825090.41846                  23401468.060
  23401463.000          47.250          38.600
 129558990.275 7 100955028.08745                  24654254.040
  24654248.180          44.950          35.650
 107177773.638 8  83515162.05247                  20395241.200
  20395236.360          50.350          47.050
 130756747.416 7 101888372.57946                  24882181.840
  24882177.160          44.550          36.550
 126346067.291 7  98451482.007 7  94349340.548 8  24042854.540    24042853.660
  24042852.960          46.100          44.000
 134094866.670 6 104489500.87645                  25517396.080
  25517389.940          41.850          31.750
 117265955.265 8  91376079.33247                  22314954.440
  22314946.820          49.800          44.250
 112345044.599 8  87541603.233 8  83894031.000 8  21378546.140    21378544.220
  21378543.580          50.550          49.300
 107582541.350 8  83830532.66748                  20472270.760
  20472263.520          50.050          50.050
 109896069.704 8  85633324.43347                  20912510.600
  20912506.660          50.050          46.300
 116301093.347 8  90624249.083 7  86848228.921 8  22131355.660    22131354.440
  22131354.300          48.250          47.650
 122220728.480 7  95060585.380 6                  22855890.160    22855891.740
  22855889.920          43.150          37.950
 123591655.778 6  96126857.999 5                  23185482.120    23185487.800
  23185486.640          40.400          34.500
 104584877.539 8  81343814.389 7                  19530475.300    19530476.240
  19530475.520          49.250          47.900
 111364538.893 8  86616895.278 7                  20803823.800    20803824.620
  20803823.680          48.650          46.300
 111395543.224 8  86641008.639 7                  20868131.380    20868133.640
  20868132.540          49.700          47.050
 130639099.567 6 101608205.666 6                  24447327.260    24447331.720
  24447329.640          40.750          37.250
 127987481.997 5  99545820.969 6                  23967943.200    23967947.860
  23967946.200          34.650          38.800
 107177687.493 8  83360447.512 7                  20035732.520    20035735.280
  20035734.460          48.900          47.800
 120887840.137 7  94023886.256 6                  22614565.440    22614569.440
  22614569.180          44.600          37.050
 144567623.734 7                 107956444.930 7  27510253.560
                        46.750
 15  1 27  6  1 15.0000000  0 22G11G14G28G04G16G03G18G22G27G19G32G01
                                R24R14R08R07R22R15R13R23R01E11
 110588884.181 8  86173147.86547                  21044358.400
  21044353.020          50.100          45.600
 122968078.543 7  95819269.83746                  23400046.660
  23400041.640          47.200          37.900
 129546193.964 7 100945056.94245                  24651818.960
  24651813.080          45.000          35.300
 107173693.771 8  83511982.93547                  20394464.800
  20394459.980          50.450          46.950
 130775245.330 7 101902786.53645                  24885701.920
  24885697.200          44.100          35.900
 126328200.137 7  98437559.559 7  94335998.178 8  24039454.540    24039453.640
  24039452.980          46.300          44.050
 134110690.559 6 104501831.17744                  25520407.340
  25520401.120          41.750          28.550
 117278463.247 8  91385825.80647                  22317334.600
  22317327.020          49.850          44.000
 112355770.923 8  87549961.403 8  83902040.913 8  21380587.320    21380585.380
  21380584.740          50.650          49.350
 107585390.376 8  83832752.68448                  20472812.880
  20472805.680          50.100          50.100
 109884523.991 8  85624327.78047                  20910313.540
  20910309.580          50.200          45.950
 116290640.422 8  90616103.947 7  86840423.166 8  22129366.500    22129365.300
  22129365.160          48.100          47.550
 122204202.511 7  95047731.857 6                  22852799.700    22852801.340
  22852799.520          43.350          37.950
 123596677.682 6  96130763.929 5                  23186424.240    23186429.860
  23186428.780          40.050          35.250
 104577285.091 8  81337909.154 7                  19529057.500    19529058.420
  19529057.680          49.050          47.900
 111377506.725 8  86626981.370 7                  20806246.340    20806247.120
  20806246.200          48.250          46.550
 111405104.358 8  86648445.083 7                  20869922.540    20869924.760
  20869923.700          49.600          46.800
 130630774.278 6 101601730.465 6                  24445769.260    24445773.700
  24445771.700          41.750          37.050
 128004179.770 5  99558808.129 6                  23971070.240    23971074.780
  23971073.160          35.100          38.950
 107170601.078 8  83354935.856 7                  20034407.760    20034410.580
  20034409.720          48.400          47.850
 120866077.101 7  94006959.431 6                  22610494.220    22610498.160
  22610497.960          44.050          37.900
 144578733.872 7                 107964741.466 7  27512367.800
                        46.900
 15  1 27  6  1 20.0000000  0 22G11G14G28G04G16G03G18G22G27G19G32G01
                                R24R14R08R07R22R15R13R23R01E11
 110579350.152 8  86165718.74747                  21042544.160
  21042538.740          50.200          45.600
 122960619.964 7  95813457.96746                  23398627.380
  23398622.380          47.350          37.750
 129533406.429 7 100935092.64645                  24649385.600
  24649379.720          45.600          35.000
 107169622.206 8  83508810.28347                  20393689.980
  20393685.180          50.400          46.750
 130793742.020 7 101917199.52946                  24889221.740
  24889217.060          43.600          36.200
 126310336.776 7  98423640.060 7  94322658.658 8  24036055.220    24036054.400
  24036053.740          46.200          44.400
 134126515.176 6 104514162.02945                  25523418.680
  25523412.480          41.600          30.250
 117290979.021 8  91395578.35047                  22319716.280
  22319708.700          49.850          44.000
 112366507.354 8  87558327.451 8  83910058.374 8  21382630.420    21382628.480
  21382627.840          50.750          49.350
 107588250.949 8  83834981.70248                  20473357.220
  20473350.020          50.200          50.050
 109872991.734 8  85615341.61047                  20908119.020
  20908115.040          50.200          46.100
 116280192.476 8  90607962.688 7  86832621.126 8  22127378.320    22127377.140
  22127376.980          48.250          47.450
 122187676.176 7  95034878.064 6                  22849709.180    22849710.860
  22849709.040          43.350          37.950
 123601718.750 6  96134684.750 5                  23187370.000    23187375.480
  23187374.440          39.600          34.600
 104569713.721 8  81332020.319 8                  19527643.620    19527644.500
  19527643.780          49.150          48.000
 111390491.114 8  86637080.333 7                  20808671.920    20808672.720
  20808671.780          48.300          46.350
 111414674.940 8  86655888.867 7                  20871715.460    20871717.680
  20871716.620          49.650          47.000
 130622466.675 6 101595269.007 6                  24444214.540    24444219.080
  24444217.060          40.850          37.200
 128020883.065 5  99571799.576 6                  23974198.340    23974202.740
  23974201.160          34.800          38.900
 107163523.313 8  83349430.924 7                  20033084.660    20033087.460
  20033086.600          48.900          47.900
 120844319.859 7  93990037.126 6                  22606424.080    22606428.020
  22606427.840          44.050          38.250
 144589846.632 7                 107973039.925 7  27514482.540
                        46.950
 15  1 27  6  1 25.0000000  0 22G11G14G28G04G16G03G18G22G27G19G32G01
                                R24R14R08R07R22R15R13R23R01E11
 110569821.469 8  86158293.79947                  21040730.960
  21040725.460          50.350          45.550
 122953170.838 7  95807653.45746                  23397209.880
  23397204.900          47.100          37.850
 129520625.936 7 100925133.83045                  24646953.560
  24646947.740          45.750          34.800
 107165557.134 8  83505642.69247                  20392916.400
  20392911.640          50.450          46.850
 130812235.722 7 101931610.18746                  24892741.000
  24892736.340          43.050          36.500
 126292475.475 7  98409722.179 7  94309320.687 8  24032656.320    24032655.560
  24032654.940          46.350          44.350
 134142338.708 6 104526492.07044                  25526429.820
  25526423.460          41.950          26.150
 117303500.856 8  91405335.62047                  22322099.080
  22322091.520          49.900          43.950
 112377252.131 8  87566700.003 8  83918082.075 8  21384675.100    21384673.160
  21384672.520          50.850          49.350
 107591121.336 8  83837218.37048                  20473903.420
  20473896.260          50.300          49.900
 109861471.189 8  85606364.56347                  20905926.720
  20905922.760          50.300          45.800
 116269747.794 8  90599823.974 7  86824821.534 8  22125390.720    22125389.600
  22125389.440          48.450          47.450
 122171147.333 7  95022022.305 6                  22846618.260    22846620.000
  22846618.020          42.900          37.900
 123606777.134 6  96138619.061 5                  23188318.960    23188324.540
  23188323.320          40.100          34.650
 104562161.602 8  81326146.457 8                  19526233.340    19526234.220
  19526233.460          49.250          48.050
 111403490.329 8  86647190.831 7                  20811100.240    20811101.080
  20811100.160          48.400          46.350
 111424253.417 8  86663338.781 7                  20873509.840    20873512.080
  20873511.020          49.600          46.900
 130614174.971 6 101588819.887 6                  24442662.860    24442667.400
  24442665.400          40.900          37.400
 128037590.213 5  99584794.009 6                  23977327.020    23977331.480
  23977329.840          34.750          37.600
 107156452.633 8  83343931.508 8                  20031762.860    20031765.700
  20031764.820          48.850          48.250
 120822566.702 7  93973118.002 6                  22602354.760    22602358.680
  22602358.500          44.550          38.000
 144600960.255 7                 107981339.054 7  27516597.420
                        47.150
 15  1 27  6  1 30.0000000  0 22G11G14G28G04G16G03G18G22G27G19G32G01
                                R24R14R08R07R22R15R13R23R01E11
 110560300.969 8  86150875.22747                  21038919.320
  21038913.760          50.600          45.050
 122945734.038 7  95801858.54246                  23395794.740
  23395789.820          46.800          38.200
 129507855.354 7 100915182.70645                  24644523.420
  24644517.500          45.450          35.150
 107161501.503 8  83502482.45847                  20392144.620
  20392139.860          50.550          46.750
 130830729.248 7 101946020.71346                  24896260.200
  24896255.520          42.150          36.900
 126274619.122 7  98395808.155 7  94295986.398 8  24029258.360    24029257.640
  24029256.980          46.900          44.050
 134158164.027 7 104538823.48745                  25529441.320
  25529435.020          42.650          33.650
 117316031.559 8  91415099.80547                  22324483.600
  22324476.020          49.950          43.800
 112388008.135 8  87575081.302 8  83926114.148 8  21386721.920    21386719.980
  21386719.360          50.750          49.400
 107594004.403 8  83839464.91448                  20474452.040
  20474444.900          50.450          49.850
 109849965.223 8  85597398.87447                  20903737.220
  20903733.240          50.350          46.150
 116259309.168 8  90591689.984 7  86817026.450 8  22123404.300    22123403.200
  22123403.060          48.750          47.600
 122154619.139 7  95009167.046 6                  22843527.380    22843529.200
  22843527.160          43.550          37.800
 123611855.820 6  96142569.174 5                  23189271.780    23189277.380
  23189276.020          40.300          35.150
 104554631.676 8  81320289.846 7                  19524827.200    19524828.040
  19524827.300          49.250          47.950
 111416507.029 8  86657314.933 7                  20813531.860    20813532.680
  20813531.800          48.750          46.250
 111433842.650 8  86670797.071 7                  20875306.220    20875308.480
  20875307.460          49.700          46.800
 130605902.313 6 101582385.565 6                  24441114.840    24441119.280
  24441117.340          41.000          36.300
 128054303.805 5  99597793.497 6                  23980456.880    23980461.420
  23980459.700          34.350          38.500
 107149391.812 8  83338439.746 8                  20030442.900    20030445.720
  20030444.880          49.100          48.050
 120800820.507 7  93956204.288 6                  22598286.680    22598290.660
  22598290.440          45.100          38.400
 144612077.592 7                 107989640.935 7  27518713.020
                        47.350
 15  1 27  6  1 35.0000000  0 22G11G14G28G04G16G03G18G22G27G19G32G01
                                R24R14R08R07R22R15R13R23R01E11
 110550788.359 8  86143462.80847                  21037109.180
  21037103.560          50.600          45.100
 122938309.227 7  95796072.98946                  23394381.860
  23394376.980          47.050          38.150
 129495094.349 7 100905239.09545                  24642095.080
  24642089.180          45.300          33.250
 107157454.965 8  83499329.31647                  20391374.560
  20391369.840          50.550          46.900
 130849222.251 7 101960430.82645                  24899779.300
  24899774.600          43.150          35.650
 126256767.396 7  98381897.706 7  94282655.573 8  24025861.280    24025860.560
  24025859.840          46.800          43.550
 134173990.809 7 104551156.01844                  25532453.120
  25532446.900          42.450          27.000
 117328570.825 8  91424870.65947                  22326869.740
  22326862.140          50.100          43.900
 112398775.041 8  87583471.093 8  83934154.364 8  21388770.800    21388768.860
  21388768.260          50.800          49.550
 107596899.839 8  83841721.10148                  20475003.000
  20474995.880          50.450          49.900
 109838473.509 8  85588444.29147                  20901550.420
  20901546.420          50.400          45.900
 116248876.354 8  90583560.531 7  86809235.722 8  22121418.980    22121417.920
  22121417.780          48.450          47.650
 122138091.184 7  94996311.988 6                  22840436.540    22840438.420
  22840436.340          43.400          37.400
 123616954.405 6  96146534.730 5                  23190228.280    23190233.980
  23190232.560          39.350          35.750
 104547123.583 8  81314450.215 8                  19523425.140    19523425.920
  19523425.200          48.950          48.000
 111429541.146 8  86667452.580 7                  20815966.720    20815967.580
  20815966.680          48.750          46.200
 111443442.316 8  86678263.466 7                  20877104.540    20877106.840
  20877105.820          49.700          46.900
 130597648.372 6 101575965.839 6                  24439570.260    24439574.660
  24439572.740          40.100          36.200
 128071023.761 5  99610797.905 6                  23983588.080    23983592.600
  23983590.820          33.650          39.050
 107142340.614 8  83332955.485 8                  20029124.740    20029127.580
  20029126.740          48.800          48.000
 120779080.965 7  93939295.761 6                  22594219.860    22594223.760
  22594223.640          45.100          38.300
 144623198.343 7                 107997945.389 7  27520829.280
                        47.050
 15  1 27  6  1 40.0000000  0 22G11G14G28G04G16G03G18G22G27G19G32G01
                                R24R14R08R07R22R15R13R23R01E11
 110541281.900 8  86136055.17847                  21035300.240
  21035294.540          50.650          45.350
 122930894.693 7  95790295.41646                  23392970.920
  23392966.040          47.050          38.550
 129482341.240 7 100895301.62145                  24639668.260
  24639662.440          45.700          35.150
 107153415.766 8  83496181.88447                  20390605.920
  20390601.180          50.550          46.850
 130867713.047 7 101974839.23745                  24903298.020
  24903293.120          43.250          35.800
 126238918.563 7  98367989.506 7  94269326.891 8  24022464.780    24022464.000
  24022463.280          46.600          43.450
 134189817.389 7 104563488.41444                  25535464.840
  25535458.600          42.300          26.650
 117341116.833 8  91434646.77847                  22329257.200
  22329249.540          49.900          43.650
 112409551.100 8  87591868.016 8  83942201.414 8  21390821.460    21390819.480
  21390818.900          50.750          49.450
 107599805.871 8  83843985.54048                  20475556.000
  20475548.880          50.600          49.800
 109826994.335 8  85579499.47547                  20899366.020
  20899362.000          50.350          45.750
 116238447.562 8  90575434.198 7  86801447.982 8  22119434.420    22119433.380
  22119433.260          48.400          47.450
 122121561.691 7  94983455.716 6                  22837345.400    22837347.380
  22837345.240          43.250          37.750
 123622071.041 6  96150514.330 5                  23191188.180    23191193.760
  23191192.480          39.700          35.250
 104539635.592 8  81308626.212 7                  19522026.840    19522027.540
  19522026.840          48.800          47.850
 111442590.661 8  86677602.204 7                  20818404.520    20818405.320
  20818404.400          48.900          46.350
 111453050.531 8  86685736.512 7                  20878904.420    20878906.800
  20878905.780          49.250          46.850
 130589411.216 6 101569559.164 6                  24438028.780    24438033.200
  24438031.220          39.350          36.200
 128087748.004 5  99623805.638 6                  23986720.000    23986724.420
  23986722.680          34.500          38.400
 107135297.128 8  83327477.214 7                  20027808.060    20027810.900
  20027810.060          49.250          47.950
 120757346.308 7  93922391.041 6                  22590153.940    22590157.840
  22590157.760          45.600          37.950
 144634320.741 7                 108006251.053 7  27522945.800
                        47.100
 15  1 27  6  1 45.0000000  0 22G11G14G28G04G16G03G18G22G27G19G32G01
                                R24R14R08R07R22R15R13R23R01E11
 110531784.140 8  86128654.33247                  21033492.940
  21033487.180          50.750          45.100
 122923492.954 7  95784527.83146                  23391562.440
  23391557.520          46.900          37.950
 129469598.554 7 100885372.26645                  24637243.420
  24637237.640          46.000          32.900
 107149386.423 8  83493042.13847                  20389839.140
  20389834.440          50.550          46.600
 130886204.033 7 101989247.80545                  24906816.740
  24906811.820          43.150          34.600
 126221075.180 7  98354085.559 7  94256002.296 8  24019069.320    24019068.500
  24019067.740          46.350          43.650
 134205646.196 7 104575822.56244                  25538476.980
  25538470.760          42.250          28.900
 117353672.141 8  91444430.13447                  22331646.420
