     2.11           OBSERVATION DATA    M (MIXED)           RINEX VERSION / TYPE
teqc  2011Oct11     IGN-E (SPG)         20150127 13:00:51UTCPGM / RUN BY / DATE
Linux 2.4.21-27.ELsmp|Opteron|gcc -static|Linux x86_64|=+   COMMENT
BIT 2 OF LLI FLAGS DATA COLLECTED UNDER A/S CONDITION       COMMENT
VALE                                                        MARKER NAME
13439M001                                                   MARKER NUMBER
Programas GeodesicosInstituto Geografico Nacional           OBSERVER / AGENCY
1700071             LEICA GR10          3.03/6.214          REC # / TYPE / VERS
10190012            LEIAR25.R3      LEIT                    ANT # / TYPE
  4929534.0457   -29050.6755  4033709.9250                  APPROX POSITION XYZ
        3.0390        0.0000        0.0000                  ANTENNA: DELTA H/E/N
     1     1                                                WAVELENGTH FACT L1/2
     8    L1    L2    L5    C1    C2    P2    S1    S2      # / TYPES OF OBSERV
     5.0000                                                 INTERVAL
Forced Modulo Decimation to 5 seconds                       COMMENT
DefaultJobName                                              COMMENT
DefaultUserDiscription                                      COMMENT
Project creator:                                            COMMENT
 SNR is mapped to RINEX snr flag value [0-9]                COMMENT
  L1 & L2: min(max(int(snr_dBHz/6), 0), 9)                  COMMENT
  2015     1    27    12     0    0.0000000     GPS         TIME OF FIRST OBS
    15                                                      LEAP SECONDS
                                                            END OF HEADER
 15  1 27 12  0  0.0000000  0 21G30G06G07G08G02G17G03G23G09G10G20G16
                                R17R02R12R13R19R03R18R11R04
 123620738.827 7  96327927.352 7  92314275.034 8  23524219.340    23524222.920
  23524222.100          47.300          44.400
 107688961.420 8  83913481.304 8  80417084.292 8  20492525.820    20492526.740
  20492525.920          49.950          50.000
 113940201.017 8  88784641.829 7                  21682075.280    21682073.480
  21682072.860          49.700          46.300
 133142052.788 7 103747069.64245                  25336085.920
  25336086.180          42.500          34.100
 119180089.698 8  92867603.10347                  22679211.160
  22679206.620          48.500          42.600
 130338560.110 7 101562436.856 6                  24802633.300    24802637.540
  24802637.060          43.300          39.100
 124329720.989 7  96880287.938 7  92843609.578 8  23659167.800    23659170.600
  23659169.720          45.100          43.350
 115180379.451 8  89750911.56247                  21918093.200
  21918087.560          49.900          43.650
 107202926.963 8  83534776.156 8  80054170.366 8  20400023.740    20400022.920
  20400022.500          50.200          49.750
 109313766.302 8  85179576.34747                  20801711.940
  20801708.820          49.850          45.850
 107351204.344 8  83650251.56047                  20428257.000
  20428253.540          48.900          47.250
 134047299.150 6 104452438.79245                  25508352.680
  25508353.220          41.150          33.450
 124837708.637 7  97095968.070 6                  23328936.180    23328943.560
  23328941.980          45.300          39.750
 113479205.104 8  88261617.039 7                  21265958.940    21265963.960
  21265963.260          49.000          44.700
 113171391.038 7  88022222.680 7                  21185918.960    21185924.600
  21185924.080          44.350          42.450
 114508628.709 7  89062364.000 7                  21443760.880    21443766.940
  21443765.240          42.050          44.250
 118993390.767 7  92550419.957 7                  22244554.500    22244557.700
  22244555.640          47.150          42.450
 107270557.563 7  83432684.196 7                  20039033.960    20039035.980
  20039034.520          47.200          47.000
 112784245.293 8  87721089.253 7                  21128292.740    21128298.600
  21128297.900          49.050          46.350
 129706648.273 6 100882976.882 5                  24272822.240    24272831.380
  24272829.760          39.750          31.100
 122173243.194 7  95023665.480 7                  22814987.120    22814992.180
  22814990.260          44.050          42.950
 15  1 27 12  0  5.0000000  0 21G30G06G07G08G02G17G03G23G09G10G20G16
                                R17R02R12R13R19R03R18R11R04
 123602807.375 7  96313954.816 7  92300884.719 8  23520807.100    23520810.640
  23520809.840          47.600          44.400
 107689261.682 8  83913715.271 8  80417308.512 8  20492582.940    20492583.880
  20492583.060          50.050          50.150
 113928130.868 8  88775236.527 7                  21679778.400    21679776.600
  21679776.000          49.900          46.400
 133155815.379 7 103757793.72745                  25338704.860
  25338705.220          42.650          33.350
 119166504.527 8  92857017.25647                  22676625.980
  22676621.420          48.600          42.100
 130353816.631 7 101574325.007 6                  24805536.500    24805540.880
  24805540.260          43.600          38.850
 124343059.249 7  96890681.363 7  92853569.932 8  23661705.960    23661708.800
  23661707.940          46.050          43.400
 115191634.221 8  89759681.50247                  21920234.880
  21920229.340          49.950          43.450
 107207346.492 8  83538219.948 8  80057470.664 8  20400864.760    20400863.900
  20400863.480          50.350          49.850
 109305798.044 8  85173367.31547                  20800195.660
  20800192.520          49.950          45.650
 107355870.863 8  83653887.80847                  20429145.020
  20429141.540          49.150          47.050
 134039358.913 6 104446251.63644                  25506841.660
  25506841.980          41.900          28.100
 124859443.759 7  97112873.107 6                  23332997.960    23333005.320
  23333003.760          45.600          40.300
 113488901.946 8  88269159.023 7                  21267776.140    21267781.120
  21267780.460          48.800          44.500
 113173295.298 7  88023703.773 7                  21186275.480    21186281.100
  21186280.580          44.550          42.700
 114491929.128 7  89049375.454 7                  21440633.600    21440639.640
  21440637.940          42.250          44.400
 118984397.013 7  92543424.823 7                  22242873.200    22242876.400
  22242874.400          47.200          42.750
 107267428.102 7  83430250.175 7                  20038449.340    20038451.340
  20038449.940          46.850          47.200
 112796027.042 8  87730252.825 7                  21130499.880    21130505.760
  21130505.040          49.050          46.200
 129724488.029 6 100896852.243 5                  24276160.660    24276169.880
  24276168.220          40.200          31.200
 122160105.196 7  95013447.060 7                  22812533.580    22812538.780
  22812536.860          44.600          42.450
 15  1 27 12  0 10.0000000  0 21G30G06G07G08G02G17G03G23G09G10G20G16
                                R17R02R12R13R19R03R18R11R04
 123584878.728 7  96299984.461 7  92287496.449 8  23517395.400    23517398.900
  23517398.140          47.650          44.800
 107689577.857 8  83913961.640 8  80417544.614 8  20492643.080    20492644.020
  20492643.220          50.150          50.150
 113916071.329 8  88765839.493 7                  21677483.540    21677481.740
  21677481.160          50.100          46.550
 133169585.737 7 103768523.86845                  25341325.320
  25341325.640          42.850          33.300
 119152928.014 8  92846438.15947                  22674042.440
  22674037.880          48.700          42.600
 130369071.255 7 101586211.695 6                  24808439.360    24808443.800
  24808443.040          43.800          38.800
 124356401.059 7  96901077.560 7  92863532.958 8  23664244.820    23664247.700
  23664246.820          46.450          43.350
 115202893.896 8  89768455.25247                  21922377.500
  21922372.020          50.100          43.700
 107211775.541 8  83541671.148 8  80060778.069 8  20401707.600    20401706.720
  20401706.280          50.400          49.900
 109297836.889 8  85167163.81947                  20798680.700
  20798677.560          49.950          45.450
 107360546.129 8  83657530.87147                  20430034.720
  20430031.200          49.200          47.050
 134031428.644 6 104440072.23145                  25505332.560
  25505332.920          41.550          32.300
 124881179.169 7  97129778.362 6                  23337059.720    23337067.100
  23337065.560          45.600          40.600
 113498602.662 8  88276704.016 7                  21269594.100    21269599.040
  21269598.400          48.650          44.700
 113175221.521 7  88025201.944 7                  21186636.100    21186641.700
  21186641.180          44.300          42.400
 114475242.497 6  89036396.971 7                  21437508.720    21437514.740
  21437513.100          41.950          44.650
 118975423.099 7  92536445.112 7                  22241195.580    22241198.720
  22241196.860          46.550          42.200
 107264304.324 7  83427820.572 7                  20037865.740    20037867.820
  20037866.420          46.600          46.850
 112807825.813 8  87739429.634 7                  21132710.220    21132716.080
  21132715.340          48.750          46.000
 129742338.386 6 100910735.852 5                  24279501.040    24279510.220
  24279508.640          39.750          30.850
 122146968.255 7  95003229.454 7                  22810080.240    22810085.540
  22810083.620          44.750          42.550
 15  1 27 12  0 15.0000000  0 22G30G06G07G08G02G17G03G23G09G10G20G16
                                R14R17R02R12R13R19R03R18R11R04
 123566953.413 7  96286016.714 7  92274110.702 8  23513984.300    23513987.800
  23513987.040          47.550          44.950
 107689910.574 8  83914220.905 8  80417793.070 8  20492706.360    20492707.340
  20492706.540          50.100          50.200
 113904023.010 8  88756451.201 7                  21675190.820    21675189.000
  21675188.440          50.200          46.700
 133183364.414 7 103779260.48945                  25343947.360
  25343947.720          43.300          31.100
 119139360.732 8  92835866.26547                  22671460.660
  22671456.100          48.450          42.950
 130384324.511 7 101598097.330 6                  24811341.940    24811346.340
  24811345.740          43.900          39.400
 124369747.054 7  96911477.031 7  92873499.116 8  23666784.520    23666787.340
  23666786.460          46.550          43.200
 115214158.987 8  89777233.23947                  21924521.160
  21924515.720          50.050          43.600
 107216214.701 8  83545130.238 8  80064093.034 8  20402552.380    20402551.460
  20402551.000          50.550          49.850
 109289883.474 8  85160966.35747                  20797167.220
  20797164.060          49.950          45.900
 107365230.743 8  83661181.22247                  20430926.200
  20430922.660          49.200          47.050
 134023508.806 6 104433900.92844                  25503825.420
  25503825.680          41.300          29.550
 130926482.128 6                                  24561475.200
                        37.200
 124902915.399 7  97146684.260 6                  23341121.680    23341129.080
  23341127.560          45.850          40.950
 113508307.756 8  88284252.411 7                  21271412.860    21271417.800
  21271417.180          48.800          44.650
 113177170.244 7  88026717.609 7                  21187000.940    21187006.540
  21187006.020          44.300          42.450
 114458569.546 7  89023429.133 7                  21434386.400    21434392.420
  21434390.800          42.300          44.750
 118966469.416 7  92529481.137 7                  22239521.720    22239524.940
  22239523.080          46.350          42.550
 107261186.828 7  83425395.855 7                  20037283.380    20037285.420
  20037284.040          46.950          46.950
 112819642.131 8  87748620.098 7                  21134923.820    21134929.680
  21134928.900          48.850          45.950
 129760200.101 6 100924628.293 5                  24282843.660    24282852.760
  24282851.140          38.850          31.650
 122133833.026 7  94993013.185 7                  22807627.220    22807632.640
  22807630.680          44.150          42.200
 15  1 27 12  0 20.0000000  0 22G30G06G07G08G02G17G03G23G09G10G20G16
                                R14R17R02R12R13R19R03R18R11R04
 123549031.877 7  96272051.917 7  92260727.767 8  23510573.940    23510577.460
  23510576.680          47.250          44.900
 107690260.210 8  83914493.350 8  80418054.159 8  20492772.880    20492773.860
  20492773.060          49.950          50.150
 113891986.293 8  88747071.951 7                  21672900.320    21672898.500
  21672897.960          50.050          46.600
 133197151.872 7 103790003.97145                  25346571.080
  25346571.400          42.950          33.300
 119125803.127 8  92825301.90347                  22668880.720
  22668876.200          48.450          43.250
 130399576.849 7 101609982.214 6                  24814244.340    24814248.780
  24814248.220          44.300          39.300
 124383097.648 7  96921880.072 7  92883468.679 8  23669325.100    23669327.920
  23669327.000          46.800          43.550
 115225429.942 8  89786015.79047                  21926665.940
  21926660.520          50.250          43.300
 107220664.360 8  83548597.513 8  80067415.829 8  20403399.160    20403398.200
  20403397.720          50.550          49.800
 109281938.228 8  85154775.26547                  20795655.260
  20795652.120          49.900          45.500
 107369925.109 8  83664839.16747                  20431819.500
  20431815.940          49.000          47.150
 134015599.862 6 104427738.14245                  25502320.340
  25502320.580          40.750          30.550
 130904381.141 5                                  24557329.640
                        35.450
 124924652.840 7  97163591.096 6                  23345183.900    23345191.300
  23345189.800          46.100          40.700
 113518017.821 8  88291804.679 7                  21273232.560    21273237.500
  21273236.920          48.450          44.950
 113179142.041 7  88028251.240 7                  21187370.060    21187375.660
  21187375.160          44.550          42.800
 114441910.720 6  89010472.287 7                  21431266.700    21431272.800
  21431271.140          41.500          44.700
 118957536.452 7  92522533.296 7                  22237851.740    22237854.960
  22237853.180          46.550          42.700
 107258075.902 7  83422976.253 7                  20036702.220    20036704.260
  20036702.920          47.250          46.850
 112831476.465 8  87757824.569 7                  21137140.800    21137146.640
  21137145.880          49.050          46.050
 129778073.546 6 100938529.822 5                  24286188.380    24286197.500
  24286195.920          39.550          31.550
 122120699.844 7  94982798.505 7                  22805174.640    22805180.080
  22805178.120          43.900          42.100
 15  1 27 12  0 25.0000000  0 22G30G06G07G08G02G17G03G23G09G10G20G16
                                R14R17R02R12R13R19R03R18R11R04
 123531112.382 7  96258088.699 7  92247346.362 8  23507163.960    23507167.440
  23507166.700          47.350          45.050
 107690625.038 8  83914777.632 8  80418326.598 8  20492842.260    20492843.280
  20492842.500          49.950          50.150
 113879959.461 8  88737700.398 7                  21670611.700    21670609.880
  21670609.320          50.050          46.700
 133210946.301 7 103800752.86845                  25349196.060
  25349196.460          43.000          33.750
 119112253.475 8  92814743.72747                  22666302.300
  22666297.780          48.600          42.800
 130414826.479 7 101621864.985 6                  24817146.280    24817150.780
  24817150.260          45.100          39.600
 124396451.037 7  96932285.284 7  92893440.360 8  23671866.200    23671869.020
  23671868.040          47.250          43.200
 115236705.015 8  89794801.54647                  21928811.520
  21928806.080          50.350          43.300
 107225122.764 8  83552071.588 8  80070745.157 8  20404247.600    20404246.580
  20404246.100          50.550          49.850
 109273999.357 8  85148589.12747                  20794144.520
  20794141.360          49.950          45.300
 107374627.456 8  83668503.32147                  20432714.360
  20432710.760          49.250          47.100
 134007700.083 6 104421582.48444                  25500817.040
  25500817.100          41.000          28.600
 130882274.916 5 101797412.875 4                  24553182.280
  24553203.060          35.500          29.500
 124946389.687 7  97180497.464 6                  23349246.060    23349253.500
  23349251.940          46.350          40.300
 113527730.933 8  88299359.310 7                  21275052.800    21275057.800
  21275057.240          48.250          45.150
 113181135.076 7  88029801.374 7                  21187743.200    21187748.720
  21187748.280          44.550          43.050
 114425264.146 6  88997524.962 7                  21428149.240    21428155.440
  21428153.800          41.800          44.700
 118948622.394 7  92515600.147 7                  22236185.280    22236188.560
  22236186.820          46.300          42.150
 107254970.012 7  83420560.547 7                  20036122.000    20036124.060
  20036122.700          47.600          46.750
 112843326.973 8  87767041.618 7                  21139360.840    21139366.640
  21139365.880          49.300          46.200
 129795956.714 6 100952438.950 5                  24289534.960    24289544.060
  24289542.560          40.750          32.150
 122107567.024 7  94972584.119 6                  22802722.060    22802727.580
  22802725.620          44.700          41.800
 15  1 27 12  0 30.0000000  0 22G30G06G07G08G02G17G03G23G09G10G20G16
                                R14R17R02R12R13R19R03R18R11R04
 123513197.330 7  96244128.949 7  92233968.270 8  23503754.800    23503758.320
  23503757.580          47.250          44.650
 107691007.421 8  83915075.586 8  80418612.138 8  20492915.000    20492916.060
  20492915.260          50.050          50.100
 113867944.910 8  88728338.421 7                  21668325.400    21668323.580
  21668323.040          50.250          46.750
 133224750.075 7 103811509.03145                  25351822.780
  25351823.160          43.150          33.600
 119098714.055 8  92804193.53847                  22663725.820
  22663721.280          48.550          42.350
 130430075.864 7 101633747.569 6                  24820048.140    24820052.780
  24820052.180          45.250          39.450
 124409809.635 7  96942694.579 7  92903415.915 8  23674408.300    23674411.100
  23674410.080          46.850          42.950
 115247986.551 8  89803592.34847                  21930958.340
  21930952.860          50.300          43.350
 107229592.292 8  83555554.337 8  80074082.784 8  20405098.160    20405097.120
  20405096.620          50.450          49.750
 109266069.261 8  85142409.83647                  20792635.420
  20792632.300          49.750          45.750
 107379340.183 8  83672175.57347                  20433611.160
  20433607.540          49.450          46.800
 133999811.912 6 104415435.86944                  25499315.940
  25499315.920          41.300          29.250
 130860165.797 5 101780217.126 5                  24549034.940
  24549055.280          35.800          31.300
 124968128.298 7  97197405.218 6                  23353308.460    23353315.920
  23353314.400          45.750          40.200
 113537449.491 8  88306918.179 7                  21276874.100    21276879.060
  21276878.580          48.700          45.100
 113183151.726 7  88031369.892 7                  21188120.760    21188126.220
  21188125.780          44.800          42.750
 114408632.286 6  88984589.088 7                  21425034.520    21425040.860
  21425039.240          41.550          45.100
 118939729.686 7  92508683.581 7                  22234522.800    22234526.140
  22234524.380          46.200          42.300
 107251871.371 7  83418150.496 7                  20035543.140    20035545.180
  20035543.860          47.600          47.000
 112855196.039 8  87776273.095 7                  21141584.320    21141590.140
  21141589.400          49.350          46.350
 129813852.062 6 100966357.540 5                  24292883.760    24292892.980
  24292891.580          41.150          32.700
 122094436.847 7  94962371.777 7                  22800270.020    22800275.560
  22800273.620          44.700          42.300
 15  1 27 12  0 35.0000000  0 22G30G06G07G08G02G17G03G23G09G10G20G16
                                R14R17R02R12R13R19R03R18R11R04
 123495284.167 7  96230170.671 7  92220591.591 8  23500346.020    23500349.500
  23500348.780          47.200          44.450
 107691404.841 8  83915385.256 8  80418908.908 8  20492990.600    20492991.700
  20492990.880          49.950          50.150
 113855940.097 8  88718984.027 7                  21666040.960    21666039.160
  21666038.600          50.150          46.800
 133238560.661 7 103822270.52445                  25354450.820
  25354451.380          42.900          33.400
 119085182.425 8  92793649.41547                  22661150.820
  22661146.280          48.450          42.650
 130445322.311 7 101645627.899 6                  24822949.500    24822954.120
  24822953.540          45.350          39.550
 124423170.904 7  96953105.943 7  92913393.464 8  23676950.940    23676953.640
  23676952.700          47.000          43.200
 115259271.998 8  89812386.19447                  21933105.880
  21933100.380          50.400          43.400
 107234070.371 8  83559043.749 8  80077426.811 8  20405950.360    20405949.240
  20405948.740          50.450          49.750
 109258145.448 8  85136235.44447                  20791127.540
  20791124.440          49.600          45.950
 107384060.739 8  83675853.93147                  20434509.480
  20434505.820          49.450          46.900
 133991932.722 6 104409296.24545                  25497816.520
  25497816.440          41.350          33.250
 130838051.462 5 101762976.49815                  24544886.300    24544906.880
  24544906.720          35.000          31.550
 124989866.154 7  97214312.386 6                  23357370.760    23357378.260
  23357376.680          45.950          40.000
 113547171.066 8  88314479.403 7                  21278695.960    21278700.940
  21278700.480          48.800          45.300
 113185189.435 7  88032954.783 7                  21188502.260    21188507.760
  21188507.240          45.050          42.600
 114392012.521 6  88971662.621 7                  21421922.100    21421928.520
  21421926.920          41.350          45.300
 118930855.829 7  92501781.700 7                  22232863.820    22232867.280
  22232865.520          45.850          42.550
 107248777.402 7  83415744.081 7                  20034965.140    20034967.220
  20034965.880          47.250          46.950
 112867081.127 8  87785517.045 7                  21143810.820    21143816.640
  21143815.940          49.050          46.300
 129831757.112 6 100980283.686 5                  24296234.400    24296243.720
  24296242.320          40.800          31.850
 122081306.827 7  94952159.567 7                  22797818.020    22797823.600
  22797821.720          44.750          42.450
 15  1 27 12  0 40.0000000  0 22G30G06G07G08G02G17G03G23G09G10G20G16
                                R14R17R02R12R13R19R03R18R11R04
 123477375.222 7  96216215.680 7  92207218.063 8  23496938.060    23496941.520
  23496940.780          46.750          44.400
 107691819.603 8  83915708.443 8  80419218.631 8  20493069.480    20493070.620
  20493069.820          50.000          50.150
 113843947.371 8  88709639.051 7                  21663758.840    21663757.000
  21663756.500          50.100          46.750
 133252380.321 7 103833039.10245                  25357080.620
  25357081.100          42.600          32.150
 119071660.885 8  92783113.16247                  22658577.720
  22658573.200          48.150          42.950
 130460568.134 7 101657507.728 6                  24825850.740    24825855.340
  24825854.760          45.100          39.250
 124436537.134 7  96963521.177 7  92923374.720 8  23679494.500    23679497.160
  23679496.180          47.100          43.000
 115270563.705 8  89821184.92347                  21935254.640
  21935249.100          50.400          43.300
 107238559.348 8  83562541.653 8  80080778.970 8  20406804.620    20406803.460
  20406802.940          50.550          49.750
 109250230.209 8  85130067.72947                  20789621.280
  20789618.200          49.650          45.650
 107388791.422 8  83679540.17547                  20435409.720
  20435406.020          49.350          46.700
 133984064.941 6 104403165.51044                  25496319.320
  25496319.400          41.200          29.800
 130815934.093 5 101745774.318 5                  24540736.480    24540758.120
  24540756.920          35.250          32.100
 125011605.581 7  97231220.760 6                  23361433.340    23361440.860
  23361439.320          45.950          40.450
 113556897.831 8  88322044.652 7                  21280518.760    21280523.760
  21280523.360          48.450          45.300
 113187250.614 7  88034557.923 7                  21188888.120    21188893.620
  21188893.120          45.000          42.550
 114375407.407 6  88958747.546 7                  21418812.360    21418818.940
  21418817.340          41.350          45.400
 118922003.165 7  92494896.327 7                  22231208.820    22231212.380
  22231210.600          45.800          42.300
 107245690.694 7  83413343.315 7                  20034388.500    20034390.560
  20034389.240          47.100          46.950
 112878984.506 8  87794775.212 7                  21146040.720    21146046.580
  21146045.900          48.950          46.350
 129849673.948 6 100994219.007 5                  24299587.200    24299596.600
  24299595.280          40.500          32.150
 122068179.301 7  94941949.277 7                  22795366.500    22795372.140
  22795370.240          45.050          42.600
 15  1 27 12  0 45.0000000  0 22G30G06G07G08G02G17G03G23G09G10G20G16
                                R14R17R02R12R13R19R03R18R11R04
 123459470.347 7  96202263.863 7  92193847.569 8  23493530.860    23493534.320
  23493533.600          46.900          44.250
 107692251.495 8  83916044.977 8  80419541.137 8  20493151.640    20493152.820
  20493152.020          49.950          50.150
 113831966.531 8  88700303.344 7                  21661478.960    21661477.160
  21661476.620          49.950          46.650
 133266208.900 7 103843814.58245                  25359712.080
  25359712.640          42.200          33.750
 119058149.277 8  92772584.63847                  22656006.520
  22656002.020          48.300          43.250
 130475813.157 7 101669386.918 6                  24828751.820    24828756.380
  24828755.800          44.700          38.700
 124449908.156 7  96973940.147 7  92933359.561 8  23682038.960    23682041.660
  23682040.580          46.950          43.000
 115281861.477 8  89829988.36547                  21937404.540
  21937398.980          50.400          43.200
 107243058.999 8  83566047.875 8  80084139.090 8  20407660.920    20407659.700
  20407659.200          50.400          49.600
 109242323.330 8  85123906.52747                  20788116.600
  20788113.560          49.650          45.500
 107393532.073 8  83683234.18347                  20436311.880
  20436308.140          49.250          46.850
 133976208.313 6 104397043.53145                  25494824.260
  25494824.200          41.500          30.650
 130793813.649 5 101728569.781 5                  24536586.460    24536608.580
  24536606.960          34.950          32.000
 125033346.308 7  97248130.146 6                  23365496.180    23365503.740
  23365502.200          46.100          39.600
 113566629.620 8  88329613.812 7                  21282342.500    21282347.540
  21282347.120          48.600          45.200
 113189335.011 7  88036179.104 7                  21189278.380    21189283.740
  21189283.320          44.700          42.500
 114358816.534 6  88945843.540 7                  21415705.340    21415711.980
  21415710.400          41.350          44.900
 118913171.431 7  92488027.194 6                  22229557.740    22229561.400
  22229559.520          45.850          41.900
 107242610.881 7  83410947.909 7                  20033813.140    20033815.220
  20033813.880          46.800          47.000
 112890905.959 8  87804047.435 7                  21148274.040    21148279.920
  21148279.220          49.050          46.200
 129867602.588 6 101008163.488 5                  24302942.320    24302951.740
  24302950.380          40.400          31.300
 122055054.101 7  94931740.801 7                  22792915.400    22792921.060
  22792919.240          45.250          42.250
 15  1 27 12  0 50.0000000  0 22G30G06G07G08G02G17G03G23G09G10G20G16
                                R14R17R02R12R13R19R03R18R11R04
 123441568.049 7  96188314.043 7  92180478.991 8  23490124.180    23490127.620
  23490126.860          46.800          43.900
 107692699.069 8  83916393.738 8  80419875.366 8  20493236.760    20493238.000
  20493237.180          49.850          50.050
 113819996.093 8  88690975.741 7                  21659201.080    21659199.280
  21659198.760          49.950          46.350
 133280044.849 7 103854595.85345                  25362344.960
  25362345.440          42.750          32.250
 119044646.119 8  92762062.70347                  22653436.920
  22653432.440          48.300          42.950
 130491055.873 7 101681264.310 6                  24831652.460    24831657.080
  24831656.500          44.650          38.700
 124463282.453 7  96984361.661 7  92943346.850 8  23684584.060    23684586.720
  23684585.660          47.000          42.850
 115293163.810 8  89838795.37247                  21939555.320
  21939549.760          50.600          43.150
 107247567.853 8  83569561.260 8  80087506.088 8  20408518.960    20408517.700
  20408517.180          50.450          49.550
 109234423.351 8  85117750.70147                  20786613.240
  20786610.240          49.550          45.650
 107398281.217 8  83686934.81747                  20437215.620
  20437211.860          49.200          46.900
 133968361.515 7 104390929.13045                  25493331.000
  25493331.160          42.000          31.350
 130771688.464 5 101711361.511 5                  24532436.020    24532457.280
  24532456.700          34.550          32.900
 125055086.917 7  97265039.475 6                  23369559.000    23369566.540
  23369564.980          45.350          39.400
 113576365.074 8  88337185.833 7                  21284166.920    21284172.000
  21284171.540          48.650          44.950
 113191441.080 7  88037817.157 7                  21189672.680    21189678.000
  21189677.580          44.400          42.300
 114342238.546 6  88932949.558 7                  21412600.740    21412607.460
  21412605.880          41.550          44.800
 118904359.276 7  92481173.283 6                  22227910.360    22227914.040
  22227912.100          46.350          41.850
 107239536.345 7  83408556.589 7                  20033238.780    20033240.860
  20033239.500          46.800          46.550
 112902844.023 8  87813332.582 7                  21150510.480    21150516.320
  21150515.640          48.850          46.000
 129885541.592 6 101022116.019 5                  24306299.420    24306308.760
  24306307.420          40.750          32.050
 122041929.624 7  94921532.889 7                  22790464.460    22790470.120
  22790468.360          44.900          42.300
 15  1 27 12  0 55.0000000  0 22G30G06G07G08G02G17G03G23G09G10G20G16
                                R14R17R02R12R13R19R03R18R11R04
 123423669.275 7  96174366.973 7  92167113.059 8  23486718.160    23486721.540
  23486720.760          46.900          43.800
 107693163.242 8  83916755.434 8  80420221.988 8  20493325.060    20493326.320
  20493325.520          49.850          50.000
 113808037.051 8  88681657.017 7                  21656925.340    21656923.560
  21656923.020          50.050          46.400
 133293889.127 7 103865383.57646                  25364979.440
  25364979.980          42.300          36.800
 119031152.360 8  92751548.09047                  22650869.140
  22650864.680          48.250          43.300
 130506297.213 7 101693140.642 6                  24834552.820    24834557.520
  24834556.920          44.300          38.600
 124476661.003 7  96994786.491 7  92953337.311 8  23687129.960    23687132.560
  23687131.520          46.750          43.100
 115304471.627 8  89847606.65547                  21941707.160
  21941701.600          50.200          43.400
 107252086.811 8  83573082.529 8  80090880.632 8  20409378.920    20409377.620
  20409377.100          50.600          49.600
 109226531.226 8  85111600.99547                  20785111.360
  20785108.420          49.550          45.400
 107403039.804 8  83690642.80347                  20438121.180
  20438117.380          49.100          46.900
 133960525.201 7 104384822.94244                  25491839.820
  25491840.140          42.450          29.700
 130749559.515 5 101694150.338 5                  24528284.560    24528305.800
  24528305.180          34.150          32.050
 125076828.225 7  97281949.325 6                  23373621.940    23373629.440
  23373627.940          44.950          39.600
 113586105.057 8  88344761.366 7                  21285992.200    21285997.300
  21285996.820          48.450          44.600
 113193569.801 7  88039472.839 7                  21190071.220    21190076.520
  21190076.080          44.750          42.300
 114325674.427 6  88920066.364 7                  21409498.760    21409505.500
  21409503.960          41.950          44.950
 118895567.450 7  92474335.205 6                  22226266.780    22226270.500
  22226268.500          46.950          41.500
 107236468.258 7  83406170.309 7                  20032665.640    20032667.700
  20032666.320          46.800          46.400
 112914799.632 8  87822631.379 7                  21152750.180    21152756.000
  21152755.320          49.050          45.800
 129903491.662 6 101036077.190 5                  24309658.660    24309668.180
  24309666.560          39.850          30.800
 122028806.831 7  94911326.301 6                  22788013.840    22788019.540
  22788017.780          45.550          41.800
 15  1 27 12  1  0.0000000  0 22G30G06G07G08G02G17G03G23G09G10G20G16
                                R14R17R02R12R13R19R03R18R11R04
 123405772.665 7  96160421.580 7  92153748.737 8  23483312.560    23483315.860
  23483315.040          47.050          44.000
 107693642.648 8  83917128.992 8  80420579.980 8  20493416.240    20493417.540
  20493416.720          49.800          49.950
 113796087.973 8  88672346.057 7                  21654651.520    21654649.740
  21654649.200          50.050          46.550
 133307740.310 7 103876176.71845                  25367615.260
  25367615.780          42.350          34.850
 119017666.623 8  92741039.72747                  22648302.860
  22648298.420          48.000          43.200
 130521535.770 7 101705014.799 6                  24837452.640    24837457.440
  24837456.820          44.050          38.750
 124490042.397 7  97005213.540 7  92963329.904 8  23689676.380    23689678.980
  23689677.940          46.450          43.250
 115315783.498 8  89856421.08647                  21943859.740
  21943854.220          50.100          43.750
 107256614.494 8  83576610.596 8  80094261.701 8  20410240.520    20410239.180
  20410238.680          50.550          49.550
 109218645.562 8  85105456.32447                  20783610.720
  20783607.820          49.400          44.900
 107407806.418 8  83694357.04347                  20439028.280
  20439024.400          48.950          47.400
 133952698.251 7 104378723.99645                  25490350.380
  25490350.740          42.050          33.850
 130727425.547 5 101676935.231 5                  24524132.340    24524154.120
  24524152.660          33.550          30.750
 125098568.855 7  97298858.627 6                  23377684.760    23377692.240
  23377690.800          44.400          39.100
 113595848.180 8  88352339.349 7                  21287818.060    21287823.180
  21287822.660          48.250          44.500
 113195719.756 7  88041145.018 7                  21190473.700    21190479.000
  21190478.520          44.950          42.650
 114309122.784 7  88907192.881 7                  21406399.160    21406405.880
  21406404.360          42.000          44.950
 118886794.706 7  92467511.947 6                  22224626.800    22224630.480
  22224628.480          46.400          41.350
 107233405.069 7  83403787.818 7                  20032093.380    20032095.420
  20032094.060          47.150          46.250
 112926771.333 8  87831942.690 7                  21154992.920    21154998.720
  21154998.020          49.150          46.000
 129921451.475 6 101050045.916 5                  24313019.600    24313029.100
  24313027.480          39.750          31.200
 122015684.384 7  94901119.956 6                  22785563.280    22785569.000
  22785567.240          44.700          41.800
 15  1 27 12  1  5.0000000  0 22G30G06G07G08G02G17G03G23G09G10G20G16
                                R14R17R02R12R13R19R03R18R11R04
 123387881.876 7  96146480.715 7  92140388.752 8  23479908.060    23479911.340
  23479910.440          46.750          43.850
 107694140.904 8  83917517.237 8  80420952.055 8  20493511.020    20493512.340
  20493511.540          49.950          49.900
 113784152.500 8  88663045.697 7                  21652380.280    21652378.480
  21652377.940          50.050          46.350
 133321602.050 7 103886978.05245                  25370253.040
  25370253.600          42.800          32.950
 119004192.554 7  92730540.45547                  22645738.800
  22645734.380          47.850          43.150
 130536775.184 7 101716889.610 6                  24840352.600    24840357.460
  24840356.840          44.100          38.900
 124503430.259 7  97015645.623 7  92973327.310 8  23692224.000    23692226.600
  23692225.660          46.050          43.450
 115327103.039 8  89865241.49947                  21946013.760
  21946008.300          49.950          43.050
 107261154.519 8  83580148.278 8  80097651.991 8  20411104.480    20411103.100
  20411102.620          50.700          49.650
 109210770.027 8  85099319.54147                  20782112.040
  20782109.140          49.350          45.100
 107412584.675 8  83698080.35847                  20439937.580
  20439933.660          49.050          47.150
 133944884.184 6 104372635.15845                  25488863.400
  25488863.860          41.900          30.200
 130705290.175 5 101659719.057 4                  24519979.920    24520000.220
  24519999.980          33.550          29.750
 125120312.427 7  97315770.233 6                  23381748.040    23381755.540
  23381754.140          43.800          38.650
 113605598.096 8  88359922.596 7                  21289645.160    21289650.340
  21289649.780          48.000          44.400
 113197894.723 7  88042836.649 7                  21190880.820    21190886.060
  21190885.680          44.450          42.800
 114292587.363 7  88894332.004 7                  21403302.640    21403309.300
  21403307.820          42.000          44.850
 118878044.720 7  92460706.404 7                  22222991.020    22222994.700
  22222992.760          46.550          42.100
 107230350.602 7  83401412.128 7                  20031522.760    20031524.840
  20031523.440          47.150          46.700
 112938762.761 8  87841269.341 7                  21157239.340    21157245.100
  21157244.360          49.050          45.900
 129939424.620 6 101064025.018 5                  24316383.040    24316392.620
  24316390.980          41.050          31.700
 122002565.918 7  94890916.723 6                  22783113.460    22783119.160
  22783117.420          44.250          41.400
 15  1 27 12  1 10.0000000  0 22G30G06G07G08G02G17G03G23G09G10G20G16
                                R14R17R02R12R13R19R03R18R11R04
 123369993.522 7  96132541.769 7  92127030.599 8  23476504.020    23476507.260
  23476506.360          46.650          43.850
 107694654.670 8  83917917.570 8  80421335.709 8  20493608.780    20493610.120
  20493609.300          49.900          50.000
 113772227.301 8  88653753.350 7                  21650111.000    21650109.200
  21650108.640          50.150          46.400
 133335470.982 7 103897784.99944                  25372892.200
  25372892.960          42.850          29.300
 118990726.867 8  92720047.72847                  22643176.320
  22643171.960          48.250          42.350
 130552012.054 7 101728762.457 6                  24843252.120    24843257.000
  24843256.400          44.700          39.000
 124516821.269 7  97026080.149 7  92983327.071 8  23694772.180    23694774.820
  23694773.960          45.950          43.500
 115338426.963 8  89874065.32247                  21948168.620
  21948163.240          49.800          43.350
 107265703.554 8  83583692.982 8  80101048.991 8  20411970.160    20411968.760
  20411968.260          50.650          49.650
 109202901.231 8  85093188.01747                  20780614.600
  20780611.760          49.450          44.950
 107417371.247 8  83701810.15547                  20440848.480
  20440844.500          49.150          47.050
 133937079.766 7 104366553.82145                  25487378.260
  25487378.720          42.000          31.750
 130683149.976 5 101642499.093 4                  24515826.240    24515847.160
  24515846.140          34.650          28.500
 125142055.532 7  97332681.486 6                  23385811.260    23385818.820
  23385817.460          43.350          39.050
 113615351.314 8  88367508.422 7                  21291472.880    21291478.120
  21291477.500          48.450          44.800
 113200091.136 7  88044544.976 7                  21191292.000    21191297.200
  21191296.860          44.500          42.600
 114276064.580 7  88881480.961 7                  21400208.480    21400215.140
  21400213.680          42.100          45.200
 118869314.040 7  92453915.898 7                  22221358.900    22221362.560
  22221360.640          46.400          42.050
 107227301.355 7  83399040.483 7                  20030953.100    20030955.180
  20030953.800          47.350          46.750
 112950770.512 8  87850608.697 7                  21159488.840    21159494.560
  21159493.780          49.150          45.850
 129957407.749 6 101078011.888 5                  24319748.320    24319757.840
  24319756.300          40.750          32.250
 121989448.167 7  94880714.040 6                  22780663.780    22780669.500
  22780667.700          44.750          41.150
 15  1 27 12  1 15.0000000  0 23G30G06G07G08G02G17G03G23G09G10G20G16
                                G05R14R17R02R12R13R19R03R18R11R04
 123352109.570 7  96118606.246 7  92113675.725 8  23473100.820    23473103.960
  23473103.100          47.000          43.800
 107695185.836 8  83918331.466 8  80421732.355 8  20493709.840    20493711.160
  20493710.380          49.850          50.050
 113760314.311 8  88644470.509 7                  21647844.040    21647842.200
  21647841.660          50.250          46.400
 133349348.979 7 103908599.02345                  25375533.100
  25375533.900          42.750          32.300
 118977271.409 8  92709562.95247                  22640615.800
  22640611.460          48.150          42.600
 130567248.296 7 101740634.829 6                  24846151.500    24846156.420
  24846155.900          44.100          39.900
 124530217.308 7  97036518.593 7  92993330.571 8  23697321.340    23697324.080
  23697323.200          45.950          43.550
 115349757.129 8  89882894.00447                  21950324.640
  21950319.340          49.900          43.650
 107270263.477 8  83587246.167 8  80104454.126 8  20412837.900    20412836.480
  20412835.980          50.600          49.600
 109195041.088 8  85087063.23247                  20779118.840
  20779116.000          49.300          45.550
 107422168.017 8  83705547.89647                  20441761.300
  20441757.300          49.200          47.050
 133929286.840 6 104360481.41145                  25485895.340
  25485895.800          41.650          32.200
 134224233.24916                                  25542022.380
                        37.400
 130661007.032 5 101625276.968 4                  24511672.160    24511691.760
  24511691.700          35.200          27.750
 125163800.249 7  97349593.983 6                  23389874.780    23389882.420
  23389881.080          43.550          39.050
 113625109.979 8  88375098.488 7                  21293301.640    21293306.880
  21293306.220          48.250          44.500
 113202311.057 7  88046271.582 7                  21191707.600    21191712.760
  21191712.460          44.550          42.900
 114259556.781 7  88868641.574 7                  21397117.120    21397123.760
  21397122.300          42.200          44.950
 118860604.685 7  92447141.962 6                  22219730.760    22219734.380
  22219732.500          46.700          41.800
 107224259.214 7  83396674.380 7                  20030384.820    20030386.860
  20030385.480          47.050          46.800
 112962796.501 8  87859962.232 7                  21161741.740    21161747.400
  21161746.640          49.250          45.900
 129975402.886 6 101092008.083 5                  24323115.880    24323125.480
  24323123.840          40.350          32.100
 121976332.981 7  94870513.346 6                  22778214.640    22778220.340
  22778218.460          44.850          40.900
 15  1 27 12  1 20.0000000  0 23G30G06G07G08G02G17G03G23G09G10G20G16
                                G05R14R17R02R12R13R19R03R18R11R04
 123334227.643 7  96104672.294 7  92100322.368 8  23469697.980    23469701.060
  23469700.220          46.650          44.000
 107695732.055 8  83918757.089 8  80422140.244 8  20493813.780    20493815.120
  20493814.320          49.800          50.150
 113748411.196 8  88635195.363 7                  21645578.980    21645577.100
  21645576.560          50.200          46.350
 133363233.692 7 103919418.25745                  25378175.260
  25378176.140          42.150          33.800
 118963823.821 8  92699084.32447                  22638056.800
  22638052.480          48.300          42.700
 130582481.567 7 101752504.871 6                  24849050.380    24849055.340
  24849054.780          44.650          39.700
 124543615.991 7  97046959.100 7  93003336.069 8  23699871.020    23699873.800
  23699872.960          45.950          43.450
 115361091.179 8  89891725.72347                  21952481.400
  21952476.140          49.550          43.950
 107274831.921 8  83590805.991 8  80107865.627 8  20413707.260    20413705.820
  20413705.320          50.400          49.650
 109187187.235 8  85080943.35547                  20777624.260
  20777621.460          49.200          45.550
 107426972.667 8  83709291.77547                  20442675.620
  20442671.580          49.000          47.200
 133921503.037 6 104354416.11445                  25484414.080
  25484414.580          41.100          32.500
 134209111.714 6                                  25539144.280
                        37.000
 130638858.890 5 101608050.783 4                  24507517.040    24507536.240
  24507536.580          35.800          28.250
 125185543.964 7  97366505.701 6                  23393938.120    23393945.740
  23393944.480          43.200          38.600
 113634871.509 8  88382690.787 7                  21295130.960    21295136.180
  21295135.440          48.300          44.300
 113204552.076 7  88048014.597 7                  21192127.140    21192132.360
  21192132.000          44.300          42.800
 114243061.212 7  88855811.702 7                  21394028.080    21394034.660
  21394033.220          42.250          45.000
 118851914.238 7  92440382.714 7                  22218106.160    22218109.760
  22218107.940          46.900          42.050
 107221221.864 7  83394312.003 7                  20029817.400    20029819.420
  20029818.060          46.850          46.950
 112974838.366 8  87869328.120 7                  21163997.640    21164003.280
  21164002.480          48.900          45.950
 129993407.425 6 101106011.611 5                  24326485.200    24326494.720
  24326493.180          40.000          31.700
 121963217.896 7  94860312.737 6                  22775765.460    22775771.180
  22775769.260          45.050          41.100
 15  1 27 12  1 25.0000000  0 23G30G06G07G08G02G17G03G23G09G10G20G16
                                G05R14R17R02R12R13R19R03R18R11R04
 123316349.114 7  96090741.007 7  92086971.551 8  23466295.800    23466298.860
  23466298.020          46.800          44.100
 107696294.699 8  83919195.512 8  80422560.404 8  20493920.840    20493922.180
  20493921.400          49.950          50.150
 113736519.314 8  88625928.969 7                  21643316.040    21643314.140
  21643313.580          50.050          46.450
 133377126.471 7 103930243.79745                  25380818.940
  25380819.900          42.400          34.200
 118950385.500 8  92688612.91147                  22635499.560
  22635495.240          48.150          43.100
 130597713.187 7 101764373.633 6                  24851948.880    24851953.920
  24851953.300          44.600          40.000
 124557018.688 7  97057402.756 7  93013344.563 8  23702421.500    23702424.260
  23702423.460          46.200          43.450
 115372430.474 8  89900561.51347                  21954639.180
  21954633.960          50.000          43.550
 107279410.252 8  83594373.527 8  80111284.517 8  20414578.500    20414577.020
  20414576.560          50.450          49.650
 109179341.081 8  85074829.47847                  20776131.140
  20776128.380          49.200          45.250
 107431786.577 8  83713042.87547                  20443591.720
  20443587.640          49.250          47.000
 133913729.749 6 104348359.02546                  25482934.840
  25482935.040          40.600          37.050
 134193989.093 6 104566751.38245                  25536265.760
  25536262.160          36.850          31.850
 130616706.969 5 101590821.700 4                  24503361.220    24503379.720
  24503380.920          35.200          28.750
 125207288.183 7  97383417.829 6                  23398001.560    23398009.240
  23398007.980          43.200          39.400
 113644637.385 8  88390286.467 7                  21296961.100    21296966.320
  21296965.540          48.400          44.050
 113206815.569 7  88049775.086 7                  21192550.840    21192556.080
  21192555.740          44.100          43.000
 114226579.317 7  88842992.463 7                  21390941.660    21390948.100
  21390946.680          42.100          44.950
 118843244.115 7  92433639.304 6                  22216485.380    22216488.940
  22216487.160          46.900          41.750
 107218190.662 7  83391954.405 7                  20029251.080    20029253.180
  20029251.800          46.950          46.250
 112986897.432 8  87878707.386 7                  21166256.720    21166262.340
  21166261.560          48.700          45.900
 130011422.777 6 101120023.552 5                  24329856.580    24329866.100
  24329864.540          40.600          31.200
 121950104.335 7  94850113.318 6                  22773316.560    22773322.260
  22773320.380          44.850          41.000
 15  1 27 12  1 30.0000000  0 23G30G06G07G08G02G17G03G23G09G10G20G16
                                G05R14R17R02R12R13R19R03R18R11R04
 123298474.602 7  96076812.841 7  92073623.717 8  23462894.380    23462897.420
  23462896.580          46.850          44.000
 107696874.334 8  83919647.175 8  80422993.237 8  20494031.160    20494032.480
  20494031.700          49.900          50.200
 113724639.276 8  88616671.809 7                  21641055.380    21641053.420
  21641052.840          49.950          46.450
 133391027.840 7 103941076.03945                  25383464.280
  25383465.240          42.100          33.950
 118936957.034 8  92678149.18247                  22632944.220
  22632939.880          48.150          43.400
 130612943.689 7 101776241.511 6                  24854847.200    24854852.240
  24854851.700          44.350          40.250
 124570426.002 7  97067850.005 7  93023356.497 8  23704972.860    23704975.600
  23704974.800          46.100          43.100
 115383775.567 8  89909401.84547                  21956798.080
  21956792.860          50.000          43.700
 107283999.030 8  83597949.196 8  80114711.186 8  20415451.720    20415450.240
  20415449.760          50.300          49.750
 109171503.175 8  85068722.02547                  20774639.600
  20774636.860          49.400          45.650
 107436610.292 8  83716801.61947                  20444509.660
  20444505.560          49.200          46.950
 133905967.651 6 104342310.68945                  25481457.740
  25481457.960          41.050          32.800
 134178866.002 5 104554977.24355                  25533387.200
  25533393.460          34.800          30.100
 130594551.690 5 101573630.783 4                  24499204.900
  24499224.340          34.500          26.550
 125229033.402 7  97400330.713 6                  23402065.140    23402072.820
  23402071.680          43.100          39.400
 113654408.182 8  88397885.977 7                  21298792.160    21298797.320
  21298796.540          48.400          44.050
 113209101.975 7  88051553.404 7                  21192978.860    21192984.060
  21192983.800          44.200          43.050
 114210111.957 6  88830184.526 7                  21387857.860    21387864.240
  21387862.860          41.950          44.850
 118834594.921 7  92426912.158 6                  22214868.500    22214872.080
  22214870.280          46.950          41.550
 107215166.202 7  83389602.052 7                  20028686.060    20028688.140
  20028686.780          46.900          46.900
 112998974.320 8  87888100.512 7                  21168519.140    21168524.720
  21168523.980          48.650          45.850
 130029449.532 6 101134044.378 5                  24333230.080    24333239.540
  24333237.960          40.550          31.400
 121936992.903 7  94839915.545 6                  22770868.060    22770873.740
  22770871.880          45.050          40.950
 15  1 27 12  1 35.0000000  0 22G30G06G07G08G02G17G03G23G09G10G20G16
                                R14R17R02R12R13R19R03R18R11R04
 123280602.521 7  96062886.566 7  92060277.726 8  23459493.420    23459496.460
  23459495.600          46.350          44.400
 107697469.394 8  83920110.857 8  80423437.607 8  20494144.400    20494145.720
  20494144.940          49.900          50.200
 113712769.504 8  88607422.644 7                  21638796.660    21638794.680
  21638794.080          50.050          46.550
 133404936.300 7 103951913.76145                  25386110.920
  25386111.880          42.100          32.800
 118923536.911 8  92667691.94547                  22630390.460
  22630386.120          48.150          43.150
 130628171.586 7 101788107.354 6                  24857745.040    24857750.000
  24857749.500          44.500          40.600
 124583836.346 7  97078299.607 7  93033370.691 8  23707524.800    23707527.520
  23707526.700          46.350          43.250
 115395124.917 8  89918245.47847                  21958957.820
  21958952.580          50.200          43.450
 107288596.677 8  83601531.777 8  80118144.503 8  20416326.620    20416325.140
  20416324.660          50.350          49.800
 109163671.987 8  85062619.80547                  20773149.340
  20773146.620          49.550          45.150
 107441442.271 8  83720566.79547                  20445429.200
  20445425.060          49.150          47.000
 133898215.166 6 104336269.78544                  25479982.480
  25479982.920          41.550          29.050
 130572391.677 5                                  24495047.520
                        34.100
 125250777.926 7  97417243.058 6                  23406128.620    23406136.340
  23406135.260          44.050          39.650
 113664182.302 8  88405488.063 7                  21300623.800    21300628.960
  21300628.180          48.050          44.300
 113211409.858 7  88053348.422 7                  21193410.920    21193416.160
  21193415.880          43.950          43.150
 114193657.365 6  88817386.512 7                  21384776.420    21384782.760
  21384781.440          41.800          44.950
 118825965.028 7  92420200.010 6                  22213255.240    22213258.740
  22213257.000          46.350          41.800
 107212146.889 7  83387253.676 7                  20028122.000    20028124.100
  20028122.720          46.850          46.350
 113011067.357 8  87897506.196 7                  21170784.580    21170790.160
  21170789.440          48.650          45.900
 130047486.198 6 101148072.879 5                  24336605.380    24336614.940
  24336613.300          40.550          31.950
 121923881.878 7  94829718.081 6                  22768419.660    22768425.300
  22768423.460          45.200          41.000
 15  1 27 12  1 40.0000000  0 22G30G06G07G08G02G17G03G23G09G10G20G16
                                R14R17R02R12R13R19R03R18R11R04
 123262734.407 7  96048963.399 7  92046934.705 8  23456093.200    23456096.240
  23456095.400          46.600          44.050
 107698081.416 8  83920587.751 8  80423894.629 8  20494260.880    20494262.180
  20494261.420          49.850          50.100
 113700911.517 8  88598182.654 7                  21636540.180    21636538.140
  21636537.540          50.100          46.400
 133418853.326 7 103962758.18345                  25388759.220
  25388760.240          42.700          32.650
 118910126.662 8  92657242.40747                  22627838.580
  22627834.220          48.250          43.050
 130643398.377 7 101799972.353 6                  24860642.620    24860647.580
  24860647.080          44.250          40.100
 124597251.242 7  97088752.759 7  93043388.289 8  23710077.580    23710080.320
  23710079.460          45.850          43.250
 115406479.998 8  89927093.58947                  21961118.640
  21961113.380          50.500          43.350
 107293204.728 8  83605122.465 8  80121585.579 8  20417203.520    20417202.020
  20417201.540          50.400          49.750
 109155848.991 8  85056523.96247                  20771660.660
  20771657.940          49.550          45.000
 107446284.001 8  83724339.56747                  20446350.580
  20446346.400          49.250          47.400
 133890473.763 6 104330237.49845                  25478509.340
  25478509.740          40.800          31.950
 130550228.429 5                                  24490889.860
                        35.300
 125272523.349 7  97434156.104 6                  23410192.260    23410200.020
  23410199.000          44.200          39.350
 113673961.223 8  88413093.873 7                  21302456.340    21302461.540
  21302460.720          48.300          44.400
 113213740.750 7  88055161.335 7                  21193847.220    21193852.520
  21193852.280          43.950          42.750
 114177217.134 6  88804599.675 7                  21381697.700    21381704.060
  21381702.660          41.950          44.850
 118817355.954 7  92413504.083 7                  22211645.820    22211649.380
