     2.11           OBSERVATION DATA    M (MIXED)           RINEX VERSION / TYPE
teqc  2011Oct11     IGN-E (SPG)         20150127 21:00:56UTCPGM / RUN BY / DATE
Linux 2.4.21-27.ELsmp|Opteron|gcc -static|Linux x86_64|=+   COMMENT
BIT 2 OF LLI FLAGS DATA COLLECTED UNDER A/S CONDITION       COMMENT
VALE                                                        MARKER NAME
13439M001                                                   MARKER NUMBER
Programas GeodesicosInstituto Geografico Nacional           OBSERVER / AGENCY
1700071             LEICA GR10          3.03/6.214          REC # / TYPE / VERS
10190012            LEIAR25.R3      LEIT                    ANT # / TYPE
  4929534.0457   -29050.6755  4033709.9250                  APPROX POSITION XYZ
        3.0390        0.0000        0.0000                  ANTENNA: DELTA H/E/N
     1     1                                                WAVELENGTH FACT L1/2
     8    L1    L2    L5    C1    C2    P2    S1    S2      # / TYPES OF OBSERV
     5.0000                                                 INTERVAL
Forced Modulo Decimation to 5 seconds                       COMMENT
DefaultJobName                                              COMMENT
DefaultUserDiscription                                      COMMENT
Project creator:                                            COMMENT
 SNR is mapped to RINEX snr flag value [0-9]                COMMENT
  L1 & L2: min(max(int(snr_dBHz/6), 0), 9)                  COMMENT
  2015     1    27    20     0    0.0000000     GPS         TIME OF FIRST OBS
    15                                                      LEAP SECONDS
                                                            END OF HEADER
 15  1 27 20  0  0.0000000  0 23G22G14G18G13G17G15G06G24G12G25G29G02
                                R18R16R17R08R06R09R07R19R10E19E20
 127058584.873 7  99006701.41946                  24178438.720
  24178432.760          45.600          36.750
 126167183.138 7  98312089.93446                  24008810.500
  24008806.200          45.300          37.050
 125469855.282 7  97768730.00045                  23876109.380
  23876105.840          45.100          35.350
 132153616.813 7 102976897.14145                  25147982.220
  25147981.140          43.400          30.150
 129424216.869 7 100850105.180 6                  24628578.360    24628573.940
  24628573.420          45.250          39.650
 117048643.599 8  91206765.054 7                  22273597.740    22273594.460
  22273593.960          49.450          45.700
 133328563.879 6 103892390.170 6  99563536.669 7  25371582.040    25371581.880
  25371581.200          41.300          36.750
 107450483.113 8  83727737.054 8  80239098.987 8  20447113.260    20447111.460
  20447110.820          50.000          49.850
 105843230.023 8  82475355.201 8                  20141230.780    20141226.120
  20141225.280          50.550          49.100
 116565936.559 8  90830704.119 7  87046119.249 8  22181719.120    22181718.740
  22181717.960          48.850          47.050
 132640637.236 7 103356425.639 6                  25240661.000    25240676.440
  25240676.840          42.600          38.900
 134771432.917 7 105016682.94645                  25646148.620
  25646143.720          42.250          30.800
 113473509.516 8  88257251.757 7                  21257392.600    21257395.780
  21257394.740          48.800          45.600
 113000528.366 7  87889360.015 7                  21153919.200    21153921.620
  21153920.860          46.850          44.700
 130103339.948 6 101191495.721 5                  24312917.620    24312918.800
  24312917.660          40.150          34.800
 118655785.091 7  92287841.703 7                  22158129.680    22158130.540
  22158129.720          46.200          43.550
 124208837.386 7  96606919.235 6                  23276677.680    23276682.000
  23276681.980          44.700          38.000
 106948007.382 7  83181729.715 6                  20027890.600    20027893.840
  20027891.360          47.100          37.700
 113367664.862 8  88174865.060 7                  21178031.020    21178032.600
  21178031.660          48.850          45.850
 114686414.643 8  89200542.064 7                  21439363.400    21439364.700
  21439362.940          48.800          44.150
 120983541.431 7  94098351.768 6                  22696194.780    22696202.880
  22696202.260          44.700          38.100
 133261888.785 8                  99513784.875 7  25358881.860
                        49.800
 127743963.060 7                                  24308867.740
                        46.250
 15  1 27 20  0  5.0000000  0 23G22G14G18G13G17G15G06G24G12G25G29G02
                                R18R16R17R08R06R09R07R19R10E19E20
 127062340.775 7  99009628.08846                  24179153.440
  24179147.520          45.750          36.800
 126150971.816 7  98299457.74946                  24005725.600
  24005721.240          45.350          36.650
 125479686.407 7  97776390.59945                  23877980.180
  23877976.780          44.800          33.200
 132173008.441 7 102992007.43244                  25151672.420
  25151671.040          43.800          29.350
 129437642.449 7 100860566.682 6                  24631133.120    24631128.760
  24631128.180          44.950          39.650
 117063871.365 8  91218630.839 7                  22276495.440    22276492.160
  22276491.680          49.650          45.450
 133318653.418 6 103884667.718 6  99556135.982 7  25369696.100    25369696.040
  25369695.260          41.450          37.300
 107451599.992 8  83728607.353 8  80239933.022 8  20447325.800    20447324.000
  20447323.340          50.050          49.750
 105841406.311 8  82473934.129 8                  20140883.740    20140879.040
  20140878.240          50.700          49.050
 116553501.306 8  90821014.318 7  87036833.197 8  22179352.740    22179352.380
  22179351.600          48.800          46.850
 132621654.860 6 103341634.687 6                  25237048.400    25237063.760
  25237064.160          41.500          38.950
 134760354.655 7 105008050.56645                  25644040.460
  25644035.480          42.050          31.150
 113477309.302 8  88260207.144 7                  21258104.420    21258107.600
  21258106.560          48.450          45.750
 113009938.730 7  87896679.190 7                  21155680.860    21155683.280
  21155682.520          47.400          45.050
 130120832.573 6 101205101.131 6                  24316186.520    24316187.780
  24316186.580          40.250          36.500
 118648599.971 7  92282253.280 7                  22156787.880    22156788.800
  22156787.940          46.400          43.400
 124230152.025 7  96623497.225 6                  23280671.960    23280676.520
  23280676.420          44.050          38.150
 106945249.458 7  83179584.670 6                  20027374.080    20027377.340
  20027374.900          47.000          38.000
 113378763.490 8  88183497.318 7                  21180104.320    21180105.940
  21180104.980          49.100          45.500
 114669584.357 8  89187451.847 7                  21436217.120    21436218.420
  21436216.640          48.850          44.050
 120970856.389 7  94088485.646 6                  22693815.060    22693823.140
  22693822.580          44.600          38.200
 133266903.127 8                  99517529.361 7  25359836.100
                        49.950
 127757633.375 7                                  24311469.120
                        46.400
 15  1 27 20  0 10.0000000  0 23G22G14G18G13G17G15G06G24G12G25G29G02
                                R18R16R17R08R06R09R07R19R10E19E20
 127066108.476 7  99012563.94445                  24179870.400
  24179864.460          45.400          34.650
 126134765.397 7  98286829.38546                  24002641.620
  24002637.260          45.250          36.050
 125489523.839 7  97784056.13645                  23879852.160
  23879848.840          43.850          34.050
 132192401.132 7 103007118.59844                  25155362.820
  25155361.480          43.350          29.700
 129451076.674 7 100871034.913 6                  24633689.520    24633685.240
  24633684.640          44.850          40.150
 117079106.948 8  91230502.720 7                  22279394.640    22279391.380
  22279390.900          49.700          45.450
 133308749.361 6 103876950.301 6  99548740.122 7  25367811.380    25367811.320
  25367810.660          41.350          37.200
 107452725.058 8  83729484.037 8  80240773.176 8  20447539.880    20447538.100
  20447537.440          49.950          49.850
 105839594.558 8  82472522.384 8                  20140538.980    20140534.280
  20140533.480          50.550          49.200
 116541074.064 8  90811330.771 7  87027553.122 8  22176987.880    22176987.560
  22176986.760          48.800          46.800
 132602670.102 6 103326841.903 6                  25233435.340    25233450.620
  25233451.120          40.200          38.300
 134749274.463 6 104999416.71544                  25641931.980
  25641927.080          40.000          29.800
 113481131.169 8  88263179.724 7                  21258820.380    21258823.580
  21258822.560          48.650          45.550
 113019353.638 7  87904001.894 7                  21157443.320    21157445.780
  21157445.000          46.850          44.800
 130138336.162 6 101218715.033 5                  24319457.480    24319458.760
  24319457.560          40.000          35.800
 118641435.175 7  92276680.662 7                  22155449.900    22155450.820
  22155449.960          46.550          43.300
 124251467.431 7  96640075.814 6                  23284666.440    23284671.000
  23284670.940          44.200          37.950
 106942497.620 7  83177444.347 6                  20026858.760    20026861.960
  20026859.560          47.000          37.350
 113389879.818 8  88192143.357 7                  21182180.960    21182182.560
  21182181.560          48.900          45.350
 114652766.807 8  89174371.537 7                  21433073.220    21433074.560
  21433072.740          48.800          44.350
 120958172.600 7  94078620.483 6                  22691435.560    22691443.560
  22691443.080          44.700          37.850
 133271928.218 8                  99521281.860 7  25360792.380
                        49.650
 127771307.298 7                                  24314071.160
                        46.150
 15  1 27 20  0 15.0000000  0 23G22G14G18G13G17G15G06G24G12G25G29G02
                                R18R16R17R08R06R09R07R19R10E19E20
 127069887.566 7  99015508.69846                  24180589.540
  24180583.560          45.000          37.300
 126118563.516 7  98274204.53246                  23999558.520
  23999554.120          45.250          36.900
 125499367.243 7  97791726.31346                  23881725.260
  23881722.060          43.800          36.200
 132211794.567 7 103022230.26345                  25159053.320
  25159052.120          42.850          31.400
 129464519.176 7 100881509.577 6                  24636247.540    24636243.300
  24636242.700          44.600          39.900
 117094350.003 8  91242380.427 7                  22282295.280    22282292.020
  22282291.540          49.850          45.600
 133298851.454 6 103869237.635 6  99541348.821 7  25365927.940    25365927.760
  25365927.020          41.700          36.950
 107453858.049 8  83730366.887 8  80241619.241 8  20447755.460    20447753.700
  20447753.040          49.900          49.900
 105837794.428 8  82471119.684 8                  20140196.440    20140191.740
  20140190.920          50.450          49.250
 116528654.437 8  90801653.144 7  87018278.736 8  22174624.460    22174624.180
  22174623.380          48.700          46.750
 132583682.605 6 103312046.958 6                  25229821.760    25229837.080
  25229837.720          40.000          38.400
 134738191.966 6 104990781.03045                  25639823.040
  25639818.260          39.900          30.750
 113484974.888 8  88266169.291 7                  21259540.440    21259543.640
  21259542.660          48.800          45.300
 113028772.600 7  87911327.749 7                  21159206.560    21159209.020
  21159208.200          46.750          44.200
 130155850.012 6 101232336.948 6                  24322730.360    24322731.740
  24322730.520          40.100          36.650
 118634290.196 7  92271123.458 7                  22154115.580    22154116.540
  22154115.660          46.600          42.750
 124272783.377 7  96656654.825 6                  23288661.040    23288665.580
  23288665.600          44.250          38.300
 106939751.425 7  83175308.426 6                  20026344.460    20026347.680
  20026345.280          47.150          37.400
 113401013.539 8  88200802.905 7                  21184260.860    21184262.400
  21184261.400          48.700          45.100
 114635961.649 8  89161300.850 7                  21429931.660    21429932.940
  21429931.180          48.750          44.050
 120945489.792 7  94068756.093 6                  22689056.340    22689064.340
  22689063.780          44.850          38.000
 133276963.687 8                  99525042.117 7  25361750.600
                        49.600
 127784984.363 7                                  24316673.800
                        46.250
 15  1 27 20  0 20.0000000  0 23G22G14G18G13G17G15G06G24G12G25G29G02
                                R18R16R17R08R06R09R07R19R10E19E20
 127073678.940 7  99018463.01146                  24181310.980
  24181305.080          45.250          36.750
 126102367.108 7  98261583.96546                  23996476.400
  23996472.000          45.300          36.200
 125509217.484 7  97799401.82945                  23883599.640
  23883596.700          44.400          34.600
 132231189.582 7 103037343.20845                  25162744.100
  25162742.960          42.900          31.100
 129477970.771 7 100891991.340 6                  24638807.240    24638803.080
  24638802.440          44.800          39.850
 117109601.395 8  91254264.623 7                  22285197.520    22285194.280
  22285193.760          49.950          45.600
 133288960.547 6 103861530.398 6  99533962.726 7  25364045.800    25364045.520
  25364044.620          41.200          37.150
 107454999.853 8  83731256.606 8  80242471.887 8  20447972.720    20447970.960
  20447970.320          49.950          50.000
 105836006.743 8  82469726.688 8                  20139856.260    20139851.540
  20139850.740          50.450          49.400
 116516243.330 8  90791982.166 7  87009010.706 8  22172262.680    22172262.420
  22172261.640          48.850          46.950
 132564693.219 6 103297250.562 6                  25226207.860    25226223.160
  25226223.880          39.700          38.950
 134727108.048 6 104982144.26645                  25637713.780
  25637709.220          40.400          31.750
 113488841.280 8  88269176.471 7                  21260264.740    21260267.960
  21260267.000          49.100          45.150
 113038196.600 7  87918657.529 7                  21160970.760    21160973.200
  21160972.340          47.150          44.100
 130173375.271 6 101245967.671 6                  24326005.340    24326006.800
  24326005.640          38.950          36.900
 118627166.205 7  92265582.570 7                  22152785.200    22152786.220
  22152785.260          46.650          42.700
 124294100.451 7  96673234.711 6                  23292655.840    23292660.620
  23292660.540          44.350          37.250
 106937011.935 7  83173177.697 6                  20025831.420    20025834.660
  20025832.240          46.900          37.300
 113412165.387 8  88209476.561 7                  21186344.100    21186345.640
  21186344.640          48.500          45.450
 114619169.720 8  89148240.477 7                  21426792.580    21426793.840
  21426792.100          48.750          44.100
 120932808.914 7  94058893.190 6                  22686677.420    22686685.400
  22686684.860          44.750          38.200
 133282010.413 8                  99528810.754 7  25362710.940
                        49.750
 127798665.483 7                                  24319277.220
                        46.350
 15  1 27 20  0 25.0000000  0 23G22G14G18G13G17G15G06G24G12G25G29G02
                                R18R16R17R08R06R09R07R19R10E19E20
 127077483.544 7  99021427.63846                  24182034.980
  24182029.080          45.600          36.900
 126086177.119 7  98248968.39746                  23993395.520
  23993391.120          45.000          37.400
 125519075.468 7  97807083.36746                  23885475.500
  23885472.800          44.350          36.750
 132250587.160 7 103052458.15145                  25166435.300
  25166434.300          42.050          31.100
 129491432.459 7 100902480.965 6                  24641368.920    24641364.800
  24641364.160          45.100          39.950
 117124862.074 8  91266156.065 7                  22288101.520    22288098.280
  22288097.740          50.000          46.000
 133279077.573 6 103853829.387 6  99526582.630 7  25362165.040    25362164.820
  25362164.020          40.000          38.250
 107456151.310 8  83732153.855 8  80243331.749 8  20448191.820    20448190.100
  20448189.420          50.000          50.000
 105834232.541 8  82468344.194 8                  20139518.640    20139513.900
  20139513.120          50.350          49.450
 116503841.712 8  90782318.578 7  86999749.765 8  22169902.720    22169902.480
  22169901.680          48.800          47.100
 132545703.084 6 103282453.595 6                  25222593.880    25222608.960
  25222609.840          40.000          39.100
 134716023.752 6 104973507.15445                  25635604.420
  25635599.880          40.550          30.650
 113492731.394 8  88272202.107 7                  21260993.480    21260996.720
  21260995.780          48.850          44.900
 113047626.593 7  87925991.966 7                  21162736.040    21162738.500
  21162737.620          47.400          43.950
 130190912.843 6 101259607.984 6                  24329282.720    24329284.140
  24329283.080          39.050          36.500
 118620064.020 7  92260058.635 7                  22151458.900    22151459.980
  22151458.960          45.800          42.950
 124315419.802 7  96689816.385 6                  23296651.120    23296655.920
  23296655.800          44.500          36.900
 106934280.011 7  83171052.868 6                  20025319.780    20025323.040
  20025320.640          46.750          37.050
 113423336.512 8  88218165.203 7                  21188430.960    21188432.540
  21188431.500          48.150          45.600
 114602392.151 8  89135191.263 7                  21423656.180    21423657.480
  21423655.740          48.500          44.150
 120920130.824 7  94049032.467 6                  22684299.040    22684306.980
  22684306.440          45.050          37.900
 133287069.349 8                  99532588.537 7  25363673.640
                        49.750
 127812351.692 7                                  24321881.620
                        46.200
 15  1 27 20  0 30.0000000  0 23G22G14G18G13G17G15G06G24G12G25G29G02
                                R18R16R17R08R06R09R07R19R10E19E20
 127081299.640 7  99024401.21746                  24182761.180
  24182755.340          45.200          36.350
 126069991.814 7  98236356.48246                  23990315.560
  23990311.140          44.950          36.700
 125528939.485 7  97814769.60445                  23887352.540
  23887349.960          44.700          34.200
 132269985.470 7 103067573.60445                  25170126.620
  25170125.780          42.650          31.050
 129504902.439 7 100912977.059 6                  24643932.140    24643927.980
  24643927.420          45.050          39.700
 117140130.309 8  91278053.391 7                  22291006.960    22291003.740
  22291003.160          50.050          45.850
 133269200.939 6 103846133.333 6  99519207.204 7  25360285.480    25360285.480
  25360284.660          41.200          38.850
 107457310.718 8  83733057.292 8  80244197.546 8  20448412.440    20448410.740
  20448410.060          50.050          49.950
 105832469.999 8  82466970.781 8                  20139183.240    20139178.520
  20139177.720          50.200          49.150
 116491447.848 8  90772661.025 7  86990494.622 8  22167544.240    22167544.020
  22167543.200          48.750          46.850
 132526710.348 6 103267654.570 6                  25218979.280    25218994.420
  25218995.180          40.850          38.650
 134704937.272 6 104964868.37545                  25633494.700
  25633490.180          41.900          32.650
 113496643.346 8  88275244.738 7                  21261726.300    21261729.560
  21261728.640          48.250          45.000
 113057060.844 7  87933329.719 7                  21164502.160    21164504.620
  21164503.680          47.450          44.000
 130208460.962 6 101273256.536 6                  24332562.060    24332563.400
  24332562.440          39.300          36.300
 118612981.892 7  92254550.334 7                  22150136.300    22150137.440
  22150136.420          45.950          42.600
 124336739.616 7  96706398.413 6                  23300646.520    23300651.280
  23300651.140          44.950          37.050
 106931553.874 7  83168932.547 6                  20024809.260    20024812.480
  20024810.120          46.450          37.950
 113434524.949 8  88226867.321 7                  21190521.040    21190522.640
  21190521.620          48.350          45.700
 114585627.075 8  89122151.773 7                  21420522.120    21420523.440
  21420521.720          48.650          44.150
 120907453.895 7  94039172.645 6                  22681920.800    22681928.820
  22681928.280          45.150          38.200
 133292138.756 8                  99536374.135 7  25364638.340
                        49.800
 127826041.201 7                                  24324486.660
                        45.900
 15  1 27 20  0 35.0000000  0 23G22G14G18G13G17G15G06G24G12G25G29G02
                                R18R16R17R08R06R09R07R19R10E19E20
 127085128.230 7  99027384.52846                  24183489.700
  24183483.900          45.350          37.700
 126053812.212 7  98223748.99945                  23987236.680
  23987232.160          44.800          35.150
 125538810.580 7  97822461.36245                  23889230.960
  23889228.440          45.500          34.400
 132289385.613 7 103082690.51344                  25173818.420
  25173817.600          43.300          29.100
 129518381.820 7 100923480.482 6                  24646497.200    24646493.020
  24646492.480          45.400          39.250
 117155407.075 8  91289957.360 7                  22293914.040    22293910.820
  22293910.240          50.100          45.700
 133259331.541 6 103838442.895 6  99511837.211 7  25358407.400    25358407.380
  25358406.720          41.700          39.300
 107458479.170 8  83733967.774 8  80245070.086 8  20448634.760    20448633.080
  20448632.420          50.000          49.850
 105830720.178 8  82465607.286 8                  20138850.240    20138845.540
  20138844.740          50.150          49.050
 116479062.743 8  90763010.298 7  86981246.008 8  22165187.400    22165187.220
  22165186.380          48.650          46.900
 132507716.133 6 103252854.395 6                  25215364.400    25215379.680
  25215380.280          41.350          38.550
 134693849.657 7 104956228.68945                  25631384.740
  25631380.340          42.450          31.800
 113500578.239 8  88278305.219 7                  21262463.420    21262466.680
  21262465.820          48.350          45.350
 113066500.351 7  87940671.559 7                  21166269.280    21166271.660
  21166270.760          47.350          44.000
 130226020.522 6 101286913.969 6                  24335843.460    24335844.820
  24335843.940          39.000          36.850
 118605920.966 7  92249058.497 7                  22148817.700    22148818.820
  22148817.800          46.100          42.550
 124358060.981 7  96722981.642 6                  23304642.180    23304646.780
  23304646.820          45.150          37.000
 106928834.603 7  83166817.561 6                  20024300.040    20024303.200
  20024300.880          46.200          37.100
 113445731.964 8  88235583.888 7                  21192614.580    21192616.260
  21192615.220          48.650          45.600
 114568875.667 8  89109122.902 7                  21417390.620    21417391.960
  21417390.240          48.300          44.400
 120894779.224 7  94029314.571 6                  22679543.040    22679551.100
  22679550.520          44.900          37.850
 133297219.650 8                  99540168.307 7  25365605.240
                        49.800
 127839734.962 7                                  24327092.500
                        46.100
 15  1 27 20  0 40.0000000  0 23G22G14G18G13G17G15G06G24G12G25G29G02
                                R18R16R17R08R06R09R07R19R10E19E20
 127088967.352 7  99030376.04745                  24184220.280
  24184214.440          46.350          35.150
 126037636.380 7  98211144.46545                  23984158.480
  23984154.040          45.900          35.050
 125548686.712 7  97830157.02745                  23891110.320
  23891107.840          45.950          33.800
 132308785.509 7 103097807.24544                  25177510.180
  25177509.320          45.200          28.300
 129531868.598 7 100933989.657 6                  24649063.660    24649059.460
  24649058.900          46.650          39.750
 117170690.413 8  91301866.457 7                  22296822.380    22296819.160
  22296818.560          50.700          45.800
 133249467.521 7 103830756.646 6  99504471.199 7  25356530.260    25356530.420
  25356529.680          43.150          39.450
 107459654.658 8  83734883.745 8  80245947.895 8  20448858.440    20448856.780
  20448856.120          50.600          49.850
 105828981.113 8  82464252.177 8                  20138519.280    20138514.620
  20138513.820          50.900          49.200
 116466684.434 8  90753364.872 7  86972002.482 8  22162831.840    22162831.720
  22162830.860          49.400          46.900
 132488718.360 7 103238051.431 6                  25211748.880    25211764.160
  25211764.780          43.100          38.550
 134682758.923 7 104947586.57144                  25629274.200
  25629269.780          43.500          29.200
 113504534.001 8  88281381.931 7                  21263204.420    21263207.740
  21263206.900          49.200          45.050
 113075943.071 8  87948015.893 7                  21168037.000    21168039.320
  21168038.420          48.100          44.200
 130243589.529 6 101300578.774 6                  24339126.640    24339128.080
  24339127.180          39.700          36.300
 118598879.142 7  92243581.521 7                  22147502.700    22147503.780
  22147502.760          46.700          42.750
 124379381.801 7  96739564.457 6                  23308637.720    23308642.280
  23308642.320          46.000          36.450
 106926120.275 7  83164706.447 6                  20023791.740    20023794.800
  20023792.560          47.200          37.700
 113456955.394 8  88244313.220 7                  21194711.200    21194712.880
  21194711.880          49.050          45.650
 114552135.832 8  89096103.043 7                  21414261.280    21414262.620
  21414260.920          49.250          44.500
 120882104.665 7  94019456.594 6                  22677165.300    22677173.380
  22677172.800          45.850          38.500
 133302310.040 8                  99543969.562 7  25366573.940
                        50.400
 127853431.032 7                                  24329698.760
                        46.900
 15  1 27 20  0 45.0000000  0 23G22G14G18G13G17G15G06G24G12G25G29G02
                                R18R16R17R08R06R09R07R19R10E19E20
 127092818.313 7  99033376.78246                  24184953.080
  24184947.320          45.000          36.400
 126021465.679 7  98198543.92946                  23981081.300
  23981076.860          45.000          36.600
 125558569.222 7  97837857.68646                  23892990.920
  23892988.480          43.900          36.500
 132328186.556 7 103112924.89745                  25181202.180
  25181201.240          44.400          32.500
 129545364.081 7 100944505.624 6                  24651631.800    24651627.600
  24651627.020          45.750          39.850
 117185981.657 8  91313781.708 7                  22299732.240    22299729.000
  22299728.400          50.250          45.900
 133239610.183 7 103823075.601 6  99497110.180 7  25354654.460    25354654.700
  25354653.900          42.200          39.700
 107460838.644 8  83735806.334 8  80246832.046 8  20449083.740    20449082.080
  20449081.440          49.900          49.850
 105827254.072 8  82462906.435 8                  20138190.620    20138185.960
  20138185.160          50.400          49.300
 116454314.306 8  90743725.820 7  86962765.055 8  22160477.860    22160477.760
  22160476.880          48.750          47.050
 132469718.387 7 103223246.757 6                  25208132.900    25208148.320
  25208148.840          42.600          38.750
 134671666.441 7 104938943.12045                  25627163.320
  25627158.780          42.000          30.500
 113508512.049 8  88284475.964 7                  21263949.620    21263953.020
  21263952.140          48.350          44.800
 113085390.417 7  87955363.825 7                  21169805.560    21169807.860
  21169806.960          46.700          44.000
 130261169.370 6 101314252.008 5                  24342411.900    24342413.360
  24342412.360          38.000          35.750
 118591857.854 7  92238120.525 7                  22146191.500    22146192.600
  22146191.580          45.500          42.450
 124400703.502 7  96756147.965 6                  23312633.500    23312637.920
  23312638.020          44.850          37.300
 106923412.181 7  83162600.115 6                  20023284.580    20023287.680
  20023285.400          46.600          36.650
 113468196.633 7  88253056.394 7                  21196811.120    21196812.840
  21196811.840          47.600          45.000
 114535409.007 8  89083093.279 7                  21411134.380    21411135.760
  21411134.040          48.300          44.400
 120869431.482 7  94009599.696 6                  22674787.860    22674795.980
  22674795.380          44.850          38.350
 133307411.292 8                  99547778.943 7  25367544.700
                        49.850
 127867130.765 7                                  24332305.700
                        46.000
 15  1 27 20  0 50.0000000  0 23G22G14G18G13G17G15G06G24G12G25G29G02
                                R18R16R17R08R06R09R07R19R10E19E20
 127096682.238 7  99036387.63246                  24185688.360
  24185682.700          44.600          37.400
 126005301.229 7  98185948.27146                  23978005.300
  23978000.840          45.600          36.050
 125568459.251 7  97845564.19445                  23894872.960
  23894870.380          44.150          35.400
 132347589.823 7 103128044.27345                  25184894.620
  25184893.620          44.600          32.850
 129558869.428 7 100955029.269 6                  24654201.840    24654197.560
  24654197.060          45.950          40.200
 117201281.887 8  91325703.967 7                  22302643.820    22302640.560
  22302639.960          50.100          46.050
 133229760.649 6 103815400.632 6  99489754.983 7  25352780.160    25352780.440
  25352779.760          41.150          40.100
 107462032.112 8  83736736.305 8  80247723.271 8  20449310.820    20449309.200
  20449308.560          49.800          50.000
 105825540.166 8  82461570.929 8                  20137864.440    20137859.780
  20137859.020          50.450          49.350
 116441953.417 8  90734093.967 7  86953534.527 8  22158125.640    22158125.560
  22158124.680          48.850          47.250
 132450717.354 7 103208441.257 6                  25204516.720    25204532.280
  25204532.560          42.650          38.050
 134660573.393 7 104930299.23545                  25625052.320
  25625047.720          42.250          34.800
 113512513.508 8  88287588.210 7                  21264699.200    21264702.600
  21264701.740          48.700          44.800
 113094843.564 7  87962716.275 7                  21171575.220    21171577.480
  21171576.620          46.800          44.600
 130278761.177 6 101327934.514 6                  24345699.300    24345700.880
  24345699.840          37.950          36.800
 118584858.157 7  92232676.311 7                  22144884.380    22144885.400
  22144884.440          45.050          42.800
 124422027.001 7  96772732.836 6                  23316629.600    23316634.000
  23316634.080          45.300          36.100
 106920711.443 7  83160499.555 6                  20022778.840    20022781.980
  20022779.620          46.650          37.100
 113479456.724 7  88261814.244 7                  21198914.540    21198916.260
  21198915.280          47.700          44.950
 114518696.333 8  89070094.544 7                  21408010.140    21408011.520
  21408009.840          48.550          44.850
 120856761.006 7  93999744.888 6                  22672410.940    22672418.960
  22672418.460          44.800          38.600
 133312524.491 8                  99551597.245 7  25368517.740
                        49.700
 127880835.230 7                                  24334913.560
                        45.900
 15  1 27 20  0 55.0000000  0 23G22G14G18G13G17G15G06G24G12G25G29G02
                                R18R16R17R08R06R09R07R19R10E19E20
 127100556.841 7  99039406.78346                  24186425.620
  24186420.040          44.650          36.250
 125989140.747 7  98173355.67745                  23974930.060
  23974925.620          46.000          35.300
 125578354.464 7  97853274.73045                  23896756.000
  23896753.300          44.650          32.100
 132366993.062 7 103143163.59645                  25188587.020
  25188585.960          44.350          33.400
 129572382.265 7 100965558.763 6                  24656773.260    24656769.020
  24656768.500          46.000          40.050
 117216588.794 8  91337631.421 7                  22305556.700    22305553.400
  22305552.760          50.100          45.950
 133219916.623 6 103807729.974 6  99482403.940 7  25350906.820    25350907.220
  25350906.640          40.900          39.750
 107463232.812 8  83737671.915 8  80248619.897 8  20449539.300    20449537.680
  20449537.060          49.800          50.050
 105823837.124 8  82460243.884 8                  20137540.360    20137535.700
  20137534.920          50.450          49.250
 116429599.483 8  90724467.533 7  86944309.198 8  22155774.780    22155774.680
  22155773.820          48.900          47.100
 132431712.970 7 103193633.117 6                  25200899.960    25200915.560
  25200915.620          43.700          38.350
 134649477.459 7 104921653.07645                  25622940.820
  25622936.280          42.250          32.250
 113516536.006 8  88290716.813 7                  21265452.740    21265456.140
  21265455.260          48.550          44.750
 113104300.053 7  87970071.324 7                  21173345.500    21173347.780
  21173346.900          47.150          44.550
 130296362.524 6 101341624.414 6                  24348988.520    24348990.200
  24348989.040          39.600          36.550
 118577877.725 7  92227247.100 7                  22143580.840    22143581.840
  22143580.880          45.300          42.800
 124443350.132 7  96789317.464 6                  23320625.620    23320630.020
  23320629.960          46.000          36.400
 106918015.737 7  83158402.875 6                  20022274.020    20022277.160
  20022274.780          46.700          37.300
 113490733.403 7  88270584.991 7                  21201021.080    21201022.840
  21201021.800          47.800          45.050
 114501995.503 8  89057105.021 7                  21404888.100    21404889.480
  21404887.860          48.450          44.700
 120844090.845 7  93989890.328 6                  22670034.080    22670042.080
  22670041.600          45.550          38.800
 133317647.342 8                  99555422.738 7  25369492.620
                        49.800
 127894542.110 7                                  24337521.880
                        46.000
 15  1 27 20  1  0.0000000  0 23G22G14G18G13G17G15G06G24G12G25G29G02
                                R18R16R17R08R06R09R07R19R10E19E20
 127104443.925 7  99042435.68646                  24187165.260
  24187159.660          44.800          36.700
 125972986.025 7  98160767.58245                  23971855.920
  23971851.420          46.150          34.550
 125588256.638 7  97860990.70745                  23898640.380
  23898637.600          45.000          32.750
 132386398.026 7 103158284.30945                  25192279.720
  25192278.680          43.350          32.900
 129585904.402 7 100976095.497 6                  24659346.480    24659342.220
  24659341.660          46.100          40.100
 117231904.169 8  91349565.486 7                  22308471.160    22308467.800
  22308467.200          50.100          45.750
 133210079.935 6 103800065.026 6  99475058.367 7  25349035.000    25349035.460
  25349034.740          41.300          39.850
 107464442.450 8  83738614.494 8  80249523.200 8  20449769.480    20449767.860
  20449767.240          49.900          50.000
 105822146.690 8  82458926.667 8                  20137218.660    20137214.020
  20137213.240          50.500          49.100
 116417254.319 8  90714847.935 7  86935090.421 8  22153425.600    22153425.460
  22153424.620          49.000          47.150
 132412707.054 7 103178823.787 6                  25197282.920    25197298.560
  25197298.560          43.650          38.400
 134638380.413 6 104913006.08945                  25620829.100
  25620824.680          41.300          30.600
 113520581.384 8  88293863.220 7                  21266210.560    21266213.940
  21266213.060          48.850          44.400
 113113761.785 7  87977430.463 7                  21175116.780    21175119.040
  21175118.120          47.450          43.950
 130313975.149 6 101355323.130 6                  24352279.940    24352281.520
  24352280.340          39.950          36.200
 118570918.445 7  92221834.341 7                  22142281.220    22142282.260
  22142281.280          45.700          42.400
 124464674.621 7  96805903.122 6                  23324621.880    23324626.240
  23324626.200          45.650          37.050
 106915326.809 7  83156311.498 6                  20021770.480    20021773.640
  20021771.240          46.400          36.900
 113502028.420 8  88279370.008 7                  21203130.980    21203132.800
  21203131.740          48.200          45.100
 114485308.300 8  89044126.096 7                  21401768.580    21401770.000
  21401768.400          48.700          44.550
 120831422.728 7  93980037.359 6                  22667657.560    22667665.580
  22667665.120          45.700          38.750
 133322781.627 8                  99559256.781 7  25370469.660
                        49.900
 127908253.244 7                                  24340131.020
                        46.150
 15  1 27 20  1  5.0000000  0 23G22G14G18G13G17G15G06G24G12G25G29G02
                                R18R16R17R08R06R09R07R19R10E19E20
 127108344.381 7  99045475.00046                  24187907.480
  24187901.880          44.750          36.750
 125956838.007 7  98148184.70945                  23968783.060
  23968778.440          45.900          34.650
 125598166.731 7  97868712.87845                  23900526.300
  23900523.280          44.750          33.450
 132405805.648 7 103173407.04045                  25195972.900
  25195972.000          42.250          32.300
 129599436.788 7 100986640.215 6                  24661921.600    24661917.360
  24661916.720          45.900          40.000
 117247228.969 8  91361506.880 7                  22311387.400    22311384.020
  22311383.400          49.850          45.650
 133200251.549 6 103792406.571 6  99467718.983 7  25347164.740    25347165.180
  25347164.480          40.700          38.850
 107465662.015 8  83739564.796 8  80250433.916 8  20450001.540    20449999.940
  20449999.340          49.950          49.950
 105820469.868 8  82457620.046 8                  20136899.560    20136894.920
  20136894.120          50.550          49.000
 116404918.888 8  90705235.911 7  86925878.904 8  22151078.280    22151078.120
  22151077.260          49.050          46.950
 132393700.547 7 103164013.997 6                  25193665.760    25193681.340
  25193681.340          43.250          38.650
 134627283.263 6 104904358.97946                  25618717.320
  25618712.920          41.250          36.900
 113524650.635 8  88297028.189 7                  21266972.880    21266976.220
  21266975.320          48.700          44.700
 113123229.817 7  87984794.479 7                  21176889.200    21176891.460
  21176890.500          46.900          44.100
 130331600.262 6 101369031.570 5                  24355573.640    24355575.120
  24355573.940          39.700          35.500
 118563981.305 7  92216438.798 7                  22140985.680    22140986.740
  22140985.780          46.400          42.650
 124486001.436 7  96822490.572 6                  23328618.580    23328622.880
  23328622.800          45.950          36.000
 106912645.727 7  83154226.218 6                  20021268.380    20021271.520
  20021269.140          46.950          37.900
 113513342.617 8  88288169.926 7                  21205244.500    21205246.360
  21205245.300          48.500          45.400
 114468635.907 8  89031158.684 7                  21398651.840    21398653.280
  21398651.720          48.700          44.650
 120818757.748 7  93970186.831 6                  22665281.600    22665289.680
  22665289.220          45.900          38.700
 133327928.285 8                  99563100.072 7  25371449.080
                        49.900
 127921969.543 7                                  24342741.120
                        46.100
 15  1 27 20  1 10.0000000  0 23G22G14G18G13G17G15G06G24G12G25G29G02
                                R18R16R17R08R06R09R07R19R10E19E20
 127112254.771 7  99048522.05546                  24188651.580
  24188646.000          45.100          37.250
 125940693.296 7  98135604.43546                  23965710.820
  23965706.200          45.900          36.250
 125608081.257 7  97876438.46445                  23902412.980
  23902409.920          44.600          33.850
 132425212.449 7 103188529.11644                  25199665.880
  25199664.980          42.100          27.300
 129612975.932 7 100997190.202 6                  24664498.040    24664493.800
  24664493.200          45.900          40.550
 117262559.697 8  91373452.900 7                  22314304.740    22314301.360
  22314300.740          49.800          45.550
 133190427.988 6 103784751.877 6  99460383.234 7  25345295.380    25345295.740
  25345295.100          40.800          39.050
 107466888.125 8  83740520.207 8  80251349.514 8  20450234.860    20450233.260
  20450232.660          49.950          49.950
 105818803.173 8  82456321.323 8                  20136582.400    20136577.740
  20136576.960          50.550          49.100
 116392589.697 8  90695628.753 7  86916672.043 8  22148732.140    22148731.920
  22148731.100          48.850          47.100
 132374690.002 7 103149201.081 6                  25190047.820    25190063.440
  25190063.280          43.350          38.800
 134616182.521 6 104895709.07345                  25616604.860
  25616600.420          41.200          34.250
 113528740.167 8  88300208.938 7                  21267738.940    21267742.340
  21267741.380          48.150          44.650
 113132700.381 7  87992160.466 7                  21178662.100    21178664.360
  21178663.380          46.700          44.200
 130349234.110 6 101382746.812 6                  24358869.000    24358870.280
  24358869.180          40.800          36.450
 118557062.741 7  92211057.678 7                  22139693.700    22139694.720
  22139693.780          46.150          42.650
 124507327.094 7  96839077.172 6                  23332615.100    23332619.380
  23332619.200          45.300          36.850
 106909968.965 7  83152144.278 6                  20020767.080    20020770.100
  20020767.820          46.650          36.850
 113524672.819 8  88296982.293 7                  21207361.060    21207362.940
  21207361.880          48.550          45.350
 114451974.493 8  89018199.810 7                  21395537.160    21395538.660
  21395537.080          48.350          44.750
 120806092.307 7  93960335.945 6                  22662905.600    22662913.600
  22662913.240          45.900          38.650
 133333083.869 8                  99566950.012 7  25372430.200
                        49.900
 127935687.538 7                                  24345351.560
                        46.000
 15  1 27 20  1 15.0000000  0 23G22G14G18G13G17G15G06G24G12G25G29G02
                                R18R16R17R08R06R09R07R19R10E19E20
 127116178.758 7  99051579.71646                  24189398.280
  24189392.720          44.900          37.200
 125924555.528 7  98123029.53945                  23962639.900
  23962635.220          45.950          35.950
 125618003.873 7  97884170.36645                  23904301.200
  23904298.100          44.650          33.950
 132444622.091 7 103203653.44345                  25203359.400
  25203358.580          42.450          30.050
 129626525.513 7 101007748.315 6                  24667076.480    24667072.160
  24667071.660          45.700          40.100
 117277900.071 8  91385406.444 7                  22317223.900    22317220.560
  22317219.920          49.650          45.700
 133180613.006 6 103777103.845 6  99453053.848 7  25343427.600    25343428.000
  25343427.420          40.000          38.500
 107468124.359 8  83741483.508 8  80252272.668 8  20450470.100    20450468.520
  20450467.940          49.850          49.900
 105817150.283 8  82455033.353 8                  20136267.840    20136263.200
  20136262.420          50.550          49.150
 116380270.436 8  90686029.341 7  86907472.602 8  22146387.880    22146387.620
  22146386.820          48.750          47.150
 132355679.139 7 103134387.900 6                  25186429.780    25186445.520
  25186445.200          43.200          39.100
 134605081.865 6 104887059.26745                  25614492.480
  25614487.940          41.550          31.100
 113532853.740 7  88303408.395 7                  21268509.540    21268512.900
  21268511.940          47.900          44.500
 113142177.361 7  87999531.448 7                  21180436.160    21180438.480
  21180437.480          46.800          44.150
 130366880.493 6 101396471.787 6                  24362166.680    24362167.960
  24362166.820          40.100          36.550
 118550166.534 7  92205693.960 7                  22138405.900    22138406.940
  22138405.940          46.050          42.700
 124528655.118 7  96855665.573 6                  23336612.020    23336616.280
  23336616.080          45.000          37.250
 106907300.213 7  83150068.607 6                  20020267.320    20020270.260
  20020268.060          46.650          37.800
 113536022.191 8  88305809.585 7                  21209481.200    21209483.120
  21209482.020          48.650          45.250
 114435328.162 8  89005252.680 7                  21392425.320    21392426.820
  21392425.260          48.050          44.300
 120793430.230 7  93950487.675 6                  22660530.200    22660538.200
  22660537.820          45.700          38.200
 133338252.052 8                  99570809.361 7  25373413.740
                        49.850
 127949410.863 7                                  24347963.020
                        45.900
 15  1 27 20  1 20.0000000  0 24G22G14G18G13G17G15G06G24G12G25G29G02
                                R18R20R16R17R08R06R09R07R19R10E19E20
 127120112.696 7  99054645.10846                  24190146.880
  24190141.300          44.350          38.400
 125908421.119 7  98110457.27045                  23959569.600
  23959564.920          45.900          35.900
 125627930.973 7  97891905.76545                  23906190.260
  23906187.120          44.600          34.500
 132464030.952 7 103218777.19045                  25207052.820
  25207052.100          43.450          32.150
 129640081.868 7 101018311.724 6                  24669656.180    24669651.860
  24669651.380          46.050          40.500
 117293246.414 8  91397364.637 7                  22320144.180    22320140.880
  22320140.240          49.600          45.600
 133170802.945 6 103769459.617 6  99445728.179 7  25341560.860    25341561.180
  25341560.580          41.050          38.250
 107469367.196 8  83742451.950 8  80253200.762 8  20450706.620    20450705.000
  20450704.440          49.950          49.900
 105815507.554 8  82453753.308 8                  20135955.220    20135950.580
  20135949.800          50.450          49.250
 116367957.488 8  90676434.853 7  86898277.878 8  22144044.820    22144044.540
  22144043.760          48.700          47.050
 132336664.274 7 103119571.612 6                  25182811.000    25182826.760
  25182826.260          43.200          38.650
 134593977.692 6 104878406.67245                  25612379.360
  25612374.760          41.800          34.800
 113536987.663 7  88306623.670 7                  21269283.980    21269287.320
  21269286.320          47.850          44.650
 131473768.461 6                                  24586258.400
                        38.200
 113151657.084 7  88006904.564 7                  21182210.760    21182213.160
  21182212.140          46.600          44.400
 130384535.706 6 101410203.623 6                  24365466.040    24365467.200
  24365466.100          39.050          36.600
 118543289.002 7  92200344.775 7                  22137121.560    22137122.620
  22137121.580          46.000          42.900
 124549981.981 7  96872253.073 6                  23340608.740    23340612.920
  23340612.800          44.350          37.350
 106904635.858 7  83147996.308 6                  20019768.360    20019771.280
  20019769.080          46.300          37.100
 113547387.410 8  88314649.198 7                  21211604.320    21211606.260
  21211605.160          48.050          45.550
 114418693.011 7  88992314.238 7                  21389315.540    21389317.080
  21389315.500          47.700          44.750
 120780767.734 7  93940639.079 6                  22658154.740    22658162.720
  22658162.360          45.500          38.150
 133343429.179 8                  99574675.395 7  25374398.960
                        49.700
 127963135.951 7                                  24350574.840
                        45.800
 15  1 27 20  1 25.0000000  0 24G22G14G18G13G17G15G06G24G12G25G29G02
                                R18R20R16R17R08R06R09R07R19R10E19E20
 127124058.952 7  99057720.09246                  24190897.800
  24190892.300          44.800          37.700
 125892292.443 7  98097889.48245                  23956500.420
  23956495.700          45.700          35.500
 125637864.832 7  97899646.41045                  23908080.600
  23908077.420          43.750          35.500
 132483441.348 7 103233902.10645                  25210746.580
  25210745.860          43.750          31.900
 129653647.379 7 101028882.245 6                  24672237.640    24672233.260
  24672232.840          46.150          40.200
 117308601.118 8  91409329.346 7                  22323066.060    22323062.800
  22323062.140          49.450          45.650
 133161000.202 7 103761821.101 6  99438407.943 7  25339695.500    25339695.820
  25339695.100          42.400          38.750
 107470619.090 8  83743427.450 8  80254135.616 8  20450944.840    20450943.260
  20450942.680          49.900          49.900
 105813877.353 8  82452483.023 8                  20135645.000    20135640.360
  20135639.580          50.300          49.250
 116355653.248 8  90666847.144 7  86889089.665 8  22141703.440    22141703.120
  22141702.340          48.700          46.950
 132317647.853 7 103104754.086 6                  25179191.960    25179207.780
  25179207.080          43.250          38.550
 134582872.407 6 104869753.25445                  25610266.060
  25610261.440          41.650          34.500
 113541144.344 8  88309856.638 7                  21270062.620    21270066.000
  21270064.960          48.250          44.750
 131451635.459 6                                  24582118.200    24582139.500
  24582136.720          39.750          38.900
 113161141.924 7  88014281.666 7                  21183986.300    21183988.780
  21183987.720          46.000          44.650
 130402202.086 6 101423944.144 6                  24368767.380    24368768.580
  24368767.500          39.200          36.800
 118536432.527 7  92195011.966 7                  22135841.160    22135842.220
  22135841.140          45.600          43.050
 124571310.112 7  96888841.568 6                  23344605.680    23344609.920
  23344609.700          44.400          37.350
 106901978.222 7  83145929.276 6                  20019270.660    20019273.620
  20019271.400          45.850          37.550
 113558770.913 7  88323503.027 7                  21213730.880    21213732.780
  21213731.680          47.600          45.450
 114402071.602 7  88979386.482 7                  21386208.300    21386209.860
  21386208.340          47.700          45.100
 120768107.191 7  93930792.006 6                  22655779.660    22655787.660
  22655787.260          45.550          38.600
 133348617.631 8                  99578549.896 7  25375386.320
                        49.650
 127976865.128 7                                  24353187.440
                        45.750
 15  1 27 20  1 30.0000000  0 24G22G14G18G13G17G15G06G24G12G25G29G02
                                R18R20R16R17R08R06R09R07R19R10E19E20
 127128018.471 7  99060805.44046                  24191651.280
  24191645.720          45.100          37.150
 125876170.480 7  98085326.91445                  23953432.500
  23953427.680          45.600          34.750
 125647806.519 7  97907393.21345                  23909972.460
  23909969.260          44.600          33.450
 132502854.276 7 103249028.98645                  25214440.780
  25214440.100          43.150          35.100
 129667222.983 7 101039460.643 6                  24674821.020    24674816.580
  24674816.240          46.050          40.150
 117323965.133 8  91421301.302 7                  22325989.700    22325986.480
  22325985.840          49.400          45.700
 133151205.780 6 103754189.089 6  99431093.937 7  25337831.700    25337832.020
  25337831.360          41.950          39.350
 107471880.847 8  83744410.636 8  80255077.842 8  20451184.960    20451183.360
  20451182.780          49.850          49.850
 105812260.694 8  82451223.281 8                  20135337.340    20135332.720
  20135331.920          50.200          49.150
 116343358.649 8  90657266.944 7  86879908.644 8  22139363.880    22139363.520
  22139362.740          48.650          46.850
 132298630.799 7 103089936.080 6                  25175572.740    25175588.560
  25175587.800          42.450          38.400
 134571766.985 6 104861099.72845                  25608152.680
  25608148.240          41.600          33.550
 113545324.807 8  88313108.115 7                  21270845.760    21270849.160
  21270848.060          48.450          44.850
 131429499.999 6                                  24577979.060    24577989.980
                        38.400          38.700
 113170633.028 7  88021663.629 7                  21185762.980    21185765.560
  21185764.520          45.650          44.700
 130419880.574 6 101437694.089 6                  24372071.000    24372072.320
  24372071.240          39.350          37.400
 118529598.145 7  92189696.339 7                  22134564.820    22134566.000
  22134564.880          45.250          43.200
 124592640.385 7  96905431.726 6                  23348603.020    23348607.280
  23348607.040          44.000          37.350
 106899328.394 7  83143868.302 6                  20018774.420    20018777.380
  20018775.160          45.800          37.850
 113570173.401 7  88332371.629 7                  21215860.960    21215862.860
  21215861.740          47.750          45.450
 114385464.805 7  88966470.092 7                  21383103.780    21383105.400
  21383103.880          47.550          44.650
 120755449.792 7  93920947.378 6                  22653405.200    22653413.080
  22653412.800          45.800          38.600
 133353818.389 8                  99582433.576 7  25376376.000
                        49.750
 127990599.337 7                                  24355800.980
                        45.950
 15  1 27 20  1 35.0000000  0 24G22G14G18G13G17G15G06G24G12G25G29G02
                                R18R20R16R17R08R06R09R07R19R10E19E20
 127131989.628 7  99063899.85846                  24192406.980
  24192401.440          45.300          37.150
 125860053.610 7  98072768.30945                  23950365.520
  23950360.680          45.250          35.950
 125657754.317 7  97915144.72445                  23911865.480
  23911862.320          44.950          34.800
 132522268.109 7 103264156.57245                  25218135.220
  25218134.500          43.250          33.350
 129680807.047 7 101050045.639 6                  24677406.020    24677401.520
  24677401.200          45.800          40.300
 117339336.808 8  91433279.224 7                  22328914.780    22328911.620
  22328910.980          49.350          45.700
 133141418.012 6 103746562.266 6  99423784.896 7  25335969.140    25335969.500
  25335968.800          40.600          38.900
 107473150.876 8  83745400.273 8  80256026.238 8  20451426.620    20451425.040
  20451424.460          49.900          49.850
 105810655.916 8  82449972.807 8                  20135031.960    20135027.320
  20135026.540          50.300          49.150
 116331072.097 8  90647693.014 7  86870733.622 8  22137025.860    22137025.440
  22137024.660          48.650          46.750
 132279611.581 7 103075116.386 6                  25171953.100    25171968.960
  25171968.200          42.550          39.050
 134560659.779 7 104852444.81845                  25606039.020
  25606034.640          42.250          33.800
 113549527.292 8  88316376.721 7                  21271633.080    21271636.460
  21271635.300          48.650          44.950
 131407360.294 6                                  24573838.740
                        37.500
 113180128.531 7  88029049.018 7                  21187540.480    21187543.160
  21187542.160          46.250          44.750
 130437569.697 6 101451452.279 6                  24375376.620    24375377.940
  24375376.960          39.850          36.900
 118522784.137 7  92184396.561 7                  22133292.340    22133293.520
  22133292.420          45.300          43.050
 124613971.187 7  96922022.283 6                  23352600.440    23352604.720
  23352604.500          44.250          37.950
 106896684.663 7  83141812.066 6                  20018279.320    20018282.240
  20018280.060          45.900          36.800
 113581593.466 8  88341253.901 7                  21217994.320    21217996.240
  21217995.080          48.300          45.450
 114368871.154 8  88953563.930 7                  21380001.720    21380003.360
  21380001.860          48.100          44.850
 120742793.687 7  93911103.747 6                  22651031.000    22651038.820
  22651038.540          45.850          38.200
 133359029.808 8                  99586325.212 7  25377367.740
                        49.950
 128004336.964 7                                  24358415.200
                        45.950
 15  1 27 20  1 40.0000000  0 24G22G14G18G13G17G15G06G24G12G25G29G02
