     2.11           OBSERVATION DATA    M (MIXED)           RINEX VERSION / TYPE
teqc  2011Oct11     IGN-E (SPG)         20150127 09:00:55UTCPGM / RUN BY / DATE
Linux 2.4.21-27.ELsmp|Opteron|gcc -static|Linux x86_64|=+   COMMENT
BIT 2 OF LLI FLAGS DATA COLLECTED UNDER A/S CONDITION       COMMENT
VALE                                                        MARKER NAME
13439M001                                                   MARKER NUMBER
Programas GeodesicosInstituto Geografico Nacional           OBSERVER / AGENCY
1700071             LEICA GR10          3.03/6.214          REC # / TYPE / VERS
10190012            LEIAR25.R3      LEIT                    ANT # / TYPE
  4929534.0457   -29050.6755  4033709.9250                  APPROX POSITION XYZ
        3.0390        0.0000        0.0000                  ANTENNA: DELTA H/E/N
     1     1                                                WAVELENGTH FACT L1/2
     8    L1    L2    L5    C1    C2    P2    S1    S2      # / TYPES OF OBSERV
     5.0000                                                 INTERVAL
Forced Modulo Decimation to 5 seconds                       COMMENT
DefaultJobName                                              COMMENT
DefaultUserDiscription                                      COMMENT
Project creator:                                            COMMENT
 SNR is mapped to RINEX snr flag value [0-9]                COMMENT
  L1 & L2: min(max(int(snr_dBHz/6), 0), 9)                  COMMENT
  2015     1    27     8     0    0.0000000     GPS         TIME OF FIRST OBS
    15                                                      LEAP SECONDS
                                                            END OF HEADER
 15  1 27  8  0  0.0000000  0 19G11G14G28G04G17G03G23G31G27G19G20G32
                                G01R24R17R02R08R23R01
 106582991.301 8  83051669.35747                  20282065.380
  20282060.280          49.100          47.550
 126401781.490 7  98494876.09846                  24053463.800
  24053460.760          44.600          36.900
 123833736.369 7  96493785.53246                  23564778.420
  23564774.760          46.300          39.450
 109904947.973 8  85640228.27047                  20914208.260
  20914205.020          49.950          46.250
 124564967.944 7  97063568.483 7                  23703928.980    23703925.500
  23703925.060          47.000          42.700
 108402619.928 8  84469575.348 8  80950013.403 8  20628329.480    20628328.700
  20628328.040          49.900          49.800
 125507033.761 8  97797651.53446                  23883192.560
  23883188.340          48.250          38.550
 133262649.042 7 103841016.430 6                  25359039.240    25359040.460
  25359039.520          42.900          38.750
 135299680.191 6 105428304.824 6 101035447.388 7  25746689.180    25746693.380
  25746692.900          41.750          36.650
 122965022.399 8  95816871.27447                  23399467.220
  23399462.560          49.400          42.800
 126166031.137 7  98311152.50245                  24008601.940
  24008599.040          45.050          35.150
 108416773.438 8  84480624.01147                  20631011.600
  20631007.920          50.200          47.150
 107285251.902 8  83598916.080 8  80115617.517 8  20415700.040    20415698.920
  20415698.800          50.600          49.850
 103311176.440 7  80353154.864 7                  19319709.240    19319710.960
  19319708.840          47.700          42.200
 121426483.409 7  94442820.981 7                  22691446.200    22691448.040
  22691447.020          47.100          42.400
 116448072.119 7  90570737.597 7                  21822322.120    21822326.780
  21822325.880          47.750          43.750
 113777446.017 8  88493585.528 7                  21247126.400    21247127.640
  21247126.880          48.350          45.750
 110324160.123 8  85807697.225 7                  20623937.460    20623941.700
  20623940.820          49.650          47.550
 102791365.380 8  79948850.806 7                  19229245.780    19229249.360
  19229249.000          49.050          43.100
 15  1 27  8  0  5.0000000  0 19G11G14G28G04G17G03G23G31G27G19G20G32
                                G01R24R17R02R08R23R01
 106588163.930 8  83055699.96947                  20283049.700
  20283044.600          49.000          47.650
 126413851.566 7  98504281.33946                  24055760.660
  24055757.600          44.650          37.050
 123839285.978 7  96498109.88946                  23565834.460
  23565830.860          46.700          37.400
 109912782.303 8  85646332.93747                  20915699.080
  20915695.880          50.000          46.150
 124549351.323 7  97051399.688 7                  23700957.220    23700953.780
  23700953.300          47.250          42.400
 108396934.090 8  84465144.824 8  80945767.481 8  20627247.480    20627246.720
  20627246.080          49.800          49.800
 125489703.125 7  97784147.13146                  23879894.680
  23879890.420          47.900          38.200
 133251923.627 7 103832658.982 6                  25356998.320    25356999.500
  25356998.620          43.050          38.550
 135318484.894 7 105442957.806 6 101049489.831 7  25750267.700    25750271.780
  25750271.200          42.950          37.750
 122982185.607 8  95830245.18647                  23402733.320
  23402728.600          49.450          42.900
 126150470.609 7  98299027.40946                  24005640.880
  24005637.980          44.650          36.600
 108425210.747 8  84487198.53847                  20632617.160
  20632613.500          50.400          46.800
 107283741.883 8  83597739.442 8  80114489.900 8  20415412.700    20415411.580
  20415411.460          50.650          49.900
 103305635.889 7  80348845.542 7                  19318673.120    19318674.820
  19318672.700          47.750          42.450
 121406766.327 7  94427485.464 7                  22687761.660    22687763.460
  22687762.440          47.350          42.600
 116431251.253 7  90557654.701 7                  21819169.920    21819174.580
  21819173.680          47.650          43.850
 113794171.320 8  88506594.079 7                  21250249.740    21250250.980
  21250250.240          48.700          45.600
 110337324.393 8  85817936.096 7                  20626398.420    20626402.660
  20626401.780          49.650          47.500
 102790809.278 8  79948418.277 7                  19229141.740    19229145.360
  19229144.980          49.200          43.150
 15  1 27  8  0 10.0000000  0 19G11G14G28G04G17G03G23G31G27G19G20G32
                                G01R24R17R02R08R23R01
 106593350.077 8  83059741.11647                  20284036.580
  20284031.500          48.950          47.150
 126425933.672 7  98513695.95545                  24058059.800
  24058056.780          44.650          35.950
 123844848.822 7  96502444.55446                  23566893.040
  23566889.400          46.750          38.800
 109920626.132 8  85652445.00747                  20917191.700
  20917188.520          50.000          46.150
 124533742.247 7  97039236.765 7                  23697986.920    23697983.460
  23697982.940          47.250          42.550
 108391260.170 8  84460723.584 8  80941530.465 8  20626167.740    20626167.000
  20626166.380          49.800          49.700
 125472376.185 8  97770645.60846                  23876597.480
  23876593.180          48.050          38.650
 133241204.679 7 103824306.574 6                  25354958.680    25354959.680
  25354958.840          42.800          37.550
 135337290.496 7 105457611.501 6 101063532.954 7  25753846.400    25753850.380
  25753849.720          42.750          37.950
 122999355.579 8  95843624.37347                  23406000.740
  23405995.900          49.300          42.650
 126134915.597 7  98286906.63646                  24002680.840
  24002677.960          44.900          36.900
 108433659.205 8  84493781.75547                  20634224.840
  20634221.220          50.100          47.050
 107282241.276 8  83596570.134 8  80113369.315 8  20415127.140    20415126.020
  20415125.900          50.550          49.850
 103300114.235 8  80344550.925 7                  19317640.520    19317642.240
  19317640.120          48.050          42.700
 121387053.278 7  94412153.084 7                  22684077.840    22684079.660
  22684078.660          47.150          42.950
 116414442.100 7  90544580.901 7                  21816019.920    21816024.500
  21816023.680          47.700          43.750
 113810905.144 8  88519609.270 7                  21253374.680    21253375.900
  21253375.140          49.050          45.350
 110350505.081 8  85828187.744 7                  20628862.440    20628866.680
  20628865.800          49.600          47.450
 102790272.491 8  79948000.779 7                  19229041.280    19229044.940
  19229044.580          49.150          43.200
 15  1 27  8  0 15.0000000  0 19G11G14G28G04G17G03G23G31G27G19G20G32
                                G01R24R17R02R08R23R01
 106598547.126 8  83063790.75947                  20285025.540
  20285020.460          48.750          47.550
 126438025.175 7  98523117.90646                  24060360.720
  24060357.640          44.150          36.550
 123850422.260 7  96506787.48246                  23567953.660
  23567949.980          46.700          38.200
 109928476.824 8  85658562.41947                  20918685.620
  20918682.440          50.000          45.950
 124518138.165 7  97027077.734 7                  23695017.600    23695014.080
  23695013.560          47.100          42.450
 108385595.597 8  84456309.627 8  80937300.424 8  20625089.780    20625089.080
  20625088.440          49.800          49.750
 125455050.399 7  97757144.98146                  23873300.520
  23873296.180          47.850          38.000
 133230489.573 7 103815957.117 6                  25352919.680    25352920.620
  25352919.680          42.200          37.600
 135356094.450 7 105472263.866 6 101077574.801 7  25757424.740    25757428.660
  25757427.840          42.250          37.200
 123016529.726 8  95857006.80947                  23409268.920
  23409264.000          49.250          42.250
 126119363.545 7  98274788.17745                  23999721.420
  23999718.560          45.300          35.200
 108442116.238 8  84500371.64347                  20635834.160
  20635830.540          50.150          46.900
 107280747.501 8  83595406.151 8  80112253.833 8  20414842.880    20414841.760
  20414841.660          50.550          49.750
 103294608.710 8  80340268.847 7                  19316610.960    19316612.660
  19316610.540          48.250          42.750
 121367341.916 7  94396822.025 7                  22680394.340    22680396.220
  22680395.220          47.450          42.900
 116397641.936 8  90531514.098 7                  21812871.580    21812876.180
  21812875.360          48.100          43.600
 113827644.710 8  88532628.931 7                  21256500.720    21256501.880
  21256501.100          49.400          45.600
 110363699.522 8  85838450.074 7                  20631329.020    20631333.260
  20631332.380          49.750          47.650
 102789752.351 8  79947596.225 7                  19228943.980    19228947.620
  19228947.280          49.100          43.350
 15  1 27  8  0 20.0000000  0 19G11G14G28G04G17G03G23G31G27G19G20G32
                                G01R24R17R02R08R23R01
 106603756.576 8  83067850.06747                  20286016.860
  20286011.800          48.850          47.650
 126450127.598 7  98532548.33245                  24062663.740
  24062660.720          44.150          35.850
 123856007.793 7  96511139.83346                  23569016.580
  23569012.900          46.650          38.250
 109936335.827 8  85664686.31147                  20920181.140
  20920177.960          49.900          46.450
 124502540.526 7  97014923.730 7                  23692049.480    23692045.960
  23692045.400          47.550          42.400
 108379941.830 8  84451904.098 8  80933078.456 8  20624013.880    20624013.200
  20624012.560          49.850          49.800
 125437727.261 7  97743646.43046                  23870004.080
  23869999.700          47.600          39.400
 133219779.834 6 103807611.836 6                  25350881.700    25350882.520
  25350881.560          40.750          37.950
 135374898.086 6 105486916.044 5 101091616.469 7  25761003.020    25761006.900
  25761006.000          40.400          35.950
 123033709.433 8  95870393.57947                  23412538.180
  23412533.160          49.100          43.150
 126103815.958 7  98262673.15445                  23996762.880
  23996759.800          45.300          34.050
 108450583.356 8  84506969.39647                  20637445.380
  20637441.820          50.050          47.100
 107279262.063 8  83594248.661 8  80111144.573 8  20414560.220    20414559.080
  20414558.980          50.450          49.850
 103289121.056 8  80336000.668 7                  19315584.720    19315586.480
  19315584.340          48.100          42.850
 121347633.616 7  94381493.322 7                  22676711.440    22676713.260
  22676712.300          47.000          42.800
 116380852.506 7  90518455.644 7                  21809725.260    21809729.820
  21809729.020          47.750          43.550
 113844391.613 8  88545654.302 7                  21259628.100    21259629.240
  21259628.460          49.450          45.300
 110376909.222 8  85848724.264 7                  20633798.420    20633802.680
  20633801.800          49.700          47.300
 102789250.284 8  79947205.727 7                  19228850.060    19228853.720
  19228853.380          49.150          43.250
 15  1 27  8  0 25.0000000  0 19G11G14G28G04G17G03G23G31G27G19G20G32
                                G01R24R17R02R08R23R01
 106608978.153 8  83071918.82247                  20287010.520
  20287005.420          48.800          47.550
 126462240.623 7  98541987.04746                  24064968.760
  24064965.700          44.200          38.100
 123861605.104 7  96515501.36046                  23570081.760
  23570078.040          46.300          39.400
 109944202.917 8  85670816.50347                  20921678.220
  20921675.040          50.050          46.200
 124486949.070 7  97002774.535 7                  23689082.560    23689078.980
  23689078.400          47.350          42.550
 108374298.595 8  84447506.778 8  80928864.349 8  20622939.960    20622939.340
  20622938.700          49.900          49.750
 125420406.422 7  97730149.66046                  23866708.040
  23866703.640          47.450          39.250
 133209075.232 6 103799270.620 6                  25348844.740    25348845.520
  25348844.500          40.400          37.250
 135393701.262 6 105501567.814 6 101105657.708 7  25764581.180    25764585.060
  25764584.040          41.550          37.350
 123050894.463 8  95883784.49947                  23415808.480
  23415803.340          48.950          42.900
 126088272.517 7  98250561.37946                  23993805.100
  23993801.980          44.950          36.350
 108459060.159 8  84513574.69147                  20639058.460
  20639054.920          50.000          47.050
 107277784.644 8  83593097.425 8  80110041.290 8  20414279.080    20414277.940
  20414277.840          50.550          49.800
 103283650.751 8  80331745.982 7                  19314561.740    19314563.500
  19314561.380          48.150          42.800
 121327928.015 7  94366166.744 7                  22673029.020    22673030.760
  22673029.900          46.900          43.250
 116364073.326 7  90505405.173 7                  21806580.860    21806585.460
  21806584.620          47.800          43.550
 113861145.542 8  88558685.138 7                  21262756.760    21262757.940
  21262757.120          49.350          45.650
 110390133.718 8  85859009.981 7                  20636270.600    20636274.860
  20636273.960          49.450          47.400
 102788766.061 8  79946829.107 7                  19228759.480    19228763.080
  19228762.800          49.250          43.050
 15  1 27  8  0 30.0000000  0 19G11G14G28G04G17G03G23G31G27G19G20G32
                                G01R24R17R02R08R23R01
 106614211.748 8  83075996.94548                  20288006.420
  20288001.360          48.300          48.050
 126474364.156 7  98551433.93746                  24067275.760
  24067272.660          43.250          37.000
 123867214.103 7  96519872.00146                  23571149.140
  23571145.400          45.650          39.600
 109952077.953 8  85676952.89147                  20923176.800
  20923173.640          49.550          46.600
 124471363.715 7  96990630.098 7                  23686116.780    23686113.180
  23686112.580          46.700          42.550
 108368665.803 8  84443117.588 8  80924658.044 8  20621868.040    20621867.460
  20621866.820          49.400          49.700
 125403087.896 7  97716654.69046                  23863412.420
  23863408.080          46.800          39.850
 133198375.573 6 103790933.270 6                  25346808.660    25346809.360
  25346808.420          39.800          36.500
 135412503.753 6 105516219.056 6 101119698.468 7  25768159.220    25768163.080
  25768162.020          40.900          38.300
 123068084.735 8  95897179.50047                  23419079.700
  23419074.540          48.400          43.250
 126072733.159 7  98238452.82545                  23990848.020
  23990845.060          44.600          34.450
 108467546.613 8  84520187.50647                  20640673.380
  20640669.860          49.400          47.550
 107276315.181 8  83591952.379 8  80108943.958 8  20413999.460    20413998.300
  20413998.200          50.200          49.850
 103278197.949 7  80327504.914 7                  19313542.080    19313543.840
  19313541.700          47.550          42.900
 121308225.133 7  94350842.282 7                  22669347.100    22669348.840
  22669348.060          46.400          43.050
 116347304.376 7  90492362.644 7                  21803438.360    21803442.920
  21803442.120          47.900          43.850
 113877906.255 8  88571721.240 7                  21265886.660    21265887.940
  21265887.080          49.050          45.850
 110403373.176 8  85869307.323 7                  20638745.560    20638749.860
  20638748.940          48.800          47.250
 102788299.577 8  79946466.286 7                  19228672.220    19228675.840
  19228675.520          48.800          43.050
 15  1 27  8  0 35.0000000  0 19G11G14G28G04G17G03G23G31G27G19G20G32
                                G01R24R17R02R08R23R01
 106619458.727 8  83080085.49147                  20289004.880
  20288999.840          48.400          47.900
 126486499.491 7  98560890.02646                  24069585.000
  24069581.840          43.400          36.800
 123872836.098 7  96524252.76846                  23572218.980
  23572215.220          46.200          39.800
 109959962.372 8  85683096.58747                  20924677.200
  20924674.000          49.600          46.850
 124455785.724 7  96978491.396 7                  23683152.400    23683148.780
  23683148.180          46.800          42.800
 108363044.792 8  84438737.575 8  80920460.545 8  20620798.380    20620797.820
  20620797.180          49.550          49.700
 125385773.051 7  97703162.59146                  23860117.520
  23860113.220          46.900          39.850
 133187682.259 6 103782600.830 6                  25344773.680    25344774.400
  25344773.420          38.150          37.150
 135431306.948 6 105530870.864 6 101133739.758 7  25771737.320    25771741.140
  25771740.140          40.400          37.400
 123085281.565 8  95910579.61547                  23422352.200
  23422346.960          48.500          43.350
 126057199.258 7  98226348.49146                  23987892.040
  23987889.100          44.750          37.600
 108476044.035 8  84526808.86147                  20642290.380
  20642286.880          49.650          47.550
 107274854.993 8  83590814.568 8  80107853.568 8  20413721.620    20413720.440
  20413720.320          50.200          49.750
 103272763.887 7  80323278.411 7                  19312525.880    19312527.640
  19312525.520          47.250          42.700
 121288526.492 7  94335521.112 7                  22665665.920    22665667.740
  22665666.940          46.250          42.650
 116330547.048 7  90479329.156 7                  21800298.060    21800302.580
  21800301.780          47.550          43.750
 113894675.288 8  88584763.810 7                  21269018.120    21269019.480
  21269018.600          48.500          45.800
 110416628.813 8  85879617.248 7                  20641223.520    20641227.860
  20641226.920          48.450          47.250
 102787852.216 8  79946118.337 7                  19228588.540    19228592.180
  19228591.820          48.500          43.150
 15  1 27  8  0 40.0000000  0 19G11G14G28G04G17G03G23G31G27G19G20G32
                                G01R24R17R02R08R23R01
 106624717.783 8  83084183.45647                  20290005.660
  20290000.600          48.450          47.700
 126498645.297 7  98570354.28046                  24071896.220
  24071893.080          43.800          36.800
 123878469.801 7  96528642.65646                  23573291.060
  23573287.280          46.350          39.350
 109967854.762 8  85689246.49447                  20926179.100
  20926175.880          49.750          47.000
 124440213.945 7  96966357.547 7                  23680189.180    23680185.540
  23680184.960          46.900          42.800
 108357434.256 8  84434365.731 8  80916270.853 8  20619730.700    20619730.160
  20619729.540          49.400          49.750
 125368460.476 7  97689672.25646                  23856823.060
  23856818.740          46.650          40.350
 133176993.950 6 103774272.278 6                  25342739.720    25342740.320
  25342739.320          37.950          36.300
 135450109.473 6 105545522.088 6 101147780.528 7  25775315.260    25775319.160
  25775318.160          41.050          37.950
 123102483.638 8  95923983.81147                  23425625.660
  23425620.420          48.350          42.950
 126041669.433 7  98214247.33945                  23984936.820
  23984933.920          44.500          35.000
 108484551.094 8  84533437.73847                  20643909.200
  20643905.700          49.750          47.250
 107273402.811 8  83589682.994 8  80106769.140 8  20413445.280    20413444.100
  20413443.980          50.300          49.750
 103267347.327 7  80319065.537 7                  19311512.960    19311514.740
  19311512.600          47.050          42.900
 121268830.507 7  94320202.007 7                  22661985.240    22661987.080
  22661986.300          46.200          42.800
 116313799.944 7  90466303.631 7                  21797159.660    21797164.160
  21797163.340          47.600          43.650
 113911451.260 8  88597811.774 7                  21272150.860    21272152.260
  21272151.420          48.100          45.850
 110429899.302 8  85889938.732 7                  20643704.300    20643708.660
  20643707.720          48.600          47.400
 102787422.611 8  79945784.195 7                  19228508.180    19228511.780
  19228511.460          48.650          43.250
 15  1 27  8  0 45.0000000  0 19G11G14G28G04G17G03G23G31G27G19G20G32
                                G01R24R17R02R08R23R01
 106629988.762 8  83088290.70848                  20291008.680
  20291003.640          48.400          48.100
 126510801.442 7  98579826.58446                  24074209.440
  24074206.320          44.050          36.950
 123884115.051 7  96533041.54246                  23574365.320
  23574361.540          46.050          39.200
 109975755.041 8  85695402.55147                  20927682.520
  20927679.280          49.850          46.800
 124424648.260 7  96954228.437 7                  23677227.140    23677223.500
  23677222.920          46.850          42.800
 108351834.038 8  84430001.929 8  80912088.869 8  20618664.980    20618664.500
  20618663.840          49.550          49.800
 125351150.092 7  97676183.65846                  23853528.960
  23853524.720          46.650          39.700
 133166310.573 6 103765947.571 6                  25340706.620    25340707.200
  25340706.020          38.500          36.450
 135468911.275 6 105560172.806 6 101161820.796 6  25778893.200    25778897.080
  25778896.100          40.700          36.950
 123119690.789 8  95937391.96847                  23428900.060
  23428894.840          48.600          42.700
 126026143.612 7  98202149.32745                  23981982.340
  23981979.480          44.850          35.650
 108493067.633 8  84540074.00447                  20645529.840
  20645526.320          49.800          47.150
 107271958.478 8  83588557.539 8  80105690.564 8  20413170.440    20413169.260
  20413169.140          50.250          49.800
 103261947.909 7  80314865.992 7                  19310503.220    19310505.040
  19310502.880          47.300          42.750
 121249137.230 7  94304885.016 7                  22658305.080    22658306.940
  22658306.180          45.900          42.900
 116297063.009 8  90453286.015 7                  21794023.180    21794027.680
  21794026.840          48.000          43.650
 113928233.899 8  88610864.923 7                  21275284.880    21275286.300
  21275285.460          48.250          45.650
 110443184.626 8  85900271.746 7                  20646187.800    20646192.200
  20646191.260          48.900          47.250
 102787010.615 8  79945463.758 7                  19228431.100    19228434.720
  19228434.400          48.900          43.300
 15  1 27  8  0 50.0000000  0 19G11G14G28G04G17G03G23G31G27G19G20G32
                                G01R24R17R02R08R23R01
 106635270.477 8  83092406.32347                  20292013.760
  20292008.720          48.350          47.950
 126522966.791 7  98589306.07146                  24076524.420
  24076521.200          43.950          36.450
 123889770.678 7  96537448.50846                  23575441.560
  23575437.720          46.350          38.750
 109983662.064 8  85701563.85647                  20929187.220
  20929183.960          50.050          46.450
 124409087.453 7  96942103.123 7                  23674266.020    23674262.360
  23674261.800          46.800          42.900
 108346243.009 8  84425645.283 8  80907913.761 8  20617601.020    20617600.560
  20617599.900          49.650          49.850
 125333840.786 7  97662695.86846                  23850235.080
  23850230.880          46.400          40.100
 133155630.925 6 103757625.769 6                  25338674.320    25338674.900
  25338673.560          41.150          37.000
 135487711.112 7 105574821.962 6 101175859.611 6  25782470.780    25782474.620
  25782473.800          42.900          37.700
 123136901.868 8  95950803.19347                  23432175.220
  23432170.040          48.300          42.600
 126010620.571 7  98190053.44746                  23979028.420
  23979025.600          44.950          37.050
 108501592.538 8  84546716.78747                  20647152.060
  20647148.560          49.850          47.000
 107270520.826 8  83587437.289 8  80104617.009 8  20412896.860    20412895.680
  20412895.560          50.250          49.750
 103256564.730 7  80310679.071 7                  19309496.560    19309498.300
  19309496.200          47.550          42.800
 121229445.420 7  94289569.180 7                  22654625.180    22654627.040
  22654626.360          46.050          42.650
 116280335.065 7  90440275.385 7                  21790888.380    21790892.880
  21790892.000          47.800          43.650
 113945022.108 8  88623922.404 7                  21278419.940    21278421.360
  21278420.500          48.500          45.700
 110456483.384 8  85910615.206 7                  20648673.840    20648678.280
  20648677.320          48.950          47.200
 102786615.029 8  79945156.082 7                  19228357.120    19228360.720
  19228360.420          48.850          43.150
 15  1 27  8  0 55.0000000  0 19G11G14G28G04G17G03G23G31G27G19G20G32
                                G01R24R17R02R08R23R01
 106640565.364 8  83096532.20447                  20293021.340
  20293016.340          48.400          47.950
 126535143.762 7  98598794.61646                  24078841.600
  24078838.460          44.100          36.450
 123895439.106 7  96541865.45846                  23576520.260
  23576516.380          46.550          39.400
 109991578.165 8  85707732.24447                  20930693.660
  20930690.360          50.200          46.500
 124393533.944 7  96929983.515 7                  23671306.280    23671302.620
  23671302.080          46.700          43.150
 108340663.532 8  84421297.647 8  80903747.275 8  20616539.260    20616538.800
  20616538.160          49.700          49.950
 125316534.924 7  97649210.77546                  23846941.840
  23846937.720          46.000          40.800
 133144957.501 6 103749308.826 6                  25336643.180    25336643.760
  25336642.540          40.900          38.500
 135506511.490 6 105589471.605 6 101189898.808 7  25786048.420    25786052.260
  25786051.480          41.700          38.000
 123154119.296 8  95964219.34847                  23435451.580
  23435446.400          48.450          42.600
 125995102.803 7  98177961.71146                  23976075.520
  23976072.740          44.600          36.250
 108510128.168 8  84553367.92847                  20648776.340
  20648772.840          49.950          47.150
 107269092.292 8  83586324.150 8  80103550.239 8  20412625.020    20412623.840
  20412623.720          50.350          49.850
 103251200.215 7  80306506.672 7                  19308493.340    19308495.100
  19308493.000          47.700          42.700
 121209757.638 7  94274256.459 7                  22650946.020    22650947.860
  22650947.260          45.850          42.900
 116263618.567 7  90427273.679 7                  21787755.740    21787760.240
  21787759.300          47.950          43.900
 113961818.198 8  88636986.022 7                  21281556.520    21281557.920
  21281557.060          48.850          45.700
 110469798.144 8  85920971.125 7                  20651162.900    20651167.360
  20651166.400          48.950          47.500
 102786238.302 8  79944863.068 7                  19228286.620    19228290.220
  19228289.940          48.700          43.200
 15  1 27  8  1  0.0000000  0 19G11G14G28G04G17G03G23G31G27G19G20G32
                                G01R24R17R02R08R23R01
 106645873.121 8  83100668.11148                  20294031.340
  20294026.380          48.400          48.150
 126547332.070 7  98608291.96246                  24081160.960
  24081157.760          44.100          37.600
 123901120.015 7  96546292.13446                  23577601.300
  23577597.460          46.650          38.700
 109999503.045 8  85713907.46747                  20932201.740
  20932198.440          50.050          46.700
 124377987.447 7  96917869.358 7                  23668347.880    23668344.280
  23668343.680          46.700          42.950
 108335095.328 8  84416958.785 8  80899589.201 8  20615479.640    20615479.220
  20615478.560          49.650          49.800
 125299232.257 7  97635728.17546                  23843649.220
  23843645.120          46.400          40.000
 133134289.982 6 103740996.489 6                  25334613.120    25334613.820
  25334612.700          40.700          38.700
 135525311.947 7 105604121.283 6 101203938.071 6  25789626.080    25789629.940
  25789629.040          42.600          36.850
 123171342.711 8  95977640.17947                  23438729.060
  23438723.940          48.400          43.200
 125979590.004 7  98165873.82046                  23973123.540
  23973120.720          44.300          36.250
 108518674.220 8  84560027.18347                  20650402.600
  20650399.100          49.950          47.250
 107267672.550 8  83585217.851 8  80102490.043 8  20412354.820    20412353.680
  20412353.540          50.300          49.750
 103245853.947 8  80302348.453 7                  19307493.560    19307495.320
  19307493.200          48.000          42.550
 121190073.456 7  94258946.539 7                  22647267.560    22647269.420
  22647268.840          46.250          42.750
 116246913.202 8  90414280.620 7                  21784625.160    21784629.660
  21784628.720          48.300          43.600
 113978622.083 8  88650055.712 7                  21284694.540    21284695.940
  21284695.040          49.150          45.650
 110483128.493 8  85931339.159 7                  20653654.860    20653659.340
  20653658.360          49.300          47.500
 102785880.047 8  79944584.423 7                  19228219.620    19228223.180
  19228222.900          48.700          43.150
 15  1 27  8  1  5.0000000  0 19G11G14G28G04G17G03G23G31G27G19G20G32
                                G01R24R17R02R08R23R01
 106651192.476 8  83104813.06047                  20295043.560
  20295038.640          48.750          47.650
 126559530.327 7  98617797.09746                  24083482.180
  24083479.020          43.900          37.800
 123906812.080 7  96550727.50046                  23578684.480
  23578680.640          46.750          39.250
 110007435.490 8  85720088.58947                  20933711.280
  20933707.940          50.050          46.450
 124362446.662 7  96905759.651 7                  23665390.560    23665386.980
  23665386.380          46.800          43.150
 108329537.122 8  84412627.715 8  80895438.596 8  20614421.920    20614421.520
  20614420.860          49.700          49.850
 125281931.511 7  97622247.06446                  23840356.960
  23840352.940          46.800          40.100
 133123627.128 6 103732687.795 6                  25332584.020    25332584.860
  25332583.740          41.250          38.800
 135544111.300 6 105618770.089 5 101217976.563 6  25793203.460    25793207.380
  25793206.540          41.750          35.650
 123188570.830 8  95991064.66847                  23442007.440
  23442002.340          48.500          42.950
 125964080.878 7  98153788.77845                  23970172.260
  23970169.420          44.950          35.600
 108527229.386 8  84566693.54247                  20652030.580
  20652027.100          49.850          47.300
 107266260.353 8  83584117.436 8  80101435.479 8  20412086.100    20412084.920
  20412084.800          50.350          49.800
 103240524.797 7  80298203.554 7                  19306496.980    19306498.720
  19306496.620          47.750          42.650
 121170391.633 7  94243638.447 7                  22643589.520    22643591.400
  22643590.760          45.950          42.350
 116230217.558 8  90401295.115 7                  21781496.420    21781500.880
  21781499.940          48.100          43.650
 113995432.250 8  88663130.278 7                  21287833.740    21287835.100
  21287834.200          48.950          45.400
 110496473.257 8  85941718.412 7                  20656149.540    20656154.000
  20656153.060          49.200          47.300
 102785539.163 8  79944319.285 7                  19228155.860    19228159.380
  19228159.100          48.900          43.150
 15  1 27  8  1 10.0000000  0 19G11G14G28G04G17G03G23G31G27G19G20G32
                                G01R24R17R02R08R23R01
 106656523.656 8  83108967.22147                  20296058.060
  20296053.140          48.800          47.700
 126571738.686 7  98627310.09046                  24085805.300
  24085802.180          43.950          37.700
 123912515.565 7  96555171.75746                  23579769.820
  23579766.020          46.900          38.300
 110015375.665 8  85726275.73447                  20935222.260
  20935218.940          50.100          46.550
 124346911.868 7  96893654.617 7                  23662434.380    23662430.840
  23662430.200          46.950          43.050
 108323989.110 8  84408304.593 8  80891295.598 8  20613366.160    20613365.780
  20613365.120          49.850          49.850
 125264632.906 7  97608767.62246                  23837065.140
  23837061.160          47.400          39.750
 133112969.144 6 103724382.858 6                  25330555.880    25330556.720
  25330555.620          41.200          38.500
 135562909.844 6 105633418.321 6 101232014.380 7  25796780.680    25796784.780
  25796783.940          41.650          37.300
 123205803.894 8  96004493.02247                  23445286.740
  23445281.740          48.450          43.150
 125948575.547 7  98141706.71245                  23967221.700
  23967218.800          45.550          35.550
 108535793.859 8  84573367.15147                  20653660.320
  20653656.880          49.900          47.100
 107264855.874 8  83583023.039 8  80100386.670 8  20411818.820    20411817.660
  20411817.540          50.400          49.800
 103235212.849 7  80294072.039 7                  19305503.600    19305505.380
  19305503.260          47.400          42.600
 121150712.460 7  94228332.421 7                  22639911.960    22639913.880
  22639913.200          45.900          42.250
 116213532.013 8  90388317.487 7                  21778369.560    21778374.040
  21778373.080          48.400          43.650
 114012248.802 8  88676209.810 7                  21290974.100    21290975.460
  21290974.520          49.050          45.300
 110509832.508 8  85952108.932 7                  20658646.900    20658651.360
  20658650.440          48.850          47.100
 102785215.723 8  79944067.727 7                  19228095.340    19228098.860
  19228098.580          48.800          43.100
 15  1 27  8  1 15.0000000  0 19G11G14G28G04G17G03G23G31G27G19G20G32
                                G01R24R17R02R08R23R01
 106661868.540 8  83113132.05947                  20297075.140
  20297070.240          48.800          47.800
 126583959.084 7  98636832.46046                  24088130.740
  24088127.680          43.750          37.400
 123918232.281 7  96559626.32746                  23580857.640
  23580853.880          46.750          37.900
 110023325.469 8  85732470.38447                  20936735.080
  20936731.760          50.000          46.350
 124331384.922 7  96881555.702 7                  23659479.700    23659476.140
  23659475.520          46.900          43.000
 108318453.183 8  84403990.885 8  80887161.624 8  20612312.700    20612312.320
  20612311.660          49.800          49.850
 125247338.322 7  97595291.30046                  23833774.100
  23833770.120          47.600          38.800
 133102317.878 6 103716083.180 6                  25328528.980    25328529.940
  25328528.740          41.100          37.850
 135581709.311 7 105648067.178 6 101246052.875 7  25800358.060    25800362.140
  25800361.480          45.300          39.850
 123223043.757 8  96017926.65947                  23448567.360
  23448562.440          48.100          43.200
 125933075.996 7  98129629.13846                  23964272.260
  23964269.180          45.300          36.050
 108544369.546 8  84580049.50347                  20655292.200
  20655288.780          49.700          47.350
 107263461.033 8  83581936.147 8  80099345.075 8  20411553.380    20411552.240
  20411552.100          50.350          49.750
 103229920.066 7  80289955.427 7                  19304513.840    19304515.620
  19304513.460          47.250          42.600
 121131037.818 7  94213029.924 6                  22636235.220    22636237.140
  22636236.480          46.150          41.950
 116196858.567 8  90375349.258 7                  21775244.980    21775249.440
  21775248.460          48.500          43.350
 114029073.957 8  88689296.040 7                  21294116.100    21294117.420
  21294116.480          48.900          45.050
 110523208.369 8  85962512.369 7                  20661147.400    20661151.840
  20661150.920          48.950          46.900
 102784911.697 8  79943831.264 7                  19228038.480    19228042.020
  19228041.700          48.650          42.950
 15  1 27  8  1 20.0000000  0 19G11G14G28G04G17G03G23G31G27G19G20G32
                                G01R24R17R02R08R23R01
 106667223.508 8  83117304.75547                  20298094.140
  20298089.280          48.750          47.350
 126596187.875 7  98646361.39046                  24090457.780
  24090454.780          44.050          37.400
 123923958.636 7  96564088.40946                  23581947.300
  23581943.560          46.050          38.400
 110031281.251 8  85738669.68947                  20938249.020
  20938245.700          49.900          46.550
 124315862.278 7  96869460.131 7                  23656525.840    23656522.260
  23656521.660          46.950          42.950
 108312925.721 8  84399683.772 8  80883033.984 8  20611260.860    20611260.480
  20611259.820          49.650          49.800
 125230044.153 7  97581815.31146                  23830483.160
  23830479.160          47.400          39.000
 133091669.781 7 103707785.984 6                  25326502.800    25326503.720
  25326502.560          42.450          36.800
 135600506.092 7 105662713.984 6 101260089.397 7  25803934.980    25803939.040
  25803938.400          46.650          39.700
 123240286.766 8  96031362.74747                  23451848.540
  23451843.720          48.050          43.050
 125917578.591 7  98117553.24646                  23961323.200
  23961320.080          45.250          36.350
 108552952.808 8  84586737.75147                  20656925.540
  20656922.120          49.700          46.750
 107262072.224 8  83580853.957 8  80098307.972 8  20411289.080    20411287.940
  20411287.820          50.300          49.800
 103224642.858 7  80285850.932 7                  19303526.960    19303528.740
  19303526.620          47.400          42.700
 121111363.985 7  94197728.043 6                  22632558.620    22632560.540
  22632559.880          45.550          41.850
 116180193.382 8  90362387.441 7                  21772121.920    21772126.440
  21772125.380          48.300          43.050
 114045903.813 8  88702385.930 7                  21297258.960    21297260.320
  21297259.340          48.400          45.350
 110536597.017 8  85972925.754 7                  20663650.280    20663654.720
  20663653.760          49.100          47.050
 102784623.252 8  79943606.908 7                  19227984.500    19227988.020
  19227987.760          48.600          42.900
 15  1 27  8  1 25.0000000  0 19G11G14G28G04G17G03G23G31G27G19G20G32
                                G01R24R17R02R08R23R01
 106672593.255 8  83121488.96447                  20299115.940
  20299111.120          48.650          47.850
 126608429.690 7  98655900.44646                  24092787.320
  24092784.380          44.300          37.600
 123929699.252 7  96568561.60246                  23583039.680
  23583035.940          46.050          39.250
 110039247.785 8  85744877.37047                  20939765.020
  20939761.700          49.900          46.950
 124300348.544 7  96857371.501 7                  23653573.660    23653570.080
  23653569.480          47.400          43.250
 108307411.360 8  84395386.862 8  80878916.108 8  20610211.520    20610211.140
  20610210.460          49.850          49.900
 125212755.028 8  97568343.25646                  23827193.180
  23827189.120          48.000          39.650
 133081029.490 7 103699494.834 6                  25324478.080    25324479.140
  25324477.860          43.550          36.700
 135619304.736 6 105677362.308 6 101274127.336 7  25807512.240    25807516.360
  25807515.680          41.400          38.000
 123257537.569 7  96044804.91547                  23455131.200
  23455126.480          47.850          43.250
 125902087.995 7  98105482.65845                  23958375.440
  23958372.320          45.800          34.650
 108561548.265 8  84593435.50547                  20658561.180
  20658557.780          49.700          47.200
 107260694.049 8  83579780.050 8  80097278.810 8  20411026.800    20411025.700
  20411025.540          50.300          50.000
 103219385.909 7  80281762.191 7                  19302543.840    19302545.640
  19302543.580          47.700          42.850
 121091695.805 7  94182430.564 7                  22628883.100    22628885.040
  22628884.360          46.150          42.000
 116163541.212 8  90349435.761 7                  21769001.320    21769005.820
  21769004.740          48.150          43.300
 114062743.119 7  88715483.149 7                  21300403.560    21300404.980
  21300404.000          47.900          45.700
 110550002.978 8  85983352.600 7                  20666156.420    20666160.840
  20666159.860          49.350          47.200
 102784355.230 8  79943398.438 7                  19227934.380    19227937.840
  19227937.600          48.650          43.050
 15  1 27  8  1 30.0000000  0 19G11G14G28G04G17G03G23G31G27G19G20G32
                                G01R24R17R02R08R23R01
 106677973.432 8  83125681.30347                  20300139.740
  20300134.960          48.650          47.800
 126620680.261 7  98665446.32246                  24095118.540
  24095115.540          44.400          36.950
 123935449.853 7  96573042.58246                  23584133.960
  23584130.240          46.200          38.250
 110047220.586 8  85751089.93747                  20941282.200
  20941278.900          50.100          46.450
 124284839.460 7  96845286.501 7                  23650622.380    23650618.800
  23650618.220          47.600          43.100
 108301905.836 8  84391096.840 8  80874804.839 8  20609163.860    20609163.460
  20609162.800          49.950          49.850
 125195466.744 8  97554871.84146                  23823903.400
  23823899.260          48.450          39.300
 133070392.810 7 103691206.481 6                  25322454.060    25322455.100
  25322453.800          43.550          36.600
 135638101.015 7 105692008.752 6 101288163.463 7  25811089.060    25811093.100
  25811092.600          44.400          37.600
 123274791.881 8  96058249.81147                  23458414.520
  23458409.900          48.100          43.400
 125886599.871 7  98093414.00245                  23955428.140
  23955424.920          45.650          34.250
 108570151.696 8  84600139.47347                  20660198.340
  20660194.960          50.000          47.050
 107259322.267 8  83578711.131 8  80096254.427 8  20410765.740    20410764.640
  20410764.500          50.450          49.950
 103214144.802 7  80277685.768 7                  19301563.740    19301565.540
  19301563.480          47.700          42.800
 121072028.864 7  94167134.040 6                  22625207.800    22625209.740
  22625209.060          45.750          41.850
 116146897.753 8  90336490.849 7                  21765882.360    21765886.780
  21765885.720          48.250          43.900
 114079587.490 7  88728584.306 7                  21303549.060    21303550.560
  21303549.600          47.550          45.750
 110563422.174 8  85993789.744 7                  20668665.040    20668669.380
  20668668.440          49.350          47.300
 102784103.280 8  79943202.485 7                  19227887.220    19227890.700
  19227890.440          48.750          43.000
 15  1 27  8  1 35.0000000  0 19G11G14G28G04G17G03G23G31G27G19G20G32
                                G01R24R17R02R08R23R01
 106683365.913 8  83129883.23447                  20301165.900
  20301161.120          48.850          47.700
 126632941.477 7  98675000.52546                  24097451.780
  24097448.740          44.850          36.850
 123941212.349 7  96577532.83846                  23585230.540
  23585226.820          45.950          39.050
 110055201.673 8  85757308.96747                  20942800.940
  20942797.660          50.150          46.450
 124269336.927 7  96833206.605 7                  23647672.320    23647668.800
  23647668.120          47.600          43.150
 108296411.060 8  84386815.205 8  80870701.608 8  20608118.260    20608117.820
  20608117.180          50.050          49.850
 125178181.217 8  97541402.59146                  23820614.140
  23820609.920          48.650          38.900
 133059761.592 7 103682922.397 6                  25320431.060    25320432.000
  25320430.820          43.650          37.350
 135656896.789 7 105706654.755 6 101302199.259 7  25814665.820    25814669.880
  25814669.300          45.050          38.500
 123292051.640 8  96071698.96847                  23461698.920
  23461694.380          48.150          43.650
 125871116.214 7  98081348.82545                  23952481.700
  23952478.500          45.400          34.900
 108578764.894 8  84606851.06047                  20661837.340
  20661833.980          50.000          47.050
 107257958.814 8  83577648.700 8  80095236.270 8  20410506.280    20410505.180
  20410505.040          50.400          50.050
 103208921.649 7  80273623.318 7                  19300586.940    19300588.760
  19300586.700          47.550          42.350
 121052365.137 7  94151840.038 6                  22621533.120    22621535.120
  22621534.380          45.850          41.800
 116130264.985 7  90323554.268 7                  21762765.360    21762769.820
  21762768.700          47.900          43.700
 114096438.868 7  88741690.916 7                  21306695.960    21306697.460
  21306696.500          47.450          45.250
 110576856.344 8  86004238.535 7                  20671176.460    20671180.780
  20671179.820          49.300          47.200
 102783869.283 8  79943020.496 7                  19227843.420    19227846.940
  19227846.620          48.550          42.850
 15  1 27  8  1 40.0000000  0 19G11G14G28G04G17G03G23G31G27G19G20G32
                                G01R24R17R02R08R23R01
 106688769.849 8  83134094.08647                  20302194.220
  20302189.480          48.850          47.750
 126645212.495 7  98684562.33746                  24099786.920
  24099783.800          44.850          36.750
 123946985.839 7  96582031.64146                  23586329.220
  23586325.480          46.300          39.250
 110063190.192 8  85763533.77847                  20944321.080
  20944317.840          49.950          46.600
 124253840.142 7  96821131.180 7                  23644723.380    23644719.920
  23644719.180          47.750          43.100
 108290926.130 8  84382541.230 8  80866605.718 8  20607074.520    20607074.060
  20607073.420          50.150          49.850
 125160897.573 8  97527934.80746                  23817325.220
  23817320.940          48.750          38.850
 133049135.038 7 103674641.959 6                  25318408.940    25318409.820
  25318408.660          44.100          37.100
 135675691.190 6 105721299.795 5 101316234.074 6  25818242.300    25818246.440
  25818245.720          37.250          33.650
 123309315.948 8  96085151.64647                  23464984.180
  23464979.740          48.150          43.350
 125855636.148 7  98069286.43645                  23949535.980
  23949532.720          45.600          35.050
 108587387.082 8  84613569.64247                  20663478.060
  20663474.700          50.000          46.800
 107256602.789 8  83576592.051 8  80094223.645 8  20410248.220    20410247.160
  20410247.020          50.350          50.050
 103203715.412 7  80269574.018 7                  19299613.300    19299615.180
  19299613.100          47.450          42.450
 121032703.782 7  94136547.855 7                  22617858.940    22617860.960
  22617860.160          45.950          42.300
 116113641.996 8  90310625.268 7                  21759650.180    21759654.640
  21759653.520          48.050          43.900
 114113296.318 7  88754802.256 7                  21309843.980    21309845.500
  21309844.500          47.650          45.400
 110590304.755 8  86014698.404 7                  20673690.540    20673694.860
  20673693.880          49.250          47.200
 102783652.440 8  79942851.838 7                  19227802.840    19227806.360
  19227806.040          48.400          42.850
 15  1 27  8  1 45.0000000  0 18G11G14G28G04G17G03G23G31G19G20G32G01
                                R24R17R02R08R23R01
 106694186.530 8  83138314.87347                  20303224.980
  20303220.240          49.000          47.750
 126657494.614 7  98694132.81746                  24102124.160
  24102120.940          45.050          36.550
 123952771.656 7  96586540.06846                  23587430.240
  23587426.540          46.250          38.300
 110071187.512 8  85769765.45247                  20945842.940
  20945839.680          50.050          46.650
 124238350.374 7  96809061.228 7                  23641775.760    23641772.300
  23641771.560          47.700          43.550
 108285452.383 8  84378275.978 8  80862518.181 8  20606032.920    20606032.440
  20606031.800          50.100          49.900
 125143617.125 8  97514469.51046                  23814036.900
  23814032.620          48.900          38.650
 133038514.401 7 103666366.142 6                  25316387.960    25316388.780
  25316387.760          44.250          37.350
 123326586.073 8  96098608.86847                  23468270.540
  23468266.160          48.350          43.550
 125840160.973 7  98057227.86446                  23946591.140
  23946587.920          44.950          37.450
 108596019.485 8  84620296.19447                  20665120.740
  20665117.380          49.950          47.050
 107255255.518 8  83575542.232 8  80093217.565 8  20409991.840    20409990.780
  20409990.640          50.550          50.050
 103198527.482 7  80265538.966 7                  19298643.120    19298645.020
  19298642.920          47.350          42.400
 121013046.123 7  94121258.574 7                  22614185.420    22614187.520
  22614186.680          45.550          42.250
 116097030.026 7  90297704.855 7                  21756537.080    21756541.600
  21756540.440          47.800          44.150
 114130161.239 7  88767919.413 7                  21312993.400    21312994.880
  21312993.880          47.800          45.250
 110603768.633 8  86025170.311 7                  20676207.520    20676211.760
  20676210.800          49.250          47.350
 102783453.978 8  79942697.478 7                  19227765.700    19227769.220
  19227768.920          48.650          43.200
 15  1 27  8  1 50.0000000  0 18G11G14G28G04G17G03G23G31G19G20G32G01
                                R24R17R02R08R23R01
 106699615.181 8  83142544.98147                  20304258.020
  20304253.300          49.050          47.700
 126669787.001 7  98703711.27446                  24104463.360
  24104460.140          45.300          36.650
 123958568.967 7  96591057.44346                  23588533.440
  23588529.760          46.250          38.950
 110079192.742 8  85776003.28347                  20947366.280
  20947363.020          50.000          46.600
 124222866.842 7  96796996.129 7                  23638829.340    23638825.900
  23638825.160          47.750          43.700
 108279989.030 8  84374018.818 8  80858438.397 8  20604993.280    20604992.800
  20604992.180          50.100          49.950
 125126339.110 8  97501006.10946                  23810749.000
  23810744.720          48.800          37.950
 133027898.909 7 103658094.330 5                  25314367.940    25314368.740
  25314367.780          44.200          35.900
 123343861.256 8  96112070.03147                  23471557.860
  23471553.520          48.350          43.150
 125824689.875 7  98045172.47346                  23943647.100
  23943643.940          45.250          37.750
 108604661.354 8  84627030.11147                  20666765.220
  20666761.880          49.950          47.200
 107253916.202 8  83574498.606 8  80092217.418 8  20409736.960    20409735.920
  20409735.780          50.400          50.050
 103193357.034 7  80261517.500 7                  19297676.200    19297678.080
  19297676.020          47.300          42.700
 120993391.375 7  94105971.544 7                  22610512.440    22610514.520
  22610513.680          46.100          42.050
 116080428.360 7  90284792.461 7                  21753425.900    21753430.440
  21753429.280          47.150          44.550
 114147032.795 8  88781041.723 7                  21316144.100    21316145.500
  21316144.500          48.050          45.800
 110617247.161 8  86035653.598 7                  20678727.220    20678731.420
  20678730.480          49.350          47.400
 102783273.123 8  79942556.810 7                  19227731.860    19227735.400
  19227735.100          48.650          43.050
 15  1 27  8  1 55.0000000  0 18G11G14G28G04G17G03G23G31G19G20G32G01
                                R24R17R02R08R23R01
 106705057.212 8  83146785.52047                  20305293.620
  20305288.880          48.950          47.900
 126682091.075 7  98713298.87346                  24106804.780
  24106801.480          45.250          36.350
 123964379.218 7  96595584.89146                  23589639.100
  23589635.440          46.400          39.100
 110087207.280 8  85782248.37247                  20948891.380
  20948888.140          50.100          46.750
 124207390.986 7  96784937.018 7                  23635884.380    23635880.980
  23635880.240          47.650          43.750
 108274537.458 8  84369770.842 8  80854367.428 8  20603955.900    20603955.400
  20603954.760          50.100          49.900
 125109064.910 8  97487545.69346                  23807461.840
  23807457.640          48.750          38.800
 133017290.072 7 103649827.688 5                  25312349.200    25312349.920
  25312348.840          44.350          35.100
 123361142.858 8  96125536.20847                  23474846.400
  23474842.120          48.250          43.350
 125809224.287 7  98033121.37046                  23940704.100
  23940701.020          44.650          37.650
 108613314.024 8  84633772.45447                  20668411.740
  20668408.440          49.800          47.300
 107252586.268 8  83573462.294 8  80091224.292 8  20409483.880    20409482.840
  20409482.720          50.300          50.000
 103188205.667 7  80257510.884 7                  19296712.780    19296714.660
  19296712.700          47.300          42.800
 120973741.063 7  94090687.964 7                  22606840.260    22606842.360
  22606841.560          45.900          42.350
 116063838.602 7  90271889.341 7                  21750316.980    21750321.540
  21750320.380          47.250          44.850
 114163912.302 8  88794170.221 7                  21319296.260    21319297.640
  21319296.660          48.450          45.850
 110630741.902 8  86046149.499 7                  20681249.940    20681254.140
  20681253.200          49.250          47.350
 102783111.214 8  79942430.882 7                  19227701.540    19227705.100
  19227704.820          48.600          43.050
 15  1 27  8  2  0.0000000  0 18G11G14G28G04G17G03G23G31G19G20G32G01
                                R24R17R02R08R23R01
 106710509.408 8  83151033.98547                  20306331.140
  20306326.420          49.000          47.800
 126694403.589 7  98722893.02145                  24109147.780
  24109144.460          44.900          35.900
 123970199.130 7  96600119.87346                  23590746.580
  23590743.000          46.650          38.100
 110095227.928 8  85788498.22547                  20950417.680
  20950414.420          50.200          46.300
 124191919.621 7  96772881.417 7                  23632940.280    23632936.900
  23632936.160          47.850          43.750
 108269094.448 8  84365529.537 8  80850302.841 8  20602920.140    20602919.620
  20602918.980          50.150          49.900
 125091791.329 8  97474085.75346                  23804174.760
  23804170.620          48.850          39.200
 133006684.625 7 103641563.649 5                  25310331.060    25310331.680
  25310330.600          44.200          35.200
 123378427.660 8  96139004.85747                  23478135.600
  23478131.300          48.900          42.900
 125793760.967 7  98021072.03846                  23937761.520
  23937758.480          44.250          38.500
 108621974.333 8  84640520.74147                  20670059.720
