     2.11           OBSERVATION DATA    M (MIXED)           RINEX VERSION / TYPE
teqc  2011Oct11     IGN-E (SPG)         20150127 08:00:46UTCPGM / RUN BY / DATE
Linux 2.4.21-27.ELsmp|Opteron|gcc -static|Linux x86_64|=+   COMMENT
BIT 2 OF LLI FLAGS DATA COLLECTED UNDER A/S CONDITION       COMMENT
VALE                                                        MARKER NAME
13439M001                                                   MARKER NUMBER
Programas GeodesicosInstituto Geografico Nacional           OBSERVER / AGENCY
1700071             LEICA GR10          3.03/6.214          REC # / TYPE / VERS
10190012            LEIAR25.R3      LEIT                    ANT # / TYPE
  4929534.0457   -29050.6755  4033709.9250                  APPROX POSITION XYZ
        3.0390        0.0000        0.0000                  ANTENNA: DELTA H/E/N
     1     1                                                WAVELENGTH FACT L1/2
     8    L1    L2    L5    C1    C2    P2    S1    S2      # / TYPES OF OBSERV
     5.0000                                                 INTERVAL
Forced Modulo Decimation to 5 seconds                       COMMENT
DefaultJobName                                              COMMENT
DefaultUserDiscription                                      COMMENT
Project creator:                                            COMMENT
 SNR is mapped to RINEX snr flag value [0-9]                COMMENT
  L1 & L2: min(max(int(snr_dBHz/6), 0), 9)                  COMMENT
  2015     1    27     7     0    0.0000000     GPS         TIME OF FIRST OBS
    15                                                      LEAP SECONDS
                                                            END OF HEADER
 15  1 27  7  0  0.0000000  0 17G11G14G28G04G03G22G27G19G32G01R24R08
                                R07R22R15R23R01
 105954122.108 8  82561644.67447                  20162393.020
  20162387.360          49.200          47.900
 121011937.940 7  94295004.15546                  23027805.740
  23027801.540          47.900          39.750
 123295571.327 7  96074442.59846                  23462364.340
  23462358.640          47.250          39.950
 106403071.194 8  82911497.23047                  20247820.540
  20247816.280          50.350          47.150
 115213762.970 8  89776960.251 8  86036257.451 8  21924446.420    21924445.360
  21924444.740          49.700          48.350
 127517138.968 7  99364009.27046                  24265693.800
  24265687.840          46.150          38.550
 122215853.433 8  95233137.566 7  91265083.588 8  23256902.620    23256901.500
  23256900.880          48.800          45.700
 112548990.484 8  87700490.65047                  21417356.220
  21417349.640          50.100          47.900
 105449127.679 8  82168175.28747                  20066285.220
  20066281.220          49.750          47.700
 110269830.872 8  85924564.529 8  82344364.598 8  20983644.000    20983642.840
  20983642.700          49.550          49.550
 110973121.104 8  86312447.581 6                  20752529.700    20752530.800
  20752529.040          48.300          41.700
 104605393.433 8  81359771.322 7                  19534306.340    19534307.140
  19534306.260          49.400          47.600
 123640552.302 7  96164902.102 6                  23097089.020    23097090.440
  23097089.680          45.000          41.200
 120547696.305 8  93759343.251 7                  22582642.440    22582646.700
  22582645.640          48.300          43.050
 129549505.153 7 100760742.811 6                  24243425.000    24243429.780
  24243427.720          42.400          37.500
 104983143.657 8  81653578.867 8                  19625486.480    19625489.660
  19625488.840          49.550          48.000
 107964516.085 8  83972412.976 7                  20196989.680    20196993.680
  20196993.380          48.950          42.900
 15  1 27  7  0  5.0000000  0 17G11G14G28G04G03G22G27G19G32G01R24R08
                                R07R22R15R23R01
 105950905.169 8  82559137.96548                  20161780.840
  20161775.200          49.100          48.000
 121014305.743 8  94296849.19246                  23028256.300
  23028252.120          48.050          39.700
 123291254.102 7  96071078.52746                  23461542.800
  23461537.080          47.400          40.350
 106404946.188 8  82912958.26147                  20248177.340
  20248173.060          50.450          47.350
 115200709.769 8  89766788.920 8  86026509.927 8  21921962.500    21921961.420
  21921960.800          49.700          48.400
 127532909.093 7  99376297.64446                  24268694.760
  24268688.840          46.550          37.700
 122232596.360 8  95246183.979 7  91277586.407 8  23260088.760    23260087.620
  23260087.000          49.050          45.850
 112560111.545 8  87709156.41147                  21419472.460
  21419465.920          50.150          47.850
 105448279.010 8  82167513.98647                  20066123.720
  20066119.720          49.850          47.550
 110263301.512 8  85919476.707 8  82339488.783 8  20982401.460    20982400.340
  20982400.220          49.550          49.450
 110958663.526 7  86301202.794 6                  20749826.080    20749827.100
  20749825.400          47.950          41.650
 104612746.155 8  81365490.102 7                  19535679.440    19535680.160
  19535679.340          49.250          47.450
 123660868.136 7  96180703.287 6                  23100884.160    23100885.680
  23100884.860          45.100          41.350
 120563882.066 7  93771932.166 7                  22585674.620    22585678.880
  22585677.780          47.850          42.200
 129554792.610 7 100764855.290 6                  24244414.480    24244419.240
  24244417.280          42.250          37.200
 104984795.994 8  81654864.006 8                  19625795.380    19625798.560
  19625797.740          49.550          48.000
 107950912.133 8  83961832.121 7                  20194444.820    20194448.740
  20194448.460          49.000          42.650
 15  1 27  7  0 10.0000000  0 17G11G14G28G04G03G22G27G19G32G01R24R08
                                R07R22R15R23R01
 105947698.137 8  82556638.97447                  20161170.560
  20161164.940          48.850          47.750
 121016687.990 7  94298705.48046                  23028709.620
  23028705.400          47.850          40.350
 123286950.320 7  96067724.92646                  23460723.800
  23460718.080          47.250          40.100
 106406828.831 8  82914425.24747                  20248535.620
  20248531.320          50.350          47.200
 115187665.035 8  89756624.189 8  86016768.719 8  21919480.180    21919479.120
  21919478.480          49.700          48.350
 127548680.067 7  99388586.71046                  24271695.900
  24271689.960          46.350          37.200
 122249344.694 8  95259234.617 7  91290093.262 8  23263275.960    23263274.820
  23263274.180          49.100          45.900
 112571242.761 8  87717830.08248                  21421590.620
  21421584.140          49.900          48.100
 105447444.875 8  82166864.00947                  20065965.000
  20065961.000          49.850          47.500
 110256777.522 8  85914393.081 8  82334616.955 8  20981159.960    20981158.880
  20981158.740          49.600          49.450
 110944212.215 7  86289962.881 6                  20747123.620    20747124.620
  20747122.900          47.300          41.300
 104620116.781 8  81371222.803 7                  19537055.880    19537056.600
  19537055.780          49.250          47.350
 123681187.364 7  96196507.117 6                  23104680.020    23104681.500
  23104680.680          45.450          41.350
 120580075.269 7  93784526.860 7                  22588708.180    22588712.440
  22588711.320          47.400          42.750
 129560097.712 6 100768981.472 6                  24245407.220    24245412.060
  24245410.080          41.750          37.050
 104986462.793 8  81656160.407 7                  19626106.980    19626110.160
  19626109.340          49.550          47.950
 107937323.729 8  83951263.370 7                  20191902.820    20191906.780
  20191906.480          49.100          42.800
 15  1 27  7  0 15.0000000  0 17G11G14G28G04G03G22G27G19G32G01R24R08
                                R07R22R15R23R01
 105944501.444 8  82554148.03848                  20160562.240
  20160556.640          48.850          48.200
 121019085.082 8  94300573.34246                  23029165.760
  23029161.520          48.100          40.050
 123282660.377 7  96064382.10446                  23459907.480
  23459901.740          47.550          39.950
 106408719.521 8  82915898.50647                  20248895.420
  20248891.100          50.350          47.200
 115174629.181 8  89746466.375 8  86007034.145 8  21916999.560    21916998.480
  21916997.860          49.650          48.400
 127564452.286 7  99400876.73746                  24274697.260
  24274691.300          46.400          37.150
 122266098.864 8  95272289.796 7  91302604.468 8  23266464.260    23266463.060
  23266462.460          49.050          45.700
 112582384.529 8  87726511.96548                  21423710.800
  21423704.360          49.900          48.100
 105446625.752 8  82166225.72147                  20065809.120
  20065805.120          49.900          47.300
 110250259.312 8  85909313.948 8  82329749.459 8  20979919.580    20979918.520
  20979918.380          49.700          49.450
 110929767.744 7  86278728.290 6                  20744422.440    20744423.420
  20744421.680          47.700          41.500
 104627505.837 8  81376969.844 7                  19538435.740    19538436.480
  19538435.660          49.350          47.550
 123701510.567 7  96212314.033 6                  23108476.600    23108478.080
  23108477.260          45.700          41.400
 120596276.425 7  93797127.720 7                  22591743.200    22591747.540
  22591746.360          47.650          42.650
 129565420.822 6 100773121.673 6                  24246403.400    24246408.140
  24246406.220          41.650          36.950
 104988144.755 8  81657468.594 7                  19626421.400    19626424.560
  19626423.780          49.550          47.950
 107923751.405 8  83940707.116 7                  20189363.820    20189367.780
  20189367.520          48.950          42.750
 15  1 27  7  0 20.0000000  0 17G11G14G28G04G03G22G27G19G32G01R24R08
                                R07R22R15R23R01
 105941316.490 8  82551666.25248                  20159956.160
  20159950.580          48.800          48.050
 121021498.415 7  94302453.85746                  23029625.000
  23029620.700          47.800          40.750
 123278385.758 7  96061051.23346                  23459094.040
  23459088.300          47.600          39.950
 106410619.803 8  82917379.23547                  20249257.060
  20249252.680          50.350          47.000
 115161603.679 8  89736316.627 8  85997307.306 8  21914520.900    21914519.840
  21914519.180          49.250          48.350
 127580227.214 7  99413168.87046                  24277699.140
  24277693.260          46.150          36.750
 122282860.296 8  95285350.640 7  91315121.106 8  23269653.920    23269652.700
  23269652.060          48.850          45.400
 112593538.271 8  87735203.18047                  21425833.260
  21425826.860          49.950          47.850
 105445823.000 8  82165600.20047                  20065656.360
  20065652.360          49.800          47.150
 110243748.329 8  85904240.451 8  82324887.359 8  20978680.580    20978679.540
  20978679.380          49.650          49.600
 110915331.494 7  86267500.092 6                  20741722.760    20741723.740
  20741722.000          47.700          41.650
 104634914.612 8  81382732.227 7                  19539819.280    19539820.040
  19539819.200          49.200          47.550
 123721839.063 7  96228125.066 6                  23112274.180    23112275.640
  23112274.840          45.450          41.500
 120612486.998 7  93809735.930 7                  22594780.000    22594784.420
  22594783.180          47.550          42.900
 129570763.156 6 100777276.828 6                  24247403.140    24247407.880
  24247406.000          41.150          36.100
 104989843.174 8  81658789.574 7                  19626738.900    19626742.080
  19626741.280          49.200          47.900
 107910196.715 8  83930164.582 7                  20186828.140    20186832.080
  20186831.840          48.700          42.750
 15  1 27  7  0 25.0000000  0 18G11G14G28G04G03G22G27G19G32G01R24R02
                                R08R07R22R15R23R01
 105938141.600 8  82549192.31248                  20159351.980
  20159346.420          48.750          48.300
 121023926.360 7  94304345.76246                  23030087.020
  23030082.680          47.700          40.600
 123274124.775 7  96057730.98546                  23458283.200
  23458277.460          47.600          39.300
 106412527.932 8  82918866.08947                  20249620.180
  20249615.760          50.250          47.150
 115148586.807 8  89726173.616 8  85987586.914 8  21912043.860    21912042.820
  21912042.160          49.200          48.400
 127596003.133 7  99425461.78446                  24280701.220
  24280695.400          45.350          37.750
 122299627.275 8  95298415.802 7  91327641.872 8  23272844.600    23272843.360
  23272842.720          48.850          45.650
 112604702.302 8  87743902.42347                  21427957.680
  21427951.300          49.900          47.800
 105445034.963 8  82164986.14947                  20065506.400
  20065502.420          49.750          47.550
 110237242.881 8  85899171.275 8  82320029.393 8  20977442.640    20977441.600
  20977441.460          49.550          49.600
 110900901.966 7  86256277.127 6                  20739024.380    20739025.340
  20739023.600          47.750          41.800
 130491201.864 5 101493170.06215                  24453994.580    24453999.900
                        33.900          30.950
 104642341.460 8  81388508.664 7                  19541206.180    19541206.940
  19541206.120          49.100          47.650
 123742171.149 7  96243938.898 6                  23116072.420    23116073.880
  23116073.100          45.800          40.800
 120628705.094 7  93822349.979 7                  22597818.180    22597822.720
  22597821.440          47.850          43.000
 129576123.063 6 100781445.645 5                  24248406.180    24248410.760
  24248409.020          41.600          35.600
 104991556.557 8  81660122.209 7                  19627059.220    19627062.400
  19627061.580          49.400          47.900
 107896657.870 8  83919634.367 7                  20184295.440    20184299.360
  20184299.100          48.650          42.400
 15  1 27  7  0 30.0000000  0 18G11G14G28G04G03G22G27G19G32G01R24R02
                                R08R07R22R15R23R01
 105934976.779 8  82546726.20948                  20158749.740
  20158744.180          48.600          48.150
 121026368.871 7  94306249.01446                  23030551.800
  23030547.360          47.550          39.950
 123269877.359 7  96054421.30846                  23457474.960
  23457469.200          47.300          39.750
 106414443.881 8  82920359.03447                  20249984.760
  20249980.360          50.250          47.200
 115135578.552 8  89716037.308 8  85977872.960 8  21909568.440    21909567.460
  21909566.740          49.050          48.300
 127611779.989 7  99437755.39146                  24283703.460
  24283697.700          45.100          38.150
 122316399.761 8  95311485.255 7  91340166.773 8  23276036.340    23276035.080
  23276034.420          48.650          45.600
 112615876.599 8  87752609.66248                  21430084.060
  21430077.720          49.750          48.000
 105444261.611 8  82164383.53747                  20065359.240
  20065355.240          49.750          47.250
 110230742.954 8  85894106.396 8  82315175.553 8  20976205.740    20976204.720
  20976204.580          49.600          49.550
 110886479.026 7  86245059.281 6                  20736327.240    20736328.220
  20736326.480          47.900          41.650
 130469723.266 5                                  24449968.920
                        34.500
 104649786.373 8  81394299.150 7                  19542596.440    19542597.220
  19542596.420          48.900          47.600
 123762506.621 7  96259755.365 6                  23119871.280    23119872.780
  23119871.980          45.850          41.000
 120644930.835 8  93834969.985 7                  22600857.840    22600862.340
  22600861.100          48.100          42.950
 129581500.599 7 100785628.170 5                  24249412.540    24249417.060
  24249415.320          42.400          35.300
 104993284.646 8  81661466.262 7                  19627382.280    19627385.460
  19627384.620          49.350          47.900
 107883134.826 8  83909116.446 7                  20181765.700    20181769.600
  20181769.300          48.700          42.300
 15  1 27  7  0 35.0000000  0 18G11G14G28G04G03G22G27G19G32G01R24R02
                                R08R07R22R15R23R01
 105931823.944 8  82544269.44948                  20158149.780
  20158144.220          48.700          48.050
 121028827.855 7  94308165.09946                  23031019.700
  23031015.260          47.700          40.700
 123265645.473 7  96051123.73546                  23456669.640
  23456663.880          47.250          40.200
 106416369.539 8  82921859.53747                  20250351.220
  20250346.780          50.200          47.250
 115122580.869 8  89705909.238 8  85968166.895 8  21907095.040    21907094.080
  21907093.360          49.100          48.350
 127627559.710 7  99450051.25746                  24286706.260
  24286700.460          44.950          38.500
 122333179.678 8  95324560.495 7  91352697.221 8  23279229.500    23279228.200
  23279227.560          48.650          45.500
 112627063.077 8  87761326.38348                  21432212.740
  21432206.440          49.600          48.250
 105443504.873 8  82163793.86947                  20065215.240
  20065211.240          49.700          47.650
 110224250.455 8  85889047.302 8  82310327.260 8  20974970.260    20974969.240
  20974969.120          49.650          49.450
 110872064.548 8  86233848.014 7                  20733631.660    20733632.640
  20733630.960          48.400          42.100
 130448248.429 5                                  24445944.700
                        33.500
 104657251.206 8  81400105.121 7                  19543990.440    19543991.240
  19543990.420          49.050          47.600
 123782847.607 7  96275576.117 6                  23123671.200    23123672.640
  23123671.880          46.250          40.950
 120661166.085 8  93847597.379 7                  22603899.280    22603903.720
  22603902.500          48.150          42.650
 129586897.644 7 100789825.862 5                  24250422.580    24250427.000
  24250425.280          42.300          35.750
 104995029.476 8  81662823.343 7                  19627708.480    19627711.660
  19627710.820          49.450          47.850
 107869629.602 8  83898612.374 7                  20179239.280    20179243.100
  20179242.820          48.950          42.250
 15  1 27  7  0 40.0000000  0 18G11G14G28G04G03G22G27G19G32G01R24R02
                                R08R07R22R15R23R01
 105928680.363 8  82541819.89947                  20157551.560
  20157546.020          48.600          47.950
 121031300.622 7  94310091.92946                  23031490.220
  23031485.760          47.250          40.700
 123261426.418 7  96047836.15146                  23455866.760
  23455861.000          47.300          39.100
 106418302.257 8  82923365.54747                  20250719.000
  20250714.540          50.150          47.400
 115109591.038 8  89695787.284 8  85958466.691 8  21904623.140    21904622.200
  21904621.480          49.100          48.450
 127643339.636 7  99462347.26846                  24289709.080
  24289703.300          45.750          36.550
 122349964.332 8  95337639.430 7  91365231.186 8  23282423.560    23282422.220
  23282421.620          48.600          45.550
 112638259.025 8  87770050.48248                  21434343.240
  21434336.960          49.600          48.400
 105442762.039 8  82163215.02947                  20065073.880
  20065069.880          49.650          47.900
 110217762.688 8  85883991.893 8  82305482.497 8  20973735.700    20973734.640
  20973734.560          49.700          49.600
 110857655.972 8  86222641.344 7                  20730937.220    20730938.240
  20730936.520          48.450          42.250
 130426774.386 5                                  24441920.700
                        31.500
 104664733.189 8  81405924.437 7                  19545387.640    19545388.460
  19545387.660          48.950          47.650
 123803191.272 7  96291398.951 6                  23127471.580    23127473.080
  23127472.260          46.100          41.150
 120677408.115 7  93860230.062 7                  22606942.020    22606946.400
  22606945.160          47.800          42.600
 129592311.490 6 100794036.611 6                  24251435.740    24251440.100
  24251438.420          41.650          36.200
 104996788.353 8  81664191.349 7                  19628037.280    19628040.460
  19628039.660          49.250          47.950
 107856139.374 8  83888119.979 7                  20176715.680    20176719.380
  20176719.160          48.850          42.200
 15  1 27  7  0 45.0000000  0 18G11G14G28G04G03G22G27G19G32G01R24R02
                                R08R07R22R15R23R01
 105925547.077 8  82539378.37747                  20156955.320
  20156949.780          49.250          47.350
 121033788.238 7  94312030.32246                  23031963.560
  23031959.140          47.950          39.300
 123257221.208 8  96044559.36046                  23455066.520
  23455060.740          48.000          40.000
 106420242.973 8  82924877.78747                  20251088.300
  20251083.860          50.750          46.900
 115096610.089 8  89685672.259 8  85948773.119 8  21902152.940    21902152.000
  21902151.300          49.900          48.650
 127659120.723 7  99474644.20246                  24292712.120
  24292706.340          46.700          36.050
 122366754.730 8  95350722.848 7  91377769.445 8  23285618.680    23285617.320
  23285616.760          49.000          45.750
 112649465.449 8  87778782.75647                  21436475.740
  21436469.480          50.350          47.600
 105442034.130 8  82162647.82847                  20064935.360
  20064931.380          50.150          47.200
 110211280.712 8  85878941.003 8  82300642.049 8  20972502.220    20972501.180
  20972501.100          50.250          49.700
 110843254.213 8  86211439.980 7                  20728244.040    20728245.060
  20728243.380          48.950          42.200
 130405302.506 5 101426354.37315                  24437897.500    24437900.080
                        31.100          30.100
 104672233.454 8  81411757.976 7                  19546788.260    19546789.120
  19546788.300          49.850          47.700
 123823538.793 7  96307224.789 6                  23131272.700    23131274.140
  23131273.340          47.300          41.250
 120693657.931 8  93872868.793 7                  22609986.180    22609990.520
  22609989.300          48.400          42.550
 129597743.193 7 100798261.278 6                  24252452.240    24252456.660
  24252454.840          43.950          36.450
 104998562.251 8  81665571.051 8                  19628368.900    19628372.080
  19628371.300          50.050          48.000
 107842665.146 8  83877640.031 7                  20174195.040    20174198.700
  20174198.500          49.650          42.450
 15  1 27  7  0 50.0000000  0 17G11G14G28G04G03G22G27G19G32G01R24R08
                                R07R22R15R23R01
 105922426.377 8  82536946.66347                  20156361.440
  20156355.940          49.150          47.400
 121036292.930 7  94313982.03046                  23032440.140
  23032435.720          47.900          40.350
 123253032.106 7  96041295.11546                  23454269.340
  23454263.560          47.900          38.250
 106422193.968 8  82926398.04347                  20251459.560
  20251455.100          50.650          46.900
 115083640.317 8  89675565.941 8  85939087.896 8  21899684.880    21899683.940
  21899683.240          49.900          48.600
 127674905.202 7  99486943.78246                  24295715.820
  24295710.120          46.650          36.850
 122383553.105 8  95363812.463 7  91390313.674 8  23288815.300    23288813.960
  23288813.400          48.700          45.450
 112660684.576 8  87787524.93147                  21438610.660
  21438604.420          50.300          47.700
 105441323.366 8  82162093.98147                  20064800.100
  20064796.140          50.050          47.250
 110204806.750 8  85873896.353 8  82295807.597 8  20971270.260    20971269.260
  20971269.160          50.100          49.700
 110828861.708 8  86200245.795 7                  20725552.620    20725553.660
  20725551.980          49.100          42.050
 104679754.257 8  81417607.482 7                  19548192.700    19548193.600
  19548192.780          49.600          47.700
 123843892.262 7  96323055.250 6                  23135074.940    23135076.300
  23135075.540          47.000          41.350
 120709917.910 7  93885515.423 7                  22613032.200    22613036.480
  22613035.320          47.850          42.150
 129603195.137 7 100802501.681 6                  24253472.460    24253476.980
  24253475.160          43.200          37.000
 105000353.679 8  81666964.382 8                  19628703.780    19628707.000
  19628706.220          50.000          48.000
 107829209.473 8  83867174.505 7                  20171677.880    20171681.500
  20171681.300          49.300          42.200
 15  1 27  7  0 55.0000000  0 17G11G14G28G04G03G22G27G19G32G01R24R08
                                R07R22R15R23R01
 105919315.280 8  82534522.42647                  20155769.420
  20155763.940          49.150          47.750
 121038811.752 8  94315944.74346                  23032919.420
  23032915.040          48.050          39.450
 123248856.184 7  96038041.15246                  23453474.660
  23453468.880          47.950          39.200
 106424152.347 8  82927924.04847                  20251832.220
  20251827.760          50.400          47.000
 115070678.743 8  89665466.007 8  85929408.801 8  21897218.380    21897217.400
  21897216.760          49.800          48.650
 127690690.225 7  99499243.78246                  24298719.640
  24298713.920          46.600          37.150
 122400356.533 8  95376906.031 7  91402861.671 8  23292012.860    23292011.520
  23292010.940          48.600          45.300
 112671913.547 8  87796274.77047                  21440747.440
  21440741.220          50.150          47.750
 105440626.869 8  82161551.25647                  20064667.560
  20064663.580          49.950          47.150
 110198337.875 8  85868855.665 8  82290976.939 8  20970039.280    20970038.280
  20970038.200          50.000          49.650
 110814475.414 8  86189056.461 7                  20722862.340    20722863.420
  20722861.740          48.700          42.250
 104687292.593 8  81423470.623 7                  19549600.460    19549601.320
  19549600.520          49.250          47.650
 123864248.758 7  96338888.062 6                  23138877.760    23138879.080
  23138878.320          46.750          40.850
 120726185.010 7  93898167.578 7                  22616079.540    22616083.840
  22616082.700          47.750          42.000
 129608664.295 7 100806755.442 6                  24254495.920    24254500.440
  24254498.680          42.800          37.650
 105002159.504 8  81668368.900 7                  19629041.360    19629044.580
  19629043.800          49.550          47.850
 107815769.013 8  83856720.816 7                  20169163.560    20169167.180
  20169166.960          49.100          42.450
 15  1 27  7  1  0.0000000  0 17G11G14G28G04G03G22G27G19G32G01R24R08
                                R07R22R15R23R01
 105916215.049 8  82532106.65747                  20155179.460
  20155174.000          48.950          47.350
 121041346.006 7  94317919.47846                  23033401.660
  23033397.260          47.850          39.650
 123244694.680 7  96034798.41946                  23452682.780
  23452676.960          47.850          39.400
 106426119.388 8  82929456.79747                  20252206.540
  20252202.080          50.350          46.750
 115057726.613 8  89655373.436 8  85919736.746 8  21894753.700    21894752.700
  21894752.060          49.650          48.450
 127706476.913 7  99511545.08346                  24301723.780
  24301718.080          46.000          37.950
 122417166.196 8  95390004.459 7  91415414.326 8  23295211.640    23295210.300
  23295209.720          48.350          45.600
 112683153.495 8  87805033.16147                  21442886.320
  21442880.140          50.050          47.550
 105439945.756 8  82161020.51647                  20064537.940
  20064534.000          49.850          47.050
 110191875.306 8  85863819.899 8  82286150.983 8  20968809.500    20968808.500
  20968808.440          49.800          49.450
 110800096.590 8  86177872.934 7                  20720173.440    20720174.520
  20720172.880          48.350          42.100
 104694849.719 8  81429348.382 7                  19551011.720    19551012.580
  19551011.740          49.450          47.350
 123884609.422 7  96354724.127 6                  23142681.300    23142682.620
  23142681.880          46.350          41.150
 120742460.501 7  93910826.273 7                  22619128.500    22619132.740
  22619131.680          47.850          42.100
 129614151.871 7 100811023.563 6                  24255522.780    24255527.380
  24255525.640          42.650          36.800
 105003980.872 8  81669785.509 7                  19629381.840    19629385.060
  19629384.260          49.550          47.650
 107802345.434 8  83846280.248 7                  20166652.440    20166656.040
  20166655.800          49.100          42.400
 15  1 27  7  1  5.0000000  0 17G11G14G28G04G03G22G27G19G32G01R24R08
                                R07R22R15R23R01
 105913125.442 8  82529699.16347                  20154591.520
  20154586.080          48.800          47.650
 121043895.366 7  94319905.98846                  23033886.780
  23033882.400          47.800          40.300
 123240547.308 7  96031566.69546                  23451893.580
  23451887.740          47.850          38.150
 106428094.800 8  82930996.07547                  20252582.440
  20252578.000          50.250          47.150
 115044783.826 8  89645288.152 8  85910071.689 8  21892290.760    21892289.760
  21892289.140          49.450          48.350
 127722265.011 7  99523847.47446                  24304728.200
  24304722.460          45.900          36.950
 122433981.889 8  95403107.576 7  91427971.472 8  23298411.540    23298410.260
  23298409.660          48.050          45.100
 112694404.229 8  87813799.96147                  21445027.260
  21445021.080          49.900          47.900
 105439279.885 8  82160501.65247                  20064411.220
  20064407.280          49.700          47.200
 110185418.822 8  85858788.865 8  82281329.589 8  20967580.880    20967579.880
  20967579.820          49.650          49.350
 110785724.970 8  86166694.994 6                  20717485.900    20717486.960
  20717485.340          48.000          41.800
 104702425.352 8  81435240.543 7                  19552426.420    19552427.280
  19552426.440          49.150          47.350
 123904974.076 7  96370563.280 6                  23146485.620    23146486.900
  23146486.200          45.900          41.000
 120758743.997 7  93923491.188 7                  22622178.960    22622183.160
  22622182.220          47.600          42.500
 129619657.383 6 100815305.645 6                  24256553.080    24256557.680
  24256555.940          40.750          36.650
 105005817.587 8  81671214.055 7                  19629725.200    19629728.420
  19629727.580          49.250          47.550
 107788938.208 8  83835852.393 7                  20164144.360    20164147.900
  20164147.680          49.050          42.400
 15  1 27  7  1 10.0000000  0 17G11G14G28G04G03G22G27G19G32G01R24R08
                                R07R22R15R23R01
 105910046.896 8  82527300.29147                  20154005.700
  20154000.260          48.750          47.850
 121046460.294 8  94321904.63346                  23034374.860
  23034370.440          48.200          39.450
 123236414.599 7  96028346.39346                  23451107.160
  23451101.340          47.600          39.300
 106430078.976 8  82932542.18247                  20252960.020
  20252955.600          50.150          47.250
 115031850.598 8  89635210.311 8  85900413.739 8  21889829.660    21889828.620
  21889828.040          49.300          48.350
 127738055.021 7  99536151.35146                  24307732.940
  24307727.240          45.800          38.550
 122450804.030 7  95416215.730 7  91440533.442 8  23301612.640    23301611.400
  23301610.820          47.800          45.300
 112705666.180 8  87822575.49747                  21447170.360
  21447164.180          49.950          47.450
 105438629.671 8  82159994.98247                  20064287.480
  20064283.580          49.450          47.500
 110178968.899 8  85853762.947 8  82276513.072 8  20966353.500    20966352.520
  20966352.460          49.350          49.400
 110771361.207 8  86155523.169 6                  20714799.840    20714800.860
  20714799.260          48.000          41.800
 104710019.797 8  81441147.327 7                  19553844.640    19553845.500
  19553844.620          49.400          47.500
 123925343.286 7  96386405.986 6                  23150290.780    23150292.060
  23150291.380          45.300          41.450
 120775036.090 7  93936162.784 7                  22625231.060    22625235.260
  22625234.360          47.550          42.600
 129625181.376 6 100819602.059 6                  24257586.840    24257591.480
  24257589.720          41.200          37.650
 105007670.291 8  81672655.041 7                  19630071.540    19630074.780
  19630073.900          49.100          47.850
 107775547.961 8  83825437.757 7                  20161639.440    20161642.960
  20161642.760          49.100          42.500
 15  1 27  7  1 15.0000000  0 17G11G14G28G04G03G22G27G19G32G01R24R08
                                R07R22R15R23R01
 105906978.199 8  82524909.09548                  20153421.740
  20153416.300          48.600          48.250
 121049039.528 8  94323914.42846                  23034865.720
  23034861.260          48.150          39.800
 123232295.276 7  96025136.52546                  23450323.300
  23450317.480          47.750          39.550
 106432070.739 8  82934094.19947                  20253339.040
  20253334.600          50.150          47.050
 115018925.772 8  89625139.019 8  85890762.094 8  21887370.160    21887369.100
  21887368.500          49.450          48.250
 127753845.648 7  99548455.70846                  24310737.840
  24310732.060          45.900          37.500
 122467631.384 7  95429327.927 7  91453099.310 8  23304814.740    23304813.520
  23304812.960          47.750          45.000
 112716938.097 8  87831358.79447                  21449315.360
  21449309.160          50.100          47.700
 105437993.862 8  82159499.54847                  20064166.500
  20064162.600          49.450          47.400
 110172524.237 8  85848741.123 8  82271700.501 8  20965127.120    20965126.140
  20965126.080          49.300          49.450
 110757003.774 8  86144356.270 6                  20712114.940    20712116.000
  20712114.340          48.050          41.850
 104717631.964 8  81447067.901 7                  19555266.180    19555267.000
  19555266.160          49.250          47.700
 123945715.429 7  96402250.963 6                  23154096.500    23154097.740
  23154097.100          45.400          41.950
 120791335.528 7  93948840.119 7                  22628284.500    22628288.620
  22628287.800          47.000          42.350
 129630722.758 6 100823911.995 6                  24258623.800    24258628.560
  24258626.800          40.750          38.150
 105009537.489 8  81674107.300 8                  19630420.580    19630423.840
  19630422.960          49.200          48.000
 107762173.404 8  83815035.328 7                  20159137.460    20159140.940
  20159140.760          49.050          42.450
 15  1 27  7  1 20.0000000  0 17G11G14G28G04G03G22G27G19G32G01R24R08
                                R07R22R15R23R01
 105903920.068 8  82522526.13448                  20152839.800
  20152834.380          48.450          48.000
 121051633.808 8  94325935.93846                  23035359.440
  23035354.960          48.150          40.200
 123228190.001 7  96021937.61346                  23449542.120
  23449536.300          47.950          39.600
 106434070.782 8  82935652.67047                  20253719.640
  20253715.200          50.100          47.300
 115006010.069 8  89615074.833 8  85881117.247 8  21884912.400    21884911.300
  21884910.720          49.450          48.200
 127769637.621 7  99560761.13146                  24313743.000
  24313737.280          46.000          37.600
 122484464.616 7  95442444.725 7  91465669.557 8  23308017.960    23308016.780
  23308016.220          47.900          45.000
 112728220.689 8  87840150.41747                  21451462.380
  21451456.200          50.250          47.800
 105437373.166 8  82159015.88947                  20064048.360
  20064044.500          49.550          47.750
 110166085.549 8  85843723.968 8  82266892.383 8  20963901.880    20963900.900
  20963900.860          49.300          49.450
 110742653.473 8  86133194.931 6                  20709431.400    20709432.460
  20709430.780          48.200          41.950
 104725262.469 8  81453002.732 7                  19556691.140    19556691.920
  19556691.120          49.100          47.700
 123966091.343 7  96418098.878 6                  23157902.900    23157904.140
  23157903.480          45.050          41.800
 120807642.909 7  93961523.621 6                  22631339.380    22631343.520
  22631342.720          47.000          41.950
 129636282.003 6 100828235.851 6                  24259664.180    24259668.940
  24259667.180          41.900          37.250
 105011420.171 8  81675571.612 7                  19630772.520    19630775.820
  19630774.920          49.350          47.950
 107748815.119 8  83804645.557 7                  20156638.540    20156642.020
  20156641.820          49.000          42.300
 15  1 27  7  1 25.0000000  0 17G11G14G28G04G03G22G27G19G32G01R24R08
                                R07R22R15R23R01
 105900872.305 8  82520151.25648                  20152259.820
  20152254.420          48.450          48.250
 121054242.943 8  94327969.02946                  23035855.960
  23035851.460          48.050          39.650
 123224098.672 8  96018749.55946                  23448763.620
  23448757.740          48.100          39.250
 106436078.944 8  82937217.46547                  20254101.760
  20254097.340          50.000          47.700
 114993103.353 8  89605017.649 8  85871479.112 8  21882456.340    21882455.220
  21882454.640          49.650          48.250
 127785430.752 7  99573067.45346                  24316748.340
  24316742.620          46.050          37.100
 122501303.576 8  95455565.976 7  91478244.091 8  23311222.300    23311221.160
  23311220.580          48.150          45.100
 112739513.776 8  87848950.21947                  21453611.440
  21453605.220          50.250          47.900
 105436767.392 8  82158543.85347                  20063933.080
  20063929.220          49.700          47.250
 110159652.700 8  85838711.359 8  82262088.636 8  20962677.740    20962676.780
  20962676.740          49.400          49.550
 110728310.301 7  86122039.122 6                  20706749.160    20706750.260
  20706748.560          47.900          41.850
 104732911.172 8  81458951.722 7                  19558119.480    19558120.260
  19558119.480          49.200          47.500
 123986471.230 7  96433949.873 6                  23161710.000    23161711.280
  23161710.640          44.500          41.600
 120823958.153 7  93974213.236 6                  22634395.720    22634399.840
  22634399.080          47.000          41.800
 129641859.110 6 100832573.609 6                  24260707.880    24260712.680
  24260710.840          41.250          37.550
 105013317.847 8  81677047.576 7                  19631127.260    19631130.580
  19631129.700          49.150          47.750
 107735473.127 8  83794268.454 7                  20154142.660    20154146.140
  20154145.940          48.900          42.250
 15  1 27  7  1 30.0000000  0 18G11G14G28G04G03G22G27G19G32G01R24R02
                                R08R07R22R15R23R01
 105897836.529 8  82517785.71847                  20151682.120
  20151676.760          48.600          47.750
 121056868.519 8  94330014.93746                  23036355.620
  23036351.140          48.000          39.900
 123220022.832 7  96015573.59446                  23447988.040
  23447982.140          47.900          39.350
 106438096.804 8  82938789.82647                  20254485.760
  20254481.340          50.050          47.350
 114980207.207 8  89594968.698 8  85861848.866 8  21880002.320    21880001.140
  21880000.580          49.450          48.250
 127801226.666 7  99585375.93946                  24319754.200
  24319748.420          45.700          37.700
 122518149.829 7  95468692.912 7  91490824.062 8  23314428.020    23314426.880
  23314426.320          47.850          44.950
 112750818.976 8  87857759.46147                  21455762.800
  21455756.540          50.150          47.950
 105436178.113 8  82158084.67547                  20063820.940
  20063817.100          49.650          47.600
 110153227.266 8  85833704.531 8  82257290.416 8  20961455.020    20961454.060
  20961454.040          49.600          49.550
 110713975.792 8  86110890.062 6                  20704068.540    20704069.640
  20704067.940          48.000          41.750
 130212162.055 5                                  24401702.680    24401708.640
                        34.100          29.850
 104740579.625 8  81464916.079 7                  19559551.500    19559552.280
  19559551.500          49.350          47.600
 124006856.188 7  96449804.822 6                  23165518.060    23165519.420
  23165518.760          44.950          41.550
 120840282.787 7  93986910.172 6                  22637453.900    22637457.940
  22637457.220          47.300          41.800
 129647455.567 6 100836926.437 6                  24261755.200    24261759.960
  24261758.140          41.750          37.300
 105015232.387 8  81678536.656 7                  19631485.160    19631488.480
  19631487.620          49.200          47.850
 107722148.960 8  83783905.221 7                  20151650.120    20151653.600
  20151653.400          48.850          42.750
 15  1 27  7  1 35.0000000  0 18G11G14G28G04G03G22G27G19G32G01R24R02
                                R08R07R22R15R23R01
 105894809.833 8  82515427.25247                  20151106.120
  20151100.820          48.700          47.800
 121059507.677 8  94332071.42546                  23036857.860
  23036853.360          48.050          40.000
 123215959.615 7  96012407.44146                  23447214.840
  23447208.960          47.850          39.050
 106440121.496 8  82940367.50347                  20254871.040
  20254866.620          50.000          47.200
 114967318.749 8  89584925.744 8  85852224.364 8  21877549.740    21877548.560
  21877547.980          49.600          48.150
 127817022.420 7  99597684.29846                  24322760.060
  24322754.240          45.700          37.000
 122535000.482 7  95481823.276 7  91503407.331 8  23317634.560    23317633.440
  23317632.900          47.850          44.950
 112762133.341 8  87866575.83747                  21457915.900
  21457909.600          50.250          47.950
 105435602.458 8  82157636.11047                  20063711.380
  20063707.580          49.600          47.600
 110146806.382 8  85828701.235 8  82252495.594 8  20960233.180    20960232.220
  20960232.200          49.350          49.450
 110699647.010 7  86099745.447 6                  20701389.000    20701390.080
  20701388.380          47.950          41.700
 130190713.734 6                                  24397683.940    24397687.860
                        36.950          31.500
 104748264.847 8  81470893.469 7                  19560986.640    19560987.460
  19560986.660          49.250          47.500
 124027243.373 7  96465661.512 6                  23169326.520    23169327.960
  23169327.300          44.750          41.850
 120856613.968 7  93999612.189 6                  22640513.340    22640517.280
  22640516.560          47.650          41.850
 129653068.650 6 100841292.156 6                  24262805.620    24262810.280
  24262808.560          41.200          36.800
 105017160.875 8  81680036.583 7                  19631845.700    19631848.980
  19631848.160          49.100          47.800
 107708839.793 8  83773553.634 7                  20149160.400    20149163.820
  20149163.660          48.800          42.650
 15  1 27  7  1 40.0000000  0 18G11G14G28G04G03G22G27G19G32G01R24R02
                                R08R07R22R15R23R01
 105891794.557 8  82513077.68247                  20150532.320
  20150527.040          48.700          47.600
 121062162.671 7  94334140.24146                  23037363.120
  23037358.600          47.750          40.300
 123211911.335 7  96009252.93346                  23446444.480
  23446438.580          47.700          38.900
 106442155.215 8  82941952.21247                  20255258.060
  20255253.600          50.050          47.300
 114954440.273 8  89574890.559 8  85842607.320 8  21875099.060    21875097.840
  21875097.280          49.400          48.300
 127832820.326 7  99609994.33246                  24325766.340
  24325760.520          45.300          37.500
 122551857.824 8  95494958.841 7  91515995.587 8  23320842.400    23320841.280
  23320840.780          48.000          44.700
 112773459.167 8  87875401.16047                  21460071.180
  21460064.840          50.200          47.700
 105435042.752 8  82157199.97247                  20063604.880
  20063601.080          49.650          47.450
 110140392.325 8  85823703.266 8  82247705.870 8  20959012.620    20959011.660
  20959011.640          49.400          49.350
 110685326.297 7  86088607.127 6                  20698710.940    20698712.080
  20698710.340          47.800          41.700
 130169268.562 6 101242781.979 5                  24393665.880    24393671.400
  24393671.100          37.250          32.000
 104755969.251 8  81476885.783 7                  19562425.400    19562426.220
  19562425.380          48.900          47.400
 124047635.368 7  96481521.923 6                  23173135.860    23173137.340
  23173136.740          44.900          41.550
 120872953.975 7  94012321.071 6                  22643574.420    22643578.320
  22643577.560          47.800          41.700
 129658700.409 6 100845672.430 6                  24263859.480    24263864.100
  24263862.340          40.950          36.000
 105019105.537 8  81681549.104 7                  19632209.240    19632212.560
  19632211.720          49.150          47.800
 107695547.766 8  83763215.389 7                  20146673.860    20146677.280
  20146677.100          49.150          42.600
 15  1 27  7  1 45.0000000  0 18G11G14G28G04G03G22G27G19G32G01R24R02
                                R08R07R22R15R23R01
 105888788.624 8  82510735.39447                  20149960.300
  20149955.040          48.700          47.300
 121064831.451 7  94336219.80846                  23037871.000
  23037866.420          47.900          40.400
 123207875.915 7  96006108.44946                  23445676.580
  23445670.720          47.900          39.850
 106444195.958 8  82943542.39747                  20255646.400
  20255641.940          49.950          47.200
 114941569.737 8  89564861.571 8  85832996.200 8  21872649.900    21872648.680
  21872648.100          49.600          48.100
 127848618.310 7  99622304.42346                  24328772.600
  24328766.800          45.300          37.350
 122568719.816 8  95508098.039 7  91528587.313 8  23324051.140    23324050.020
  23324049.520          48.450          44.700
 112784794.420 8  87884233.81947                  21462228.280
  21462221.880          50.000          47.950
 105434496.912 8  82156774.64247                  20063501.000
  20063497.220          49.700          47.400
 110133983.050 8  85818709.024 8  82242919.725 8  20957793.000    20957792.020
  20957791.980          49.300          49.300
 110671011.622 7  86077473.483 6                  20696034.020    20696035.120
  20696033.400          47.950          41.750
 130147824.390 6 101226103.139 5                  24389647.340    24389651.400
  24389653.240          36.950          32.600
 104763690.726 8  81482891.364 7                  19563867.320    19563868.160
  19563867.300          48.900          47.250
 124068029.738 7  96497384.183 6                  23176945.640    23176947.240
  23176946.620          44.900          41.650
 120889300.679 7  94025035.149 7                  22646636.760    22646640.640
  22646639.880          47.700          42.250
 129664348.804 6 100850065.640 6                  24264916.420    24264921.100
  24264919.220          40.850          36.200
 105021064.246 8  81683072.538 7                  19632575.420    19632578.740
  19632577.900          49.250          47.900
 107682270.913 8  83752888.941 7                  20144190.160    20144193.540
  20144193.380          49.100          42.550
 15  1 27  7  1 50.0000000  0 18G11G14G28G04G03G22G27G19G32G01R24R02
                                R08R07R22R15R23R01
 105885794.980 8  82508402.67747                  20149390.600
  20149385.380          48.950          47.750
 121067516.963 8  94338312.40946                  23038382.060
  23038377.440          48.350          39.700
 123203856.291 8  96002976.26946                  23444911.680
  23444905.820          48.450          39.050
 106446246.728 8  82945140.39347                  20256036.660
  20256032.200          50.400          46.800
 114928710.072 8  89554841.042 8  85823393.203 8  21870202.800    21870201.580
  21870200.960          49.700          48.100
 127864419.288 7  99634616.84246                  24331779.440
  24331773.620          45.550          36.200
 122585589.323 8  95521243.098 7  91541184.658 8  23327261.320    23327260.180
  23327259.700          48.700          44.650
 112796141.997 8  87893076.07047                  21464387.720
  21464381.260          50.350          47.600
 105433967.830 8  82156362.36247                  20063400.320
  20063396.540          50.050          47.050
 110127581.471 8  85813720.776 8  82238139.324 8  20956574.840    20956573.840
  20956573.800          49.800          49.300
 110656705.855 7  86066346.767 6                  20693358.740    20693359.880
  20693358.140          47.900          41.700
 130126384.279 6 101209427.476 5                  24385629.860    24385634.920
  24385635.940          38.050          33.150
 104771432.215 8  81488912.516 7                  19565313.000    19565313.860
  19565312.980          49.150          47.350
 124088429.666 7  96513250.763 6                  23180756.480    23180758.120
  23180757.560          45.100          41.550
 120905657.082 7  94037756.765 7                  22649700.840    22649704.780
  22649704.000          47.600          42.050
 129670016.911 6 100854474.127 6                  24265977.100    24265981.840
  24265979.900          40.300          36.650
 105023040.033 8  81684609.242 7                  19632944.780    19632948.100
  19632947.280          49.450          47.900
 107669012.250 8  83742576.646 7                  20141709.860    20141713.220
  20141713.060          49.100          42.100
 15  1 27  7  1 55.0000000  0 18G11G14G28G04G03G22G27G19G32G01R24R02
                                R08R07R22R15R23R01
 105882811.889 8  82506078.18147                  20148822.920
  20148817.700          48.700          47.900
 121070217.500 8  94340416.70946                  23038896.000
  23038891.320          48.300          39.650
 123199850.774 8  95999855.07946                  23444149.500
  23444143.580          48.100          38.900
 106448305.743 8  82946744.81247                  20256428.480
  20256423.980          50.150          47.150
 114915859.576 8  89544827.666 8  85813797.054 8  21867757.440    21867756.180
  21867755.560          49.600          48.100
 127880221.539 7  99646930.25845                  24334786.500
  24334780.640          45.850          35.900
 122602464.701 8  95534392.726 7  91553786.376 8  23330472.600    23330471.460
  23330470.960          48.650          44.900
 112807500.217 8  87901926.62747                  21466549.200
  21466542.660          50.300          47.900
 105433453.840 8  82155961.84447                  20063302.520
  20063298.740          49.950          47.250
 110121185.932 8  85808737.234 8  82233363.429 8  20955357.840    20955356.800
  20955356.760          49.950          49.250
 110642407.484 7  86055225.814 6                  20690684.800    20690686.040
  20690684.200          47.600          41.150
 130104946.530 6 101192753.632 5                  24381612.340    24381616.500
  24381617.580          36.650          32.700
 104779192.040 8  81494947.929 7                  19566762.100    19566762.940
  19566762.100          49.200          47.550
 124108833.245 7  96529120.195 6                  23184568.040    23184569.740
  23184569.160          45.350          41.100
 120922021.389 7  94050484.532 6                  22652766.460    22652770.400
  22652769.620          47.600          41.950
 129675702.874 6 100858896.567 6                  24267041.140    24267045.820
  24267044.000          41.200          36.250
 105025031.263 8  81686157.969 7                  19633317.000    19633320.360
  19633319.520          49.350          47.750
 107655770.205 8  83732277.279 7                  20139232.640    20139235.980
  20139235.840          49.100          42.050
 15  1 27  7  2  0.0000000  0 18G11G14G28G04G03G22G27G19G32G01R24R02
                                R08R07R22R15R23R01
 105879838.889 8  82503761.55647                  20148257.200
  20148251.940          48.700          47.800
 121072932.527 8  94342532.31646                  23039412.680
  23039408.020          48.350          39.650
 123195858.852 8  95996744.49246                  23443389.880
  23443383.900          48.150          39.250
 106450372.525 8  82948355.28647                  20256821.800
  20256817.280          50.150          47.200
 114903017.749 8  89534821.042 8  85804207.369 8  21865313.740    21865312.480
  21865311.820          49.550          48.050
 127896024.566 7  99659244.27746                  24337793.740
  24337787.800          46.150          37.650
 122619345.388 8  95547546.496 7  91566392.066 8  23333684.880    23333683.780
  23333683.260          48.600          45.300
 112818868.551 8  87910785.06347                  21468712.560
  21468705.980          50.450          47.750
 105432954.422 8  82155572.68947                  20063207.480
  20063203.700          49.900          47.350
 110114795.867 8  85803757.954 8  82228591.613 8  20954141.880    20954140.820
  20954140.760          49.900          49.300
 110628115.949 7  86044110.165 6                  20688012.200    20688013.460
  20688011.560          47.900          41.200
 130083510.667 6 101176081.283 5                  24377595.300    24377600.280
  24377599.900          37.150          32.700
 104786969.487 8  81500997.047 7                  19568214.500    19568215.340
  19568214.520          49.150          47.600
 124129240.111 7  96544992.187 6                  23188380.180    23188381.920
  23188381.400          45.650          41.150
 120938393.214 7  94063218.157 7                  22655833.460    22655837.440
  22655836.620          47.350          42.250
 129681406.164 6 100863332.439 5                  24268108.420    24268113.120
  24268111.320          38.850          35.200
 105027037.429 8  81687718.316 7                  19633692.040    19633695.380
  19633694.540          49.300          47.600
 107642544.017 8  83721990.248 6                  20136758.380    20136761.760
  20136761.620          48.850          41.950
 15  1 27  7  2  5.0000000  0 18G11G14G28G04G03G22G27G19G32G01R24R02
                                R08R07R22R15R23R01
 105876876.539 8  82501453.23147                  20147693.460
  20147688.240          48.750          47.850
 121075662.673 8  94344659.70746                  23039932.260
  23039927.560          48.300          39.700
 123191881.137 8  95993644.96646                  23442632.960
  23442626.960          48.050          38.750
 106452447.688 8  82949972.30047                  20257216.700
  20257212.160          50.100          46.950
 114890185.209 8  89524821.660 7  85794624.619 8  21862871.780    21862870.500
  21862869.840          49.550          47.950
 127911828.957 7  99671559.39245                  24340801.240
  24340795.220          46.300          35.800
 122636232.016 8  95560704.881 7  91579002.187 8  23336898.300    23336897.220
  23336896.740          48.750          45.450
 112830247.597 8  87919651.85447                  21470877.980
  21470871.340          50.400          47.850
 105432470.210 8  82155195.38347                  20063115.360
  20063111.560          49.900          47.200
 110108411.927 8  85798783.459 8  82223824.386 8  20952927.100    20952926.000
  20952925.940          49.950          49.350
 110613831.813 8  86033000.282 6                  20685341.000    20685342.200
  20685340.300          48.000          41.350
 130062077.287 6 101159410.850 5                  24373578.660    24373583.040
  24373582.740          38.000          33.400
 104794765.246 8  81507060.419 7                  19569670.320    19569671.120
  19569670.340          49.050          47.550
 124149650.686 7  96560867.066 6                  23192193.040    23192194.860
  23192194.340          45.300          40.650
 120954773.123 7  94075958.074 7                  22658902.020    22658905.980
  22658905.120          47.650          42.200
 129687127.516 6 100867782.400 5                  24269179.100    24269183.780
  24269181.980          40.950          35.700
 105029059.067 8  81689290.707 7                  19634069.940    19634073.340
  19634072.460          49.300          47.750
 107629334.392 8  83711716.102 7                  20134287.240    20134290.640
  20134290.460          48.700          42.000
 15  1 27  7  2 10.0000000  0 18G11G14G28G04G03G22G27G19G32G01R24R02
                                R08R07R22R15R23R01
 105873926.099 8  82499154.18147                  20147132.000
  20147126.780          48.700          47.600
 121078409.115 8  94346799.79146                  23040454.960
  23040450.200          48.300          40.050
 123187918.840 8  95990557.45246                  23441878.940
  23441872.960          48.000          38.750
 106454532.387 8  82951596.73147                  20257613.400
  20257608.840          50.150          47.100
 114877363.125 8  89514830.414 7  85785049.684 8  21860431.840    21860430.560
  21860429.860          49.700          47.900
 127927635.927 7  99683876.48346                  24343809.220
  24343803.140          45.600          36.200
 122653125.725 8  95573868.788 7  91591617.590 8  23340113.120    23340112.080
