     2.11           OBSERVATION DATA    M (MIXED)           RINEX VERSION / TYPE
teqc  2011Oct11     IGN-E (SPG)         20150127 04:00:51UTCPGM / RUN BY / DATE
Linux 2.4.21-27.ELsmp|Opteron|gcc -static|Linux x86_64|=+   COMMENT
BIT 2 OF LLI FLAGS DATA COLLECTED UNDER A/S CONDITION       COMMENT
VALE                                                        MARKER NAME
13439M001                                                   MARKER NUMBER
Programas GeodesicosInstituto Geografico Nacional           OBSERVER / AGENCY
1700071             LEICA GR10          3.03/6.214          REC # / TYPE / VERS
10190012            LEIAR25.R3      LEIT                    ANT # / TYPE
  4929534.0457   -29050.6755  4033709.9250                  APPROX POSITION XYZ
        3.0390        0.0000        0.0000                  ANTENNA: DELTA H/E/N
     1     1                                                WAVELENGTH FACT L1/2
     8    L1    L2    L5    C1    C2    P2    S1    S2      # / TYPES OF OBSERV
     5.0000                                                 INTERVAL
Forced Modulo Decimation to 5 seconds                       COMMENT
DefaultJobName                                              COMMENT
DefaultUserDiscription                                      COMMENT
Project creator:                                            COMMENT
 SNR is mapped to RINEX snr flag value [0-9]                COMMENT
  L1 & L2: min(max(int(snr_dBHz/6), 0), 9)                  COMMENT
  2015     1    27     3     0    0.0000000     GPS         TIME OF FIRST OBS
    15                                                      LEAP SECONDS
                                                            END OF HEADER
 15  1 27  3  0  0.0000000  0 24G31G08G21G07G04G16G18G22G27G19R11R05
                                R21R10R07R22R12R06R13R20E12E19E18E11
 131976970.520 7 102839200.183 6                  25114382.960    25114380.120
  25114379.360          43.150          37.150
 118904864.998 7  92653119.52446                  22626843.480
  22626840.020          47.900          41.100
 116814012.164 8  91023963.37947                  22228936.740
  22228931.160          49.250          43.250
 130710867.585 7 101852590.099 6                  24873450.900    24873446.980
  24873446.600          43.750          38.600
 134255282.056 7 104614506.87045                  25547927.960
  25547927.740          42.000          32.100
 107504022.478 8  83769369.32648                  20457332.920
  20457327.560          49.300          48.600
 116594934.242 8  90853189.74747                  22187269.960
  22187264.280          50.100          43.350
 119398569.621 8  93037854.18347                  22720779.540
  22720772.440          49.800          42.650
 112134855.693 8  87377819.931 8  83737072.213 8  21338548.860    21338546.360
  21338545.820          50.250          49.400
 122097487.220 7  95140876.54747                  23234375.160
  23234369.060          46.650          42.250
 110948694.448 7  86293441.193 6                  20762535.180    20762539.400
  20762537.520          46.800          41.750
 121036375.450 7  94139423.265 7                  22642354.320    22642356.980
  22642356.580          47.550          42.050
 108294445.618 8  84229063.969 7                  20237385.920    20237387.500
  20237386.680          48.300          46.550
 129408231.404 6 100650870.176 5                  24276657.900    24276666.060
  24276664.640          40.250          33.800
 128276391.582 7  99770553.459 6                  23963103.400    23963105.920
  23963105.040          44.000          36.750
 109651466.952 8  85284504.874 7                  20541406.560    20541409.100
  20541407.980          49.050          46.550
 109856530.922 7  85443983.379 7                  20565371.640    20565375.100
  20565374.500          44.150          43.550
 116967087.255 8  90974389.426 6                  21919579.240    21919581.520
  21919581.100          48.250          41.650
 129640227.904 6 100831292.612 6                  24277447.880    24277450.460
  24277448.540          39.650          37.150
 124840615.338 6  97098273.354 6                  23345824.020    23345828.820
  23345826.880          40.200          40.850
 144933807.367 7                 108229919.333 7  27579937.220
                        46.050
 147101068.863 7                 109848210.453 6  27992401.060
                        44.800
 136548988.689 8                 101968436.514 8  25984404.700
                        50.800
 126396553.949 8                  94387145.711 8  24052410.760
                        51.300
 15  1 27  3  0  5.0000000  0 24G31G08G21G07G04G16G18G22G27G19R11R05
                                R21R10R07R22R12R06R13R20E12E19E18E11
 131993603.451 7 102852160.836 6                  25117548.180    25117545.320
  25117544.580          43.500          37.550
 118920745.631 7  92665494.05246                  22629865.420
  22629862.040          47.450          40.850
 116824347.820 8  91032017.14547                  22230903.580
  22230898.000          48.900          43.600
 130700097.325 7 101844197.694 6                  24871401.400    24871397.500
  24871397.120          43.650          38.350
 134236892.191 7 104600177.17645                  25544428.420
  25544428.540          42.800          33.850
 107500895.086 8  83766932.39548                  20456737.800
  20456732.420          49.300          48.750
 116590159.306 8  90849469.01847                  22186361.320
  22186355.660          50.150          43.250
 119384602.186 8  93026970.46347                  22718121.600
  22718114.520          49.550          42.800
 112126711.970 8  87371474.177 8  83730990.865 8  21336999.160    21336996.660
  21336996.120          50.300          49.550
 122084636.094 7  95130862.68947                  23231929.640
  23231923.600          46.350          42.400
 110964540.361 7  86305765.792 6                  20765500.540    20765504.740
  20765502.860          47.100          41.750
 121041287.416 7  94143243.680 6                  22643273.220    22643275.900
  22643275.440          47.350          41.800
 108301201.976 8  84234318.916 7                  20238648.500    20238650.100
  20238649.300          48.500          46.550
 129431355.531 6 100668855.488 5                  24280996.060    24281004.020
  24281002.800          39.850          33.300
 128255983.169 7  99754680.222 6                  23959290.900    23959293.340
  23959292.480          43.100          37.350
 109644779.170 8  85279303.270 7                  20540153.700    20540156.280
  20540155.160          49.150          46.550
 109851163.183 7  85439808.467 7                  20564366.780    20564370.280
  20564369.640          44.150          43.350
 116954300.801 7  90964444.398 6                  21917183.040    21917185.360
  21917184.920          47.850          41.700
 129620809.846 6 100816189.657 6                  24273811.500    24273814.160
  24273812.160          39.450          37.100
 124855082.667 6  97109525.700 6                  23348529.440    23348534.360
  23348532.360          40.600          40.900
 144944574.031 7                 108237959.355 7  27581986.040
                        46.050
 147105196.580 7                 109851292.848 6  27993186.580
                        44.700
 136572863.440 8                 101986265.061 8  25988947.960
                        50.400
 126402458.047 8                  94391554.614 8  24053534.300
                        51.200
 15  1 27  3  0 10.0000000  0 24G31G08G21G07G04G16G18G22G27G19R11R05
                                R21R10R07R22R12R06R13R20E12E19E18E11
 132010232.493 7 102865118.470 6                  25120712.620    25120709.720
  25120708.960          44.200          37.250
 118936633.345 7  92677874.07746                  22632888.700
  22632885.380          47.150          41.600
 116834688.742 8  91040075.00447                  22232871.360
  22232865.760          48.250          43.850
 130689338.585 7 101835814.259 6                  24869354.060    24869350.200
  24869349.820          44.400          37.250
 134218503.371 6 104585848.32044                  25540929.100
  25540929.040          41.850          28.550
 107497780.642 8  83764505.55148                  20456145.160
  20456139.760          49.250          48.150
 116585396.360 8  90845757.62847                  22185454.960
  22185449.340          50.050          43.400
 119370640.487 8  93016091.21947                  22715464.720
  22715457.700          49.300          43.000
 112118572.739 8  87365131.918 8  83724912.873 8  21335450.300    21335447.820
  21335447.260          50.200          49.400
 122071787.774 7  95120851.02147                  23229484.640
  23229478.640          46.450          42.250
 110980401.060 7  86318101.893 7                  20768468.660    20768472.860
  20768470.960          47.550          42.200
 121046219.389 7  94147079.652 6                  22644195.880    22644198.520
  22644198.060          46.900          41.650
 108307963.378 8  84239577.780 7                  20239912.000    20239913.640
  20239912.860          48.750          46.450
 129454477.002 6 100686838.751 5                  24285333.720    24285341.820
  24285340.480          39.300          33.200
 128235572.671 7  99738805.403 6                  23955478.040    23955480.500
  23955479.500          43.100          38.500
 109638097.825 8  85274106.673 7                  20538902.000    20538904.680
  20538903.540          49.050          46.400
 109845817.636 7  85435650.826 7                  20563366.040    20563369.560
  20563368.960          44.600          43.200
 116941528.522 8  90954510.414 7                  21914789.480    21914791.920
  21914791.420          48.150          42.000
 129601399.883 6 100801093.036 6                  24270176.560    24270179.360
  24270177.300          39.750          36.600
 124869548.828 6  97120777.165 6                  23351234.720    23351239.580
  23351237.620          41.000          41.100
 144955339.494 7                 108245998.486 7  27584034.620
                        46.050
 147109334.621 7                 109854382.949 6  27993974.060
                        44.900
 136596731.290 8                 102004088.456 8  25993489.860
                        50.400
 126408364.103 8                  94395964.986 8  24054658.200
                        51.150
 15  1 27  3  0 15.0000000  0 24G31G08G21G07G04G16G18G22G27G19R11R05
                                R21R10R07R22R12R06R13R20E12E19E18E11
 132026858.976 7 102878074.144 6                  25123876.580    25123873.580
  25123872.920          43.350          37.250
 118952529.457 7  92690260.65346                  22635913.560
  22635910.340          47.100          41.250
 116845036.256 7  91048137.99847                  22234840.360
  22234834.800          47.600          44.400
 130678592.779 7 101827440.901 6                  24867309.220    24867305.340
  24867304.860          44.150          36.700
 134200116.943 7 104571521.32144                  25537430.240
  25537429.960          42.500          27.700
 107494680.602 8  83762089.93748                  20455555.240
  20455549.840          49.050          48.350
 116580646.767 8  90842056.66147                  22184551.120
  22184545.540          49.950          42.850
 119356685.887 8  93005217.51147                  22712809.180
  22712802.240          48.800          43.250
 112110439.403 8  87358794.253 8  83718839.275 8  21333902.560    21333900.080
  21333899.540          50.200          49.300
 122058943.613 7  95110842.58447                  23227040.440
  23227034.480          46.350          42.700
 110996277.797 7  86330450.460 6                  20771439.780    20771443.980
  20771442.080          47.550          41.750
 121051172.744 7  94150932.266 6                  22645122.560    22645125.120
  22645124.700          46.600          41.400
 108314731.177 8  84244841.630 7                  20241176.740    20241178.360
  20241177.620          48.650          46.100
 129477597.337 6 100704821.115 5                  24289671.140    24289679.200
  24289677.960          38.150          32.750
 128215161.316 7  99722929.920 6                  23951665.060    23951667.500
  23951666.400          43.700          38.750
 109631424.514 8  85268916.324 7                  20537651.860    20537654.560
  20537653.420          49.100          46.300
 109840495.508 7  85431511.385 7                  20562369.680    20562373.200
  20562372.640          44.500          43.300
 116928771.817 8  90944588.540 6                  21912398.860    21912401.200
  21912400.840          48.050          41.900
 129581999.596 6 100786003.934 5                  24266543.420    24266546.380
  24266544.260          39.250          35.200
 124884015.074 6  97132028.681 6                  23353939.960    23353944.840
  23353942.880          40.600          40.400
 144966105.135 7                 108254037.762 7  27586083.200
                        45.800
 147113484.349 7                 109857481.772 6  27994763.800
                        44.700
 136620593.600 8                 102021907.692 8  25998030.700
                        50.100
 126414273.474 8                  94400377.820 8  24055782.720
                        51.050
 15  1 27  3  0 20.0000000  0 24G31G08G21G07G04G16G18G22G27G19R11R05
                                R21R10R07R22R12R06R13R20E12E19E18E11
 132043483.149 7 102891028.021 6                  25127040.100    25127037.000
  25127036.360          44.000          37.900
 118968434.169 7  92702653.93746                  22638940.080
  22638936.920          47.150          41.750
 116855390.539 7  91056206.26047                  22236810.600
  22236805.100          47.250          44.400
 130667860.112 7 101819077.783 6                  24865266.940    24865262.920
  24865262.420          44.350          36.850
 134181733.134 7 104557196.37844                  25533931.900
  25533931.320          43.100          27.950
 107491595.134 8  83759685.67548                  20454968.100
  20454962.680          48.950          48.500
 116575910.763 8  90838366.27447                  22183649.860
  22183644.320          50.000          42.700
 119342738.610 8  92994349.51647                  22710155.020
  22710148.160          48.750          43.100
 112102312.125 8  87352461.309 8  83712770.210 8  21332356.000    21332353.540
  21332352.960          50.350          49.300
 122046103.832 7  95100837.56346                  23224597.100
  23224591.140          46.850          41.800
 111012170.793 7  86342811.681 6                  20774413.980    20774418.180
  20774416.280          47.700          41.950
 121056147.762 7  94154801.710 6                  22646053.260    22646055.760
  22646055.400          46.800          41.800
 108321505.561 8  84250110.599 7                  20242442.680    20242444.320
  20242443.600          48.750          46.250
 129500716.766 6 100722802.771 5                  24294008.320    24294016.540
  24294015.240          38.300          34.000
 128194749.416 7  99707054.001 6                  23947851.960    23947854.480
  23947853.320          43.400          38.950
 109624759.235 8  85263732.218 7                  20536403.220    20536405.960
  20536404.800          49.200          46.400
 109835197.213 7  85427390.488 7                  20561377.760    20561381.380
  20561380.820          44.200          43.650
 116916030.868 8  90934678.917 7                  21910011.200    21910013.600
  21910013.220          48.600          42.100
 129562609.268 6 100770922.570 5                  24262912.180    24262915.280
  24262913.040          39.700          35.750
 124898481.690 6  97143280.491 6                  23356645.320    23356650.200
  23356648.180          40.000          40.100
 144976871.198 7                 108262077.367 7  27588131.900
                        46.150
 147117645.951 7                 109860589.473 6  27995555.740
                        44.700
 136644450.549 8                 102039722.956 8  26002570.540
                        50.200
 126420186.366 8                  94404793.299 8  24056907.900
                        51.100
 15  1 27  3  0 25.0000000  0 24G31G08G21G07G04G16G18G22G27G19R11R05
                                R21R10R07R22R12R06R13R20E12E19E18E11
 132060101.726 7 102903977.492 6                  25130202.520    25130199.500
  25130198.860          44.050          38.100
 118984344.169 7  92715051.33646                  22641967.620
  22641964.500          47.450          40.850
 116865748.340 7  91064277.25647                  22238781.480
  22238776.080          47.400          44.350
 130657137.310 7 101810722.342 6                  24863226.580    24863222.440
  24863221.960          44.550          37.200
 134163348.610 7 104542870.84945                  25530433.440
  25530432.740          43.200          32.200
 107488520.938 8  83757290.19848                  20454383.120
  20454377.660          48.900          48.450
 116571185.084 8  90834683.92847                  22182750.560
  22182745.040          49.900          42.900
 119328795.404 8  92983484.69447                  22707501.640
  22707494.860          49.100          43.200
 112094187.646 8  87346130.544 8  83706703.229 8  21330809.960    21330807.480
  21330806.920          50.300          49.250
 122033265.142 7  95090833.38846                  23222153.980
  23222148.000          46.950          41.200
 111028076.724 7  86355182.952 7                  20777390.600    20777394.780
  20777392.900          47.600          42.050
 121061141.038 7  94158685.373 7                  22646987.360    22646989.880
  22646989.520          47.500          42.250
 108328283.182 8  84255382.080 7                  20243709.220    20243710.880
  20243710.180          48.750          46.250
 129523831.853 6 100740781.018 5                  24298344.660    24298352.860
  24298351.760          38.700          33.450
 128174333.760 7  99691175.170 6                  23944038.200    23944040.780
  23944039.500          43.050          38.400
 109618098.791 8  85258551.877 7                  20535155.500    20535158.220
  20535157.100          49.200          46.550
 109829919.270 7  85423285.428 7                  20560389.740    20560393.320
  20560392.780          44.550          43.450
 116903302.378 8  90924778.989 7                  21907625.840    21907628.280
  21907627.960          48.800          42.100
 129543225.449 6 100755846.261 6                  24259282.200    24259285.480
  24259283.120          39.000          36.200
 124912945.211 6  97154529.899 6                  23359350.080    23359354.980
  23359352.940          39.550          40.750
 144987634.362 7                 108270114.787 7  27590180.120
                        46.300
 147121816.174 7                 109863703.632 6  27996349.340
                        44.950
 136668298.875 8                 102057531.763 8  26007108.740
                        50.400
 126426099.498 8                  94409208.944 8  24058033.120
                        51.100
 15  1 27  3  0 30.0000000  0 24G31G08G21G07G04G16G18G22G27G19R11R05
                                R21R10R07R22R12R06R13R20E12E19E18E11
 132076718.329 7 102916925.431 6                  25133364.580    25133361.540
  25133360.880          43.900          37.750
 119000263.099 7  92727455.69146                  22644996.860
  22644993.740          47.450          41.400
 116876113.270 8  91072353.81647                  22240753.800
  22240748.420          48.100          43.750
 130646428.062 7 101802377.470 6                  24861188.740    24861184.500
  24861184.060          44.500          36.800
 134144967.127 7 104528547.69745                  25526935.520
  25526934.680          43.600          31.400
 107485461.709 8  83754906.38448                  20453800.940
  20453795.500          48.850          48.600
 116566473.377 8  90831012.47747                  22181853.900
  22181848.400          49.800          42.950
 119314859.925 8  92972625.87747                  22704849.720
  22704843.020          49.200          42.600
 112086069.604 8  87339804.808 8  83700641.059 8  21329265.140    21329262.680
  21329262.100          50.200          49.250
 122020431.169 7  95080832.89647                  23219711.720
  23219705.820          46.800          42.650
 111043999.147 7  86367567.062 7                  20780370.300    20780374.460
  20780372.580          47.350          42.100
 121066156.314 7  94162586.145 7                  22647925.540    22647928.080
  22647927.740          47.050          42.100
 108335067.818 8  84260659.020 7                  20244977.080    20244978.740
  20244978.040          48.600          46.250
 129546946.204 6 100758758.723 5                  24302680.920    24302689.080
  24302688.060          39.200          34.000
 128153917.957 7  99675296.227 6                  23940224.440    23940226.880
  23940225.620          44.100          38.050
 109611446.768 8  85253378.086 7                  20533909.340    20533912.060
  20533911.000          49.050          46.750
 109824665.523 7  85419199.178 7                  20559406.200    20559409.840
  20559409.260          44.250          43.450
 116890590.158 8  90914891.711 7                  21905243.580    21905245.940
  21905245.700          48.900          42.100
 129523851.865 6 100740777.905 6                  24255654.120    24255657.480
  24255655.060          38.600          36.700
 124927409.557 6  97165779.912 6                  23362054.900    23362059.920
  23362057.840          40.600          40.650
 144998398.269 7                 108278152.756 7  27592228.500
                        46.250
 147125998.638 7                 109866826.881 6  27997145.260
                        45.300
 136692142.208 8                 102075336.847 8  26011645.980
                        50.600
 126432016.497 8                  94413627.480 8  24059159.080
                        51.100
 15  1 27  3  0 35.0000000  0 24G31G08G21G07G04G16G18G22G27G19R11R05
                                R21R10R07R22R12R06R13R20E12E19E18E11
 132093332.497 7 102929871.489 6                  25136526.200    25136523.100
  25136522.340          44.200          37.350
 119016190.491 7  92739866.63746                  22648027.740
  22648024.600          47.600          41.050
 116886484.876 8  91080435.58547                  22242727.460
  22242722.040          48.850          43.650
 130635731.879 7 101794042.781 6                  24859153.360    24859149.140
  24859148.460          44.600          36.850
 134126588.187 7 104514226.52745                  25523438.060
  25523437.280          43.900          30.700
 107482417.007 8  83752533.88548                  20453221.540
  20453216.080          48.800          48.450
 116561775.230 8  90827351.57747                  22180959.840
  22180954.380          49.800          43.150
 119300931.700 8  92961772.71147                  22702199.200
  22702192.580          49.100          42.850
 112077957.564 8  87333483.735 8  83694583.366 8  21327721.440    21327719.000
  21327718.420          50.150          49.250
 122007601.467 7  95070835.72646                  23217270.340
  23217264.400          46.950          41.650
 111059937.591 7  86379963.619 7                  20783352.980    20783357.140
  20783355.260          47.650          42.250
 121071193.161 7  94166503.691 7                  22648867.760    22648870.320
  22648869.980          47.150          42.800
 108341858.916 8  84265940.981 7                  20246246.140    20246247.840
  20246247.120          48.550          46.300
 129570059.407 6 100776735.534 5                  24307016.980    24307025.300
  24307024.140          39.100          33.900
 128133501.587 7  99659416.822 6                  23936410.520    23936412.960
  23936411.640          44.300          38.400
 109604802.828 8  85248210.568 7                  20532664.680    20532667.440
  20532666.400          48.950          46.700
 109819435.386 7  85415131.306 7                  20558427.060    20558430.780
  20558430.180          44.950          43.650
 116877893.677 8  90905016.662 7                  21902864.220    21902866.580
  21902866.400          48.650          42.250
 129504488.215 6 100725717.266 6                  24252027.820    24252031.360
  24252028.900          39.050          36.600
 124941874.100 6  97177030.116 6                  23364759.840    23364764.880
  23364762.760          40.200          39.650
 145009162.489 7                 108286190.961 7  27594276.900
                        46.050
 147130192.874 7                 109869958.934 6  27997943.360
                        45.450
 136715980.095 8                 102093137.867 8  26016182.180
                        50.550
 126437936.938 8                  94418048.587 8  24060285.720
                        51.100
 15  1 27  3  0 40.0000000  0 24G31G08G21G07G04G16G18G22G27G19R11R05
                                R21R10R07R22R12R06R13R20E12E19E18E11
 132109943.112 7 102942814.790 6                  25139687.140    25139684.060
  25139683.280          44.550          37.250
 119032125.238 7  92752283.31746                  22651060.020
  22651056.840          47.650          41.450
 116896862.049 8  91088521.70047                  22244702.220
  22244696.740          49.200          42.900
 130625047.635 7 101785717.390 6                  24857120.240    24857115.940
  24857115.300          44.350          36.950
 134108210.737 7 104499906.48745                  25519940.900
  25519940.100          44.600          33.300
 107479385.711 8  83750171.83648                  20452644.700
  20452639.240          48.950          48.400
 116557089.473 8  90823700.33047                  22180068.120
  22180062.680          49.800          43.100
 119287009.663 8  92950924.36647                  22699549.880
  22699543.280          49.000          42.850
 112069850.405 8  87327166.466 8  83688529.311 8  21326178.660    21326176.260
  21326175.660          50.150          49.100
 121994774.929 7  95060841.01946                  23214829.540
  23214823.580          46.900          41.100
 111075891.105 7  86392371.899 6                  20786338.500    20786342.680
  20786340.760          47.450          41.900
 121076250.327 7  94170437.044 7                  22649813.800    22649816.360
  22649816.060          47.300          42.450
 108348655.376 8  84271227.112 7                  20247516.200    20247517.920
  20247517.160          48.750          46.300
 129593170.451 6 100794710.672 5                  24311352.580    24311360.880
  24311359.860          38.150          33.950
 128113083.571 7  99643536.140 6                  23932596.320    23932598.640
  23932597.320          44.050          38.050
 109598165.778 8  85243048.414 7                  20531421.300    20531424.080
  20531423.080          49.050          46.600
 109814227.849 7  85411080.987 7                  20557452.240    20557455.920
  20557455.340          44.950          43.600
 116865211.874 8  90895153.051 6                  21900487.620    21900490.000
  21900489.860          48.600          41.950
 129485133.280 6 100710663.413 6                  24248403.320    24248406.700
  24248404.340          39.750          36.550
 124956337.763 6  97188279.630 6                  23367464.600    23367469.660
  23367467.540          39.150          40.550
 145019925.895 7                 108294228.565 7  27596325.120
                        46.300
 147134397.819 7                 109873098.973 6  27998743.520
                        44.950
 136739811.444 8                 102110933.987 8  26020717.100
                        50.250
 126443859.694 8                  94422471.418 8  24061412.780
                        51.100
 15  1 27  3  0 45.0000000  0 24G31G08G21G07G04G16G18G22G27G19R11R05
                                R21R10R07R22R12R06R13R20E12E19E18E11
 132126550.627 7 102955755.654 6                  25142847.480    25142844.440
  25142843.600          44.600          37.250
 119048067.817 7  92764706.10646                  22654093.800
  22654090.620          47.650          41.550
 116907245.272 8  91096612.53347                  22246678.180
  22246672.580          49.300          43.250
 130614375.857 7 101777401.715 6                  24855089.440    24855085.040
  24855084.320          44.050          36.300
 134089835.236 7 104485587.98045                  25516444.100
  25516443.360          44.550          31.900
 107476368.346 8  83747820.64348                  20452070.500
  20452065.040          48.950          48.300
 116552416.640 8  90820059.17647                  22179178.860
  22179173.460          49.750          43.000
 119273094.322 8  92940081.25147                  22696901.820
  22696895.260          48.800          42.850
 112061748.659 8  87320853.417 8  83682479.304 8  21324636.920    21324634.560
  21324633.940          50.150          49.150
 121981952.075 7  95050849.18047                  23212389.440
  23212383.440          46.800          42.100
 111091860.157 7  86404792.261 6                  20789326.900    20789331.040
  20789329.160          47.850          41.650
 121081328.448 8  94174386.700 7                  22650763.740    22650766.300
  22650766.020          48.000          42.750
 108355457.720 8  84276517.824 7                  20248787.340    20248789.060
  20248788.300          48.750          46.200
 129616279.663 6 100812684.367 5                  24315687.820    24315696.080
  24315695.200          37.750          33.950
 128092664.452 7  99627654.597 6                  23928781.860    23928784.200
  23928782.820          43.400          39.050
 109591536.069 8  85237891.986 7                  20530179.300    20530182.120
  20530181.120          49.100          46.600
 109809043.390 7  85407048.628 7                  20556481.660    20556485.400
  20556484.820          44.900          43.600
 116852545.382 8  90885301.342 6                  21898113.880    21898116.240
  21898116.160          48.500          41.700
 129465787.455 6 100695616.641 6                  24244780.460    24244783.940
  24244781.500          41.050          36.750
 124970801.074 6  97199528.849 6                  23370169.320    23370174.280
  23370172.200          40.700          39.650
 145030689.020 7                 108302265.940 7  27598373.260
                        46.300
 147138613.926 7                 109876247.377 6  27999545.820
                        45.250
 136763636.727 8                 102128725.594 8  26025250.860
                        50.200
 126449785.264 8                  94426896.365 8  24062540.400
                        50.950
 15  1 27  3  0 50.0000000  0 25G31G08G21G07G04G16G18G22G27G19R11R05
                                R21R10R07R22R12R06R13R23R20E12E19E18
                                E11
 132143154.737 7 102968693.862 6                  25146007.180    25146004.200
  25146003.320          44.300          37.100
 119064017.896 7  92777134.74546                  22657129.000
  22657125.760          47.700          40.600
 116917634.214 8  91104707.82347                  22248655.240
  22248649.560          49.600          43.300
 130603716.225 7 101769095.496 5                  24853060.940    24853056.400
  24853055.760          43.600          35.800
 134071461.362 7 104471270.77245                  25512947.620
  25512947.000          44.100          34.350
 107473364.554 8  83745480.03048                  20451498.920
  20451493.420          48.950          48.250
 116547756.393 8  90816427.81447                  22178292.000
  22178286.620          49.800          42.600
 119259185.354 8  92929243.09947                  22694255.000
  22694248.440          49.100          42.950
 112053651.968 8  87314544.310 8  83676433.082 8  21323096.140    21323093.820
  21323093.200          50.200          49.100
 121969132.561 7  95040859.95846                  23209950.000
  23209943.920          47.000          41.600
 111107844.223 7  86417224.314 6                  20792318.100    20792322.200
  20792320.360          47.550          41.600
 121086427.117 7  94178352.348 7                  22651717.560    22651720.080
  22651719.840          47.400          42.350
 108362265.607 8  84281812.847 7                  20250059.560    20250061.260
  20250060.480          48.750          46.000
 129639386.696 6 100830656.369 5                  24320022.720    24320031.040
  24320030.140          37.600          33.500
 128072243.673 7  99611771.805 6                  23924967.060    23924969.480
  23924968.060          42.900          39.550
 109584913.515 8  85232741.117 7                  20528938.640    20528941.500
  20528940.520          49.050          46.500
 109803881.704 7  85403033.992 7                  20555515.420    20555519.140
  20555518.560          44.900          43.500
 116839893.803 8  90875461.229 6                  21895742.960    21895745.360
  21895745.260          48.250          41.900
 129446450.583 6 100680576.837 6                  24241159.340    24241162.840
  24241160.360          40.800          36.350
 132622623.521 6                                  24792400.180
                        39.400
 124985263.649 6  97210777.529 6                  23372873.860    23372878.840
  23372876.780          39.250          39.850
 145041451.498 7                 108310302.853 7  27600421.320
                        46.600
 147142840.890 7                 109879403.905 6  28000350.200
                        44.850
 136787455.627 8                 102146512.429 8  26029783.420
                        50.250
 126455713.320 8                  94431323.160 8  24063668.480
                        51.000
 15  1 27  3  0 55.0000000  0 25G31G08G21G07G04G16G18G22G27G19R11R05
                                R21R10R07R22R12R06R13R23R20E12E19E18
                                E11
 132159755.191 7 102981629.240 6                  25149166.200    25149163.200
  25149162.180          43.300          37.850
 119079975.176 7  92789568.97746                  22660165.580
  22660162.340          47.950          40.650
 116928028.601 8  91112807.36247                  22250633.320
  22250627.580          49.400          43.200
 130593068.543 7 101760798.588 6                  24851034.720    24851030.240
  24851029.420          43.750          36.600
 134053088.867 7 104456954.59445                  25509451.360
  25509450.840          44.050          32.950
 107470374.113 8  83743149.81648                  20450929.840
  20450924.340          49.000          48.250
 116543108.446 8  90812806.03747                  22177407.480
  22177402.120          49.650          43.050
 119245282.498 8  92918409.69847                  22691609.360
  22691602.820          49.100          43.400
 112045560.083 8  87308238.947 8  83670390.438 8  21321556.260    21321553.980
  21321553.360          50.100          49.150
 121956316.147 7  95030873.13846                  23207511.120
  23207505.000          46.650          41.150
 111123843.011 7  86429667.809 6                  20795312.080    20795316.160
  20795314.300          47.200          41.850
 121091546.147 7  94182333.802 7                  22652675.240    22652677.700
  22652677.460          47.550          42.250
 108369078.744 8  84287111.956 7                  20251332.740    20251334.480
  20251333.660          48.600          45.950
 129662491.418 6 100848626.578 5                  24324357.140    24324365.420
  24324364.640          38.250          33.300
 128051821.407 7  99595887.840 6                  23921151.980    23921154.420
  23921153.020          43.950          40.150
 109578297.684 8  85227595.471 7                  20527699.220    20527702.140
  20527701.160          49.050          46.550
 109798742.432 7  85399036.786 7                  20554553.400    20554557.040
  20554556.460          44.950          43.400
 116827256.863 8  90865632.500 6                  21893374.800    21893377.140
  21893377.080          48.450          41.750
 129427122.428 6 100665543.828 6                  24237539.920    24237543.520
  24237540.840          41.300          36.600
 132608355.299 6 103139848.78515                  24789731.900    24789736.980
  24789735.700          36.350          32.200
 124999725.257 6  97222025.425 6                  23375578.280    23375583.220
  23375581.140          40.350          40.100
 145052213.083 7                 108318339.088 7  27602469.240
                        47.100
 147147078.430 7                 109882568.302 6  28001156.580
                        44.650
 136811267.864 8                 102164294.292 8  26034314.780
                        50.500
 126461643.612 8                  94435751.614 8  24064796.980
                        50.950
 15  1 27  3  1  0.0000000  0 25G31G08G21G07G04G16G18G22G27G19R11R05
                                R21R10R07R22R12R06R13R23R20E12E19E18
                                E11
 132176351.298 7 102994561.205 6                  25152324.360    25152321.320
  25152320.280          44.000          38.600
 119095938.965 7  92802008.29146                  22663203.380
  22663200.120          47.950          40.650
 116938427.775 8  91120910.61447                  22252612.300
  22252606.520          49.100          43.900
 130582432.125 7 101752510.462 6                  24849010.620    24849006.180
  24849005.320          43.550          37.050
 134034717.134 7 104442639.04045                  25505955.240
  25505954.880          43.700          31.700
 107467396.374 8  83740829.49448                  20450363.180
  20450357.680          49.000          48.150
 116538472.136 8  90809193.32247                  22176525.180
  22176519.840          49.550          43.350
 119231385.137 8  92907580.58547                  22688964.760
  22688958.220          49.300          43.050
 112037472.355 8  87301936.817 8  83664350.915 8  21320017.180    21320014.920
  21320014.280          50.000          49.250
 121943502.134 7  95020888.18747                  23205072.720
  23205066.560          46.750          42.300
 111139855.981 7  86442122.337 6                  20798308.720    20798312.720
  20798310.880          46.900          41.550
 121096684.729 7  94186330.487 7                  22653636.560    22653639.000
  22653638.740          47.600          42.000
 108375896.521 8  84292414.656 7                  20252606.800    20252608.520
  20252607.680          48.600          45.900
 129685592.930 6 100866594.276 5                  24328691.000    24328699.200
  24328698.560          38.250          32.800
 128031396.667 7  99580001.934 6                  23917336.440    23917338.980
  23917337.620          44.700          40.300
 109571688.083 8  85222454.664 7                  20526461.020    20526463.920
  20526462.960          49.100          46.450
 109793625.115 7  85395056.646 7                  20553595.420    20553599.080
  20553598.480          45.550          43.450
 116814633.867 8  90855814.606 6                  21891009.240    21891011.580
  21891011.500          48.800          41.550
 129407802.328 6 100650517.079 6                  24233921.980    24233925.520
  24233922.840          41.250          36.000
 132594088.305 5 103128752.174 5                  24787065.180    24787071.260
  24787070.560          32.850          33.700
 125014185.257 6  97233272.098 6                  23378282.400    23378287.300
  23378285.160          39.950          39.750
 145062973.104 7                 108326374.173 7  27604516.900
                        46.750
 147151325.907 7                 109885740.119 6  28001964.820
                        44.600
 136835072.788 8                 102182070.697 8  26038844.740
                        50.750
 126467575.456 8                  94440181.252 8  24065925.760
                        51.000
 15  1 27  3  1  5.0000000  0 25G31G08G21G07G04G16G18G22G27G19R11R05
                                R21R10R07R22R12R06R13R23R20E12E19E18
                                E11
 132192946.305 7 103007492.311 6                  25155482.320    25155479.300
  25155478.260          44.750          39.250
 119111912.567 8  92814455.25646                  22666243.080
  22666239.820          48.050          40.900
 116948835.005 8  91129020.15247                  22254592.760
  22254586.980          48.850          43.300
 130571810.232 7 101744233.665 6                  24846989.280    24846984.920
  24846984.120          42.800          37.850
 134016349.417 7 104428326.57745                  25502459.860
  25502459.760          43.000          32.650
 107464434.588 8  83738521.61148                  20449799.580
  20449794.060          49.150          48.550
 116533850.863 8  90805592.33647                  22175645.760
  22175640.440          49.600          43.150
 119217496.535 8  92896758.30747                  22686321.860
  22686315.320          49.200          43.100
 112029392.058 8  87295640.492 8  83658316.921 8  21318479.520    21318477.280
  21318476.640          50.100          49.350
 121930693.852 7  95010907.71446                  23202635.440
  23202629.180          46.850          41.400
 111155886.353 7  86454590.417 6                  20801308.580    20801312.620
  20801310.740          46.450          41.700
 121101846.308 7  94190345.060 6                  22654602.160    22654604.560
  22654604.280          47.250          41.650
 108382722.174 8  84297723.504 7                  20253882.320    20253884.060
  20253883.180          48.250          45.900
 129708694.643 6 100884562.156 5                  24333024.900    24333033.100
  24333032.520          39.550          32.350
 128010972.995 7  99564116.855 6                  23913521.160    23913523.660
  23913522.340          45.100          39.550
 109565087.877 8  85217321.168 7                  20525224.560    20525227.480
  20525226.520          48.950          46.250
 109788532.947 7  85391096.069 7                  20552642.240    20552645.800
  20552645.200          44.950          43.550
 116802028.374 8  90846010.327 6                  21888646.980    21888649.260
  21888649.180          48.450          41.150
 129388493.613 6 100635499.190 6                  24230306.080    24230309.640
  24230306.900          40.650          36.400
 132579825.548 5 103117658.883 5                  24784399.620    24784403.720
  24784405.760          34.650          32.300
 125028646.939 6  97244520.084 6                  23380986.740    23380991.680
  23380989.580          40.000          40.000
 145073734.912 7                 108334410.560 7  27606564.820
                        46.250
 147155586.577 7                 109888921.794 6  28002775.580
                        44.650
 136858873.674 8                 102199844.081 8  26043373.920
                        50.800
 126473512.144 8                  94444614.485 8  24067055.480
                        51.150
 15  1 27  3  1 10.0000000  0 25G31G08G21G07G04G16G18G22G27G19R11R05
                                R21R10R07R22R12R06R13R23R20E12E19E18
                                E11
 132209537.480 7 103020420.445 6                  25158639.600    25158636.560
  25158635.480          44.550          38.950
 119127893.230 7  92826907.71946                  22669284.080
  22669280.820          47.950          40.750
 116959247.576 8  91137133.84647                  22256574.200
  22256568.460          48.150          44.100
 130561200.216 7 101735966.117 6                  24844970.180    24844965.960
  24844965.200          43.200          38.000
 133997983.005 7 104414015.16345                  25498964.780
  25498964.520          42.200          30.550
 107461486.061 8  83736224.05448                  20449238.480
  20449232.960          48.950          48.650
 116529241.866 8  90802000.91447                  22174768.640
  22174763.400          49.600          42.950
 119203614.019 8  92885940.77447                  22683680.120
  22683673.560          49.450          42.950
 112021316.492 8  87289347.839 8  83652286.470 8  21316942.760    21316940.540
  21316939.920          50.100          49.350
 121917888.589 7  95000929.58746                  23200198.700
  23200192.400          46.700          41.650
 111171931.371 7  86467069.865 6                  20804311.160    20804315.260
  20804313.340          46.850          41.750
 121107028.066 7  94194375.321 6                  22655571.480    22655573.920
  22655573.600          47.000          41.150
 108389553.021 7  84303036.381 7                  20255158.840    20255160.580
  20255159.680          47.950          46.200
 129731793.866 6 100902528.107 5                  24337358.360    24337366.660
  24337365.980          39.850          32.200
 127990547.559 7  99548230.391 6                  23909705.560    23909708.040
  23909706.740          44.800          39.600
 109558494.424 8  85212192.922 7                  20523989.360    20523992.320
  20523991.320          49.200          46.350
 109783463.159 7  85387152.909 7                  20551693.200    20551696.720
  20551696.140          44.950          43.650
 116789437.371 8  90836217.337 6                  21886287.420    21886289.680
  21886289.580          48.500          41.200
 129369193.632 6 100620488.081 5                  24226691.860    24226695.500
  24226692.640          39.950          35.850
 132565564.302 6 103106566.830 5                  24781733.660    24781737.440
  24781740.000          37.100          31.300
 125043107.531 6  97255767.190 6                  23383691.020    23383695.880
  23383693.800          40.700          40.950
 145084495.696 7                 108342446.230 7  27608612.540
                        46.450
 147159857.720 7                 109892111.294 7  28003588.320
                        44.600
 136882667.799 8                 102217612.426 8  26047901.860
                        50.700
 126479450.959 8                  94449049.319 8  24068185.580
                        51.100
 15  1 27  3  1 15.0000000  0 25G31G08G21G07G04G16G18G22G27G19R11R05
                                R21R10R07R22R12R06R13R23R20E12E19E18
                                E11
 132226124.694 7 103033345.478 6                  25161796.080    25161793.040
  25161792.000          44.400          38.350
 119143880.787 8  92839365.54946                  22672326.400
  22672323.140          48.050          40.650
 116969665.311 7  91145251.55547                  22258556.540
  22258550.940          47.700          44.300
 130550601.894 7 101727707.685 6                  24842953.380    24842949.140
  24842948.500          43.550          37.700
 133979617.764 7 104399704.65245                  25495469.960
  25495469.800          42.100          32.550
 107458550.641 8  83733936.70948                  20448679.880
  20448674.360          48.750          48.650
 116524644.986 8  90798418.93647                  22173893.820
  22173888.640          49.600          42.850
 119189737.444 8  92875127.86047                  22681039.520
  22681032.940          49.600          43.250
 112013245.491 8  87283058.739 8  83646259.415 8  21315406.880    21315404.680
  21315404.040          50.150          49.350
 121905086.146 7  94990953.66147                  23197762.500
  23197756.160          46.750          42.550
 111187990.767 7  86479560.504 7                  20807316.440    20807320.560
  20807318.620          47.050          42.050
 121112229.779 7  94198421.081 6                  22656544.540    22656546.980
  22656546.640          47.250          41.650
 108396388.847 7  84308353.133 7                  20256436.280    20256438.040
  20256437.100          47.950          46.150
 129754890.310 6 100920491.897 5                  24341691.300    24341699.620
  24341699.000          40.700          32.700
 127970120.220 7  99532342.477 6                  23905889.560    23905892.000
  23905890.780          43.350          38.400
 109551907.499 8  85207069.769 7                  20522755.380    20522758.380
  20522757.340          49.150          46.350
 109778415.691 7  85383227.097 7                  20550748.320    20550751.860
  20550751.220          44.900          43.400
 116776860.805 8  90826435.554 6                  21883930.560    21883932.800
  21883932.740          48.550          41.500
 129349902.074 6 100605483.503 6                  24223079.200    24223082.760
  24223079.880          39.800          36.400
 132551304.639 5 103095475.939 4                  24779068.060    24779073.060
  24779071.540          34.800          29.800
 125057566.892 6  97267013.335 6                  23386395.000    23386399.820
  23386397.780          39.650          40.450
 145095255.331 7                 108350481.015 7  27610660.060
                        46.550
 147164139.194 7                 109895308.514 6  28004403.020
                        44.450
 136906455.004 8                 102235375.590 8  26052428.460
                        50.650
 126485391.735 8                  94453485.608 8  24069316.060
                        51.100
 15  1 27  3  1 20.0000000  0 25G31G08G21G07G04G16G18G22G27G19R11R05
                                R21R10R07R22R12R06R13R23R20E12E19E18
                                E11
 132242708.522 7 103046267.910 6                  25164951.960    25164948.920
  25164947.780          44.100          38.150
 119159875.825 7  92851829.21146                  22675370.140
  22675366.920          47.950          40.600
 116980088.834 7  91153373.76947                  22260539.960
  22260534.480          47.350          44.500
 130540015.883 7 101719458.845 6                  24840938.900    24840934.700
  24840934.060          43.700          37.850
 133961254.274 7 104385395.49445                  25491975.460
  25491975.280          43.200          31.850
 107455628.972 8  83731660.08448                  20448123.900
  20448118.360          48.650          48.650
 116520060.875 8  90794846.90547                  22173021.420
  22173016.300          49.400          42.700
 119175867.482 8  92864320.08947                  22678400.200
  22678393.560          49.500          43.450
 112005179.658 8  87276773.676 8  83640236.234 8  21313871.980    21313869.800
  21313869.180          50.050          49.350
 121892287.215 7  94980980.46447                  23195327.000
  23195320.640          46.400          42.250
 111204065.382 7  86492062.981 6                  20810324.580    20810328.700
  20810326.780          47.100          41.850
 121117452.200 7  94202482.952 6                  22657521.500    22657523.880
  22657523.560          46.900          41.300
 108403230.300 8  84313674.267 7                  20257714.760    20257716.540
  20257715.600          48.100          46.050
 129777984.557 6 100938453.957 5                  24346023.800    24346032.180
  24346031.600          41.250          32.650
 127949691.626 7  99516453.563 6                  23902073.280    23902075.720
  23902074.500          42.900          39.300
 109545327.735 8  85201952.175 7                  20521522.780    20521525.740
  20521524.720          49.050          46.300
 109773391.030 7  85379319.032 7                  20549807.740    20549811.240
  20549810.560          44.950          43.600
 116764299.357 8  90816665.553 6                  21881576.580    21881578.820
  21881578.720          48.550          41.300
 129330619.648 6 100590486.056 6                  24219468.220    24219471.680
  24219468.840          40.650          36.250
 132537047.097 5 103084386.734 4                  24776403.020    24776407.160
  24776405.120          34.200          29.700
 125072025.583 6  97278258.987 6                  23389098.860    23389103.660
  23389101.640          39.550          40.100
 145106014.461 7                 108358515.421 7  27612707.480
                        46.800
 147168431.636 7                 109898513.892 7  28005219.800
                        44.250
 136930235.897 8                 102253134.053 8  26056953.840
                        50.550
 126491335.096 8                  94457923.834 8  24070447.040
                        51.150
 15  1 27  3  1 25.0000000  0 25G31G08G21G07G04G16G18G22G27G19R11R05
                                R21R10R07R22R12R06R13R23R20E12E19E18
                                E11
 132259289.139 7 103059187.820 6                  25168107.220    25168104.160
  25168103.040          43.600          38.300
 119175878.465 7  92864298.79846                  22678415.340
  22678412.140          47.750          40.850
 116990518.266 7  91161500.58347                  22262524.500
  22262519.120          47.250          44.800
 130529442.378 7 101711219.745 6                  24838926.800    24838922.660
  24838922.080          43.750          37.550
 133942892.768 7 104371087.88244                  25488481.340
  25488481.080          43.400          29.950
 107452721.185 8  83729394.27648                  20447570.580
  20447565.000          48.750          48.650
 116515489.672 8  90791284.92947                  22172151.460
  22172146.440          49.150          43.350
 119162004.238 8  92853517.56447                  22675762.140
  22675755.460          49.600          43.150
 111997119.174 8  87270492.782 8  83634217.038 8  21312338.120    21312335.960
  21312335.340          50.050          49.300
 121879491.890 7  94971010.08546                  23192892.140
  23192885.780          46.700          41.800
 111220155.186 7  86504577.273 7                  20813335.620    20813339.660
  20813337.760          47.150          42.000
 121122695.363 7  94206560.963 6                  22658502.400    22658504.700
  22658504.360          47.700          41.250
 108410077.495 8  84318999.856 7                  20258994.320    20258996.080
  20258995.140          48.300          46.150
 129801076.744 6 100956414.431 5                  24350355.840    24350364.300
  24350363.820          41.050          32.550
 127929262.093 7  99500563.955 6                  23898256.800    23898259.320
  23898258.100          44.200          39.250
 109538755.282 8  85196840.265 7                  20520291.500    20520294.500
  20520293.480          48.900          46.450
 109768389.529 7  85375428.973 7                  20548871.500    20548874.940
  20548874.260          45.200          43.650
 116751753.167 8  90806907.409 6                  21879225.440    21879227.720
  21879227.560          48.700          41.500
 129311346.459 6 100575495.777 6                  24215859.020    24215862.380
  24215859.580          40.650          36.600
 132522791.765 6 103073299.278 5                  24773737.940    24773742.000
  24773739.520          36.350          30.350
 125086483.869 6  97289504.300 6                  23391802.600    23391807.460
  23391805.480          39.750          39.600
 145116773.190 7                 108366549.513 7  27614754.860
                        46.650
 147172735.126 7                 109901727.553 7  28006038.640
                        44.150
 136954010.631 8                 102270887.901 8  26061478.020
                        50.250
 126497281.173 8                  94462364.095 8  24071578.520
                        51.250
 15  1 27  3  1 30.0000000  0 25G31G08G21G07G04G16G18G22G27G19R11R05
                                R21R10R07R22R12R06R13R23R20E12E19E18
                                E11
 132275866.501 7 103072105.186 6                  25171261.820    25171258.760
  25171257.680          43.600          38.500
 119191888.795 7  92876774.37646                  22681461.980
  22681458.840          47.600          41.550
 117000953.755 7  91169632.12347                  22264510.200
  22264504.920          47.500          44.500
 130518881.410 7 101702990.414 6                  24836917.080    24836913.080
  24836912.400          43.550          38.050
 133924533.248 7 104356781.82244                  25484987.620
  25484987.140          43.400          29.600
 107449827.350 8  83727139.33748                  20447019.900
  20447014.320          48.700          48.650
 116510931.451 8  90787733.06447                  22171283.980
  22171279.060          48.950          43.400
 119148147.805 8  92842720.32947                  22673125.400
  22673118.660          49.150          43.900
 111989064.098 8  87264216.100 8  83628201.884 8  21310805.240    21310803.140
  21310802.520          49.900          49.350
 121866700.256 7  94961042.57447                  23190457.980
  23190451.600          46.700          42.300
 111236260.180 7  86517103.377 6                  20816349.460    20816353.440
  20816351.600          46.900          41.600
 121127959.355 7  94210655.189 6                  22659487.160    22659489.420
  22659489.060          47.500          41.750
 108416930.541 8  84324330.006 7                  20260274.960    20260276.720
  20260275.800          48.050          46.150
 129824167.126 6 100974373.485 5                  24354687.660    24354696.060
  24354695.640          41.150          32.750
 127908831.502 7  99484673.478 6                  23894440.140    23894442.660
  23894441.460          43.800          38.850
 109532190.310 8  85191734.171 7                  20519061.680    20519064.720
  20519063.620          49.100          46.550
 109763411.204 7  85371556.932 7                  20547939.580    20547942.960
  20547942.280          44.600          43.500
 116739222.364 8  90797161.234 6                  21876877.180    21876879.440
  21876879.280          48.900          41.600
 129292082.795 6 100560512.925 6                  24212251.540    24212254.840
  24212252.140          40.650          37.050
 132508538.837 6 103062213.709 5                  24771073.800    24771077.720
  24771075.100          36.050          31.050
 125100941.739 6  97300749.316 6                  23394506.340    23394511.220
  23394509.240          40.350          39.350
 145127531.646 7                 108374583.420 7  27616802.180
                        46.100
 147177049.779 7                 109904949.553 7  28006859.600
                        44.100
 136977779.280 8                 102288637.219 8  26066001.020
                        50.100
 126503230.065 8                  94466806.445 8  24072710.540
                        51.150
 15  1 27  3  1 35.0000000  0 25G31G08G21G07G04G16G18G22G27G19R11R05
                                R21R10R07R22R12R06R13R23R20E12E19E18
                                E11
 132292440.633 7 103085020.028 6                  25174415.800    25174412.860
  25174411.780          43.800          39.100
 119207906.684 7  92889255.83846                  22684510.100
  22684506.980          47.700          41.350
 117011395.119 7  91177768.24047                  22266497.060
  22266491.820          47.900          44.250
 130508332.901 7 101694770.795 6                  24834909.740    24834905.820
  24834905.100          43.750          37.500
 133906175.646 7 104342477.26244                  25481494.220
  25481493.540          43.200          28.150
 107446947.373 8  83724895.19948                  20446471.900
  20446466.260          48.800          48.750
 116506386.108 8  90784191.23947                  22170418.940
  22170414.120          49.000          43.400
 119134298.062 8  92831928.33047                  22670489.920
  22670483.140          49.450          43.450
 111981014.364 8  87257943.577 8  83622190.723 8  21309273.400    21309271.300
  21309270.720          49.900          49.400
 121853912.237 7  94951077.88846                  23188024.520
  23188018.120          46.450          41.800
