     2.11           OBSERVATION DATA    M (MIXED)           RINEX VERSION / TYPE
teqc  2011Oct11     IGN-E (SPG)         20150127 23:00:50UTCPGM / RUN BY / DATE
Linux 2.4.21-27.ELsmp|Opteron|gcc -static|Linux x86_64|=+   COMMENT
BIT 2 OF LLI FLAGS DATA COLLECTED UNDER A/S CONDITION       COMMENT
VALE                                                        MARKER NAME
13439M001                                                   MARKER NUMBER
Programas GeodesicosInstituto Geografico Nacional           OBSERVER / AGENCY
1700071             LEICA GR10          3.03/6.214          REC # / TYPE / VERS
10190012            LEIAR25.R3      LEIT                    ANT # / TYPE
  4929534.0457   -29050.6755  4033709.9250                  APPROX POSITION XYZ
        3.0390        0.0000        0.0000                  ANTENNA: DELTA H/E/N
     1     1                                                WAVELENGTH FACT L1/2
     8    L1    L2    L5    C1    C2    P2    S1    S2      # / TYPES OF OBSERV
     5.0000                                                 INTERVAL
Forced Modulo Decimation to 5 seconds                       COMMENT
DefaultJobName                                              COMMENT
DefaultUserDiscription                                      COMMENT
Project creator:                                            COMMENT
 SNR is mapped to RINEX snr flag value [0-9]                COMMENT
  L1 & L2: min(max(int(snr_dBHz/6), 0), 9)                  COMMENT
  2015     1    27    22     0    0.0000000     GPS         TIME OF FIRST OBS
    15                                                      LEAP SECONDS
                                                            END OF HEADER
 15  1 27 22  0  0.0000000  0 17G14G31G06G24G12G25G29G02R20R01R08R11
                                R09R19R10R21E19
 113573706.231 8  88498993.59647                  21612349.000
  21612344.440          48.600          44.200
 123291911.620 8  96071619.516 7                  23461667.260    23461662.980
  23461662.140          48.000          43.100
 130853249.939 7 101963578.025 6  97715092.362 7  24900542.380    24900541.420
  24900540.480          42.600          39.150
 118525663.667 8  92357746.309 7  88509524.530 8  22554651.600    22554649.980
  22554649.420          48.450          47.000
 113073265.661 8  88109149.772 7                  21517060.200    21517055.420
  21517054.700          48.800          47.300
 107510188.193 8  83774281.633 8  80283715.439 8  20458464.080    20458462.300
  20458461.500          49.850          49.400
 108862325.099 8  84827942.394 8                  20715744.120    20715740.660
  20715740.020          49.650          48.300
 122880359.206 7  95750920.38646                  23383345.860
  23383338.460          47.950          41.900
 104878945.492 7  81572545.471 7                  19612841.240    19612845.060
  19612842.860          45.100          46.800
 125540415.396 7  97642568.040 5                  23484934.100    23484937.800
  23484937.720          42.850          34.350
 128224516.512 7  99730181.700 6                  23945027.320    23945030.220
  23945029.360          43.400          39.900
 122616317.482 7  95368268.819 5                  22945967.080    22945971.280
  22945969.780          43.700          35.200
 110676716.990 8  86081836.636 6                  20726158.840    20726161.820
  20726159.300          48.450          36.600
 110664847.280 8  86072659.880 7                  20687570.720    20687571.420
  20687569.900          48.600          45.800
 105539153.271 8  82086055.345 7                  19798862.720    19798869.380
  19798868.200          48.200          42.600
 120117196.886 7  93424470.368 6                  22446720.040    22446721.980
  22446720.980          45.900          40.700
 148207436.883 7                 110674409.585 6  28202932.860
                        42.600
 15  1 27 22  0  5.0000000  0 17G14G31G06G24G12G25G29G02R20R01R08R11
                                R09R19R10R21E19
 113575351.498 8  88500275.62747                  21612662.100
  21612657.540          48.650          44.450
 123276780.389 8  96059828.957 7                  23458787.880    23458783.600
  23458782.720          48.050          42.650
 130861452.111 7 101969969.330 6  97721217.361 7  24902103.200    24902102.240
  24902101.200          42.450          38.900
 118539793.708 8  92368756.731 7  88520076.181 8  22557340.480    22557338.840
  22557338.280          48.650          46.800
 113083118.740 8  88116827.481 7                  21518934.960    21518930.400
  21518929.780          48.500          47.150
 107509786.753 8  83773968.826 8  80283415.668 8  20458387.700    20458385.900
  20458385.080          49.700          49.250
 108852164.596 8  84820025.119 8                  20713810.640    20713807.180
  20713806.540          49.800          48.200
 122878660.781 8  95749596.94846                  23383022.640
  23383015.340          48.150          41.750
 104870046.732 7  81565624.213 7                  19611177.140    19611180.920
  19611178.720          45.050          46.750
 125546319.911 7  97647160.420 5                  23486038.600    23486042.460
  23486042.220          43.550          34.100
 128240907.099 7  99742929.887 6                  23948088.080    23948091.000
  23948090.260          43.000          39.200
 122599770.372 7  95355398.839 5                  22942870.480    22942874.600
  22942873.160          42.950          34.400
 110685751.446 8  86088863.429 6                  20727850.760    20727853.680
  20727851.160          48.700          36.350
 110677328.479 8  86082367.477 7                  20689903.980    20689904.660
  20689903.120          48.500          45.400
 105532205.716 8  82080651.694 7                  19797559.400    19797566.000
  19797564.840          48.300          42.900
 120095568.058 7  93407647.952 6                  22442678.180    22442680.100
  22442679.140          45.850          40.700
 148220143.727 7                 110683898.397 6  28205350.940
                        43.100
 15  1 27 22  0 10.0000000  0 18G14G31G06G24G12G25G29G02R02R20R01R08
                                R11R09R19R10R21E19
 113577013.826 8  88501570.94547                  21612978.440
  21612973.880          49.050          43.900
 123261652.440 8  96048040.940 7                  23455909.100    23455904.820
  23455903.920          48.350          42.950
 130869668.470 7 101976371.689 6  97727352.967 7  24903666.700    24903665.780
  24903664.720          42.900          38.800
 118553932.184 8  92379773.727 7  88530634.128 8  22560030.940    22560029.300
  22560028.740          48.850          47.100
 113092976.879 8  88124509.126 7                  21520810.720    21520806.380
  21520805.800          49.250          47.300
 107509393.540 8  83773662.437 8  80283122.043 8  20458312.880    20458311.080
  20458310.240          49.950          49.200
 108842018.189 8  84812118.830 8                  20711879.840    20711876.400
  20711875.760          50.050          48.350
 122876976.234 8  95748284.31046                  23382702.080
  23382694.820          48.450          41.700
 131262256.469 6                                  24598491.300    24598488.380
                        39.400          29.350
 104861169.899 7  81558720.014 7                  19609517.140    19609520.900
  19609518.700          45.150          46.850
 125552243.076 7  97651767.330 5                  23487146.660    23487150.460
  23487150.220          44.250          34.200
 128257303.341 7  99755682.498 6                  23951150.000    23951152.920
  23951152.140          44.550          38.900
 122583223.695 7  95342529.199 5                  22939773.960    22939777.980
  22939776.660          43.150          35.050
 110694797.045 8  86095898.899 6                  20729544.760    20729547.580
  20729545.120          48.950          36.800
 110689828.163 8  86092089.453 7                  20692240.660    20692241.340
  20692239.800          48.950          45.450
 105525268.090 8  82075255.765 7                  19796257.960    19796264.540
  19796263.360          48.600          42.950
 120073946.633 7  93390831.307 6                  22438637.700    22438639.620
  22438638.680          46.300          40.500
 148232850.156 7                 110693386.909 6  28207768.900
                        43.750
 15  1 27 22  0 15.0000000  0 18G14G31G06G24G12G25G29G02R02R20R01R08
                                R11R09R19R10R21E19
 113578692.387 8  88502878.91547                  21613297.860
  21613293.300          49.000          44.050
 123246526.982 8  96036254.881 7                  23453030.800    23453026.520
  23453025.580          48.150          43.050
 130877898.215 7 101982784.480 6  97733498.536 7  24905232.740    24905231.820
  24905230.680          43.100          38.750
 118568078.377 8  92390796.724 7  88541197.837 8  22562722.880    22562721.240
  22562720.660          48.900          47.100
 113102839.246 8  88132194.081 7                  21522687.340    21522683.140
  21522682.640          49.550          47.100
 107509007.741 8  83773361.814 8  80282833.933 8  20458239.480    20458237.660
  20458236.820          49.800          49.250
 108831885.083 8  84804222.905 8                  20709951.560    20709948.160
  20709947.500          49.800          48.300
 122875304.736 8  95746981.84446                  23382384.020
  23382376.780          48.500          41.650
 131253918.267 6 102086373.607 5                  24596928.080    24596932.980
  24596928.220          39.450          30.600
 104852314.223 7  81551832.272 7                  19607861.040    19607864.860
  19607862.660          45.450          46.800
 125558184.100 7  97656388.114 5                  23488258.040    23488261.800
  23488261.580          44.350          34.900
 128273704.464 7  99768438.915 6                  23954212.840    23954215.580
  23954214.940          44.550          38.700
 122566676.484 7  95329659.148 5                  22936677.320    22936681.260
  22936680.020          42.950          34.250
 110703852.899 8  86102942.337 6                  20731240.680    20731243.440
  20731241.000          49.000          36.550
 110702345.400 8  86101825.080 7                  20694580.620    20694581.280
  20694579.740          49.050          45.050
 105518339.534 8  82069866.881 7                  19794958.200    19794964.740
  19794963.560          48.800          42.900
 120052331.785 7  93374019.772 6                  22434598.460    22434600.380
  22434599.420          46.550          40.600
 148245555.294 7                 110702874.471 6  28210186.640
                        43.950
 15  1 27 22  0 20.0000000  0 18G14G31G06G24G12G25G29G02R02R20R01R08
                                R11R09R19R10R21E19
 113580387.402 8  88504199.69747                  21613620.420
  21613615.840          49.000          43.900
 123231404.211 8  96024470.900 7                  23450153.020    23450148.740
  23450147.820          48.300          43.350
 130886141.471 7 101989207.801 6  97739654.219 7  24906801.360    24906800.480
  24906799.320          42.950          38.800
 118582232.376 8  92401825.813 7  88551767.382 8  22565416.280    22565414.640
  22565414.080          48.850          47.150
 113112706.106 8  88139882.526 7                  21524564.900    21524560.760
  21524560.280          49.900          47.050
 107508629.560 8  83773067.118 8  80282551.525 8  20458167.520    20458165.680
  20458164.840          49.900          49.300
 108821765.485 8  84796337.506 8                  20708025.860    20708022.480
  20708021.820          49.750          48.350
 122873646.520 8  95745689.72246                  23382068.480
  23382061.280          48.700          41.400
 131245597.530 6 102079901.927 5                  24595368.280    24595371.680
  24595369.780          39.850          32.750
 104843480.103 7  81544961.300 7                  19606209.020    19606212.860
  19606210.660          45.550          47.000
 125564143.217 7  97661022.972 5                  23489372.780    23489376.540
  23489376.380          43.900          34.550
 128290110.647 7  99781199.261 6                  23957276.680    23957279.320
  23957278.720          44.150          39.800
 122550128.920 7  95316788.828 5                  22933580.620    22933584.580
  22933583.280          43.600          34.350
 110712919.283 8  86109993.960 6                  20732938.540    20732941.340
  20732938.840          48.700          36.350
 110714880.400 8  86111574.525 7                  20696923.940    20696924.520
  20696923.000          48.900          45.100
 105511420.410 8  82064485.343 7                  19793660.240    19793666.740
  19793665.560          48.800          43.050
 120030723.765 7  93357213.540 6                  22430560.540    22430562.440
  22430561.420          46.750          40.700
 148258259.387 7                 110712361.231 6  28212604.200
                        43.650
 15  1 27 22  0 25.0000000  0 18G14G31G06G24G12G25G29G02R02R20R01R08
                                R11R09R19R10R21E19
 113582099.613 8  88505533.88647                  21613946.280
  21613941.680          49.100          43.850
 123216284.952 8  96012689.663 7                  23447275.900    23447271.600
  23447270.680          48.050          43.150
 130894399.061 7 101995642.300 6  97745820.620 7  24908372.740    24908371.880
  24908370.600          43.100          39.800
 118596395.017 8  92412861.631 7  88562343.382 8  22568111.320    22568109.700
  22568109.120          48.800          46.800
 113122578.157 8  88147575.032 7                  21526443.500    21526439.340
  21526438.880          50.400          46.850
 107508259.740 8  83772778.940 8  80282275.360 8  20458097.120    20458095.300
  20458094.460          50.000          49.200
 108811660.217 8  84788463.272 8                  20706102.880    20706099.520
  20706098.860          49.750          48.150
 122872002.359 8  95744408.56646                  23381755.640
  23381748.380          48.400          41.100
 131237295.075 6 102073444.435 5                  24593812.880    24593815.540
  24593814.420          40.800          34.150
 104834667.972 7  81538107.420 7                  19604561.100    19604564.960
  19604562.760          45.150          47.050
 125570121.032 7  97665672.361 5                  23490491.080    23490494.780
  23490494.660          44.000          34.400
 128306522.563 7  99793964.059 6                  23960341.540    23960344.140
  23960343.560          44.000          39.800
 122533581.791 7  95303918.833 5                  22930484.020    22930487.960
  22930486.540          43.100          33.900
 110721996.953 8  86117054.366 6                  20734638.520    20734641.260
  20734638.780          48.400          36.200
 110727433.944 8  86121338.392 7                  20699270.720    20699271.220
  20699269.720          48.900          45.200
 105504511.580 8  82059111.804 7                  19792364.200    19792370.660
  19792369.500          48.750          42.900
 120009123.392 7  93340413.265 6                  22426524.020    22426525.820
  22426524.880          47.000          40.850
 148270963.154 7                 110721847.791 6  28215021.680
                        43.350
 15  1 27 22  0 30.0000000  0 18G14G31G06G24G12G25G29G02R02R20R01R08
                                R11R09R19R10R21E19
 113583826.578 8  88506879.56747                  21614274.940
  21614270.320          49.100          43.800
 123201166.764 8  96000909.271 7                  23444398.980    23444394.720
  23444393.780          48.000          43.150
 130902668.547 7 102002086.044 6  97751995.870 7  24909946.380    24909945.520
  24909944.280          43.150          39.950
 118610563.778 8  92423902.221 7  88572923.949 8  22570807.520    22570805.940
  22570805.340          48.500          47.000
 113132452.934 8  88155269.663 7                  21528322.680    21528318.460
  21528318.000          50.750          46.750
 107507895.844 8  83772495.381 8  80282003.618 8  20458027.880    20458026.060
  20458025.180          50.050          49.250
 108801566.800 8  84780598.279 8                  20704182.160    20704178.800
  20704178.180          49.850          48.250
 122870369.814 8  95743136.44246                  23381445.000
  23381437.660          48.450          41.850
 131229008.479 6 102066999.307 5                  24592260.160    24592263.040
  24592261.680          41.850          34.950
 104825875.674 7  81531268.973 7                  19602916.860    19602920.760
  19602918.580          44.650          47.150
 125576115.280 7  97670334.562 5                  23491612.460    23491616.020
  23491616.040          43.450          35.300
 128322937.857 7  99806731.496 6                  23963407.060    23963409.560
  23963409.040          44.200          39.850
 122517032.600 6  95291047.253 5                  22927386.980    22927390.900
  22927389.540          41.850          34.900
 110731083.416 8  86124121.611 6                  20736340.160    20736342.900
  20736340.380          48.150          36.300
 110740003.439 8  86131114.674 7                  20701620.480    20701620.960
  20701619.440          48.750          45.250
 105497610.436 8  82053744.248 7                  19791069.580    19791076.020
  19791074.860          48.500          43.000
 119987528.186 7  93323617.007 6                  22422488.460    22422490.220
  22422489.300          46.900          41.200
 148283664.205 7                 110731332.288 6  28217438.660
                        43.450
 15  1 27 22  0 35.0000000  0 18G14G31G06G24G12G25G29G02R02R20R01R08
                                R11R09R19R10R21E19
 113585571.581 8  88508239.31147                  21614607.040
  21614602.400          49.050          44.050
 123186052.880 7  95989132.223 7                  23441522.900    23441518.640
  23441517.700          47.950          43.450
 130910953.119 7 102008541.548 6  97758182.407 7  24911522.920    24911522.020
  24911520.800          43.150          39.650
 118624741.890 8  92434950.095 7  88583511.490 8  22573505.520    22573503.960
  22573503.360          48.500          47.000
 113142333.738 8  88162969.004 7                  21530203.060    21530198.720
  21530198.240          50.950          46.750
 107507541.148 8  83772218.994 8  80281738.741 8  20457960.400    20457958.540
  20457957.680          50.000          49.400
 108791488.511 8  84772745.065 8                  20702264.300    20702260.960
  20702260.340          49.700          48.300
 122868752.154 8  95741875.93046                  23381137.180
  23381129.760          48.400          41.800
 131220741.144 7 102060569.165 5                  24590710.820    24590713.440
  24590712.100          43.250          35.600
 104817106.435 7  81524448.459 7                  19601276.920    19601280.900
  19601278.740          44.550          47.200
 125582129.149 7  97675012.024 5                  23492737.520    23492741.280
  23492741.160          43.700          34.900
 128339359.739 7  99819504.066 6                  23966473.740    23966476.240
  23966475.720          43.350          38.800
 122500484.785 7  95278176.757 5                  22924290.200    22924294.320
  22924292.900          42.650          34.400
 110740181.970 8  86131198.262 6                  20738044.020    20738046.760
  20738044.200          48.600          36.650
 110752592.296 8  86140906.018 7                  20703973.840    20703974.320
  20703972.760          48.150          45.300
 105490720.215 8  82048385.174 7                  19789777.020    19789783.400
  19789782.280          48.300          42.900
 119965941.517 7  93306827.389 6                  22418454.540    22418456.220
  22418455.320          46.900          41.100
 148296365.749 7                 110740817.141 6  28219855.680
                        43.700
 15  1 27 22  0 40.0000000  0 19G14G31G06G24G12G25G29G02R02R20R16R01
                                R08R11R09R19R10R21E19
 113587332.299 8  88509611.29147                  21614942.100
  21614937.460          49.050          43.850
 123170941.053 7  95977356.769 7                  23438647.220    23438642.940
  23438642.020          47.950          43.150
 130919250.491 7 102015007.047 6  97764378.491 7  24913101.920    24913101.000
  24913099.840          43.700          39.750
 118638927.094 8  92446003.502 7  88594104.335 8  22576204.840    22576203.300
  22576202.720          48.650          47.000
 113152218.250 8  88170671.222 7                  21532084.140    21532079.700
  21532079.160          51.150          46.700
 107507193.296 8  83771947.940 8  80281478.988 8  20457894.200    20457892.340
  20457891.480          49.850          49.300
 108781423.019 8  84764901.827 8                  20700348.900    20700345.580
  20700344.960          49.700          48.300
 122867147.032 8  95740625.18646                  23380831.740
  23380824.240          48.100          41.850
 131212490.607 7 102054152.094 6                  24589164.480    24589166.520
  24589165.860          42.950          36.100
 104808357.858 7  81517644.006 7                  19599640.900    19599644.880
  19599642.740          44.800          47.200
 131740914.70315 102465173.06214                  24662175.540    24662179.840
  24662175.560          34.750          29.350
 125588160.251 7  97679702.865 5                  23493865.760    23493869.620
  23493869.440          44.700          34.700
 128355785.832 7  99832279.876 6                  23969541.220    23969543.780
  23969543.160          43.350          39.300
 122483935.890 7  95265305.398 5                  22921193.280    22921197.260
  22921196.000          43.100          34.050
 110749290.321 8  86138282.527 6                  20739749.720    20739752.520
  20739749.880          48.750          36.750
 110765198.057 7  86150710.507 7                  20706330.300    20706330.860
  20706329.260          47.900          45.450
 105483838.664 8  82043032.861 7                  19788486.060    19788492.380
  19788491.320          48.250          42.700
 119944360.992 7  93290042.538 6                  22414421.720    22414423.340
  22414422.480          47.050          41.300
 148309065.417 7                 110750300.622 6  28222272.340
                        43.500
 15  1 27 22  0 45.0000000  0 19G14G31G06G24G12G25G29G02R02R20R16R01
                                R08R11R09R19R10R21E19
 113589109.113 8  88510995.81947                  21615280.240
  21615275.580          48.700          44.250
 123155831.602 7  95965583.164 7                  23435772.000    23435767.720
  23435766.760          47.300          43.200
 130927561.030 7 102021482.792 6  97770584.422 7  24914683.400    24914682.420
  24914681.240          42.950          40.100
 118653119.765 8  92457062.716 7  88604702.758 8  22578905.620    22578904.100
  22578903.500          48.300          47.100
 113162106.871 8  88178376.645 7                  21533966.020    21533961.420
  21533960.820          51.000          46.550
 107506852.701 8  83771682.544 8  80281224.654 8  20457829.360    20457827.540
  20457826.640          49.300          49.350
 108771370.740 8  84757068.891 8                  20698435.980    20698432.680
  20698432.080          49.150          48.350
 122865554.896 7  95739384.55846                  23380528.780
  23380521.240          47.850          41.750
 131204257.304 6 102047748.397 6                  24587621.340    24587623.620
  24587623.000          40.600          36.900
 104799630.320 7  81510855.922 7                  19598008.780    19598012.780
  19598010.660          43.750          47.150
 131757337.770 5 102477946.529 4                  24665250.040    24665250.260
  24665249.880          33.100          27.950
 125594208.912 7  97684407.368 5                  23494997.340    23495001.240
  23495001.020          43.800          34.500
 128372216.508 7  99845059.288 6                  23972609.560    23972612.200
  23972611.480          42.400          39.600
 122467386.451 6  95252433.606 5                  22918096.300    22918100.200
  22918098.980          41.500          34.400
 110758408.863 7  86145374.729 6                  20741457.320    20741460.160
  20741457.500          47.400          36.800
 110777821.163 7  86160528.466 7                  20708689.980    20708690.600
  20708688.980          47.050          45.400
 105476966.206 7  82037687.616 7                  19787196.800    19787203.080
  19787202.080          47.400          42.950
 119922787.035 7  93273262.789 6                  22410390.160    22410391.660
  22410390.860          45.850          41.500
 148321763.651 7                 110759783.044 6  28224688.700
                        42.850
 15  1 27 22  0 50.0000000  0 19G14G31G06G24G12G25G29G02R02R20R16R01
                                R08R11R09R19R10R21E19
 113590900.591 8  88512391.76647                  21615621.160
  21615616.460          48.850          44.650
 123140723.146 7  95953810.348 7                  23432896.980    23432892.680
  23432891.700          47.050          43.300
 130935883.309 7 102027967.678 6  97776799.111 7  24916267.120    24916266.120
  24916264.940          42.900          40.200
 118667318.384 8  92468126.569 7  88615305.610 8  22581607.520    22581606.020
  22581605.420          48.350          47.200
 113171998.140 8  88186084.138 7                  21535848.380    21535843.660
  21535843.000          50.950          46.450
 107506517.937 8  83771421.691 8  80280974.673 8  20457765.640    20457763.820
  20457762.940          49.200          49.450
 108761330.238 8  84749245.125 8                  20696525.320    20696522.040
  20696521.440          49.100          48.450
 122863974.270 7  95738152.88946                  23380227.980
  23380220.380          47.900          41.650
 131196039.702 6 102041356.935 5                  24586080.900    24586083.440
  24586083.080          38.100          35.600
 104790922.496 7  81504083.168 7                  19596380.360    19596384.360
  19596382.260          43.900          47.000
 131773763.128 5 102490704.639 4                  24668324.920
  24668324.900          32.800          25.650
 125600273.801 7  97689124.488 5                  23496131.960    23496135.860
  23496135.620          43.750          33.800
 128388650.286 7  99857841.110 6                  23975678.360    23975681.100
  23975680.360          42.950          38.700
 122450834.849 7  95239560.153 5                  22914998.920    22915002.880
  22915001.520          42.600          34.550
 110767536.043 7  86152473.640 6                  20743166.560    20743169.320
  20743166.720          47.750          36.500
 110790460.143 7  86170358.777 7                  20711052.640    20711053.320
  20711051.700          47.300          45.250
 105470101.295 7  82032348.226 7                  19785908.980    19785915.300
  19785914.220          47.800          42.850
 119901218.237 7  93256487.064 6                  22406359.500    22406361.000
  22406360.220          46.050          41.800
 148334458.991 7                 110769263.276 6  28227104.540
                        43.300
 15  1 27 22  0 55.0000000  0 19G14G31G06G24G12G25G29G02R02R20R16R01
                                R08R11R09R19R10R21E19
 113592710.483 8  88513802.06847                  21615965.580
  21615960.880          48.900          44.200
 123125619.417 7  95942041.209 7                  23430022.840    23430018.520
  23430017.540          46.750          43.100
 130944221.048 7 102034464.626 6  97783025.361 7  24917853.780    24917852.740
  24917851.600          42.650          40.600
 118681526.863 8  92479198.105 7  88625915.835 8  22584311.300    22584309.820
  22584309.200          48.600          47.200
 113181895.815 8  88193796.619 7                  21537731.980    21537727.140
  21537726.380          50.950          46.550
 107506192.755 8  83771168.303 8  80280731.831 8  20457703.740    20457701.920
  20457701.040          49.350          49.550
 108751305.297 8  84741433.482 8                  20694617.620    20694614.380
  20694613.780          49.350          48.650
 122862408.913 7  95736933.13347                  23379930.080
  23379922.460          47.950          42.300
 131187841.756 6 102034980.794 5                  24584544.500    24584547.200
  24584546.680          38.550          34.800
 104782238.134 7  81497328.660 7                  19594756.380    19594760.320
  19594758.220          44.300          47.000
 131790194.878 5                                  24671401.040
                        31.450
 125606358.683 7  97693857.176 5                  23497270.320    23497274.060
  23497273.880          43.350          34.050
 128405090.960 7  99870628.285 6                  23978748.540    23978751.420
  23978750.560          42.450          37.800
 122434284.990 7  95226688.038 5                  22911901.900    22911905.880
  22911904.380          42.700          34.050
 110776675.744 7  86159582.288 6                  20744878.160    20744880.840
  20744878.300          47.850          36.400
 110803118.825 7  86180204.406 7                  20713419.060    20713419.720
  20713418.080          47.500          45.400
 105463247.875 8  82027017.790 7                  19784623.320    19784629.640
  19784628.540          48.200          42.750
 119879658.375 7  93239718.291 6                  22402330.520    22402332.080
  22402331.260          46.250          41.950
 148347155.194 7                 110778744.149 6  28229520.560
                        43.100
 15  1 27 22  1  0.0000000  0 18G14G31G06G24G12G25G29G02R02R20R01R08
                                R11R09R19R10R21E19
 113594535.591 8  88515224.22647                  21616312.900
  21616308.180          49.000          43.850
 123110517.249 7  95930273.302 7                  23427149.020    23427144.660
  23427143.720          46.950          42.700
 130952571.145 7 102040971.182 6  97789260.804 7  24919442.680    24919441.760
  24919440.520          42.350          40.250
 118695741.917 8  92490274.771 7  88636530.975 8  22587016.320    22587014.860
  22587014.240          48.800          47.350
 113191796.720 8  88201511.620 7                  21539616.160    21539611.220
  21539610.380          50.900          46.700
 107505873.930 8  83770919.871 8  80280493.753 8  20457643.040    20457641.260
  20457640.380          49.650          49.450
 108741292.694 8  84733631.458 8                  20692712.280    20692709.060
  20692708.460          49.600          48.600
 122860855.677 7  95735722.82346                  23379634.460
  23379626.820          47.850          41.800
 131179660.091 6 102028617.296 5                  24583011.360    24583014.440
  24583013.540          38.550          34.750
 104773574.050 7  81490589.936 7                  19593136.160    19593140.140
  19593137.980          44.550          47.050
 125612460.190 7  97698602.788 5                  23498411.780    23498415.340
  23498415.320          43.800          34.600
 128421535.330 7  99883418.344 6                  23981819.480    23981822.360
  23981821.420          43.000          38.200
 122417733.670 7  95213814.809 5                  22908804.540    22908808.660
  22908807.040          43.000          34.650
 110785824.730 7  86166698.172 6                  20746591.480    20746594.220
  20746591.640          47.900          36.650
 110815793.862 8  86190062.771 7                  20715788.540    20715789.200
  20715787.540          48.050          45.300
 105456402.668 8  82021693.749 7                  19783339.180    19783345.520
  19783344.420          48.550          42.650
 119858104.223 7  93222953.963 7                  22398302.640    22398304.160
  22398303.360          46.300          42.100
 148359849.068 7                 110788223.270 6  28231936.100
                        43.250
 15  1 27 22  1  5.0000000  0 18G14G31G06G24G12G25G29G02R02R20R01R08
                                R11R09R19R10R21E19
 113596376.740 8  88516658.88547                  21616663.280
  21616658.520          48.850          44.200
 123095417.543 7  95918507.295 7                  23424275.640    23424271.260
  23424270.320          47.250          43.000
 130960934.318 7 102047487.931 6  97795506.027 7  24921034.100    24921033.220
  24921032.100          42.800          39.800
 118709964.416 8  92501357.235 7  88647151.674 8  22589722.760    22589721.320
  22589720.700          48.900          47.050
 113201701.658 8  88209229.761 7                  21541501.080    21541496.040
  21541495.160          50.800          46.400
 107505562.335 8  83770677.068 8  80280261.070 8  20457583.720    20457581.940
  20457581.080          49.950          49.300
 108731293.241 8  84725839.683 8                  20690809.440    20690806.240
  20690805.640          49.600          48.600
 122859315.379 8  95734522.60346                  23379341.280
  23379333.720          48.050          41.400
 131171495.731 6 102022267.205 5                  24581481.580    24581484.660
  24581483.780          39.550          34.950
 104764930.989 7  81483867.557 7                  19591519.880    19591523.860
  19591521.700          44.350          47.100
 125618579.462 7  97703362.226 5                  23499556.560    23499560.120
  23499560.120          43.850          34.950
 128437984.256 7  99896211.926 6                  23984891.220    23984894.060
  23984893.120          42.800          37.950
 122401181.686 7  95200941.053 5                  22905707.060    22905711.060
  22905709.600          43.150          34.850
 110794983.863 7  86173821.943 6                  20748306.740    20748309.400
  20748306.880          47.650          36.650
 110828486.103 8  86199934.516 7                  20718161.260    20718161.900
  20718160.240          48.050          45.400
 105449566.616 8  82016376.815 7                  19782056.800    19782063.140
  19782062.000          48.350          42.900
 119836556.682 7  93206194.773 7                  22394275.920    22394277.500
  22394276.680          46.150          42.350
 148372541.385 7                 110797701.275 6  28234351.400
                        43.700
 15  1 27 22  1 10.0000000  0 18G14G31G06G24G12G25G29G02R02R20R01R08
                                R11R09R19R10R21E19
 113598235.265 8  88518107.08847                  21617016.940
  21617012.180          48.850          44.000
 123080321.592 7  95906744.231 7                  23421402.940    23421398.580
  23421397.620          47.200          42.900
 130969311.977 7 102054015.981 6  97801762.062 7  24922628.260    24922627.420
  24922626.240          42.800          40.200
 118724195.601 8  92512446.473 7  88657778.844 8  22592430.840    22592429.440
  22592428.820          48.950          47.350
 113211612.011 8  88216952.122 7                  21543387.000    21543381.900
  21543380.980          50.350          46.400
 107505259.314 8  83770440.946 8  80280034.786 8  20457526.020    20457524.280
  20457523.420          50.100          49.300
 108721308.340 8  84718059.244 8                  20688909.380    20688906.180
  20688905.600          49.800          48.450
 122857789.380 7  95733333.52147                  23379050.840
  23379043.300          47.850          42.350
 131163350.064 6 102015931.684 5                  24579955.200    24579958.220
  24579957.580          40.700          33.850
 104756310.413 7  81477162.667 7                  19589907.780    19589911.800
  19589909.620          44.850          47.150
 125624717.525 7  97708136.267 5                  23500704.880    23500708.480
  23500708.460          44.300          35.600
 128454438.987 7  99909010.050 6                  23987964.000    23987966.920
  23987965.820          42.650          37.500
 122384630.446 7  95188067.886 5                  22902609.680    22902613.700
  22902612.360          43.750          34.800
 110804154.515 7  86180954.670 6                  20750024.120    20750026.780
  20750024.240          47.750          36.800
 110841196.871 8  86209820.662 7                  20720537.440    20720538.040
  20720536.400          48.350          45.400
 105442741.054 8  82011068.041 7                  19780776.360    19780782.660
  19780781.560          48.750          43.050
 119815017.155 7  93189441.826 7                  22390250.720    22390252.320
  22390251.500          46.450          42.300
 148385233.559 7                 110807179.157 6  28236766.680
                        43.700
 15  1 27 22  1 15.0000000  0 18G14G31G06G24G12G25G29G02R02R20R01R08
                                R11R09R19R10R21E19
 113600108.491 8  88519566.74147                  21617373.420
  21617368.660          48.900          44.250
 123065226.745 7  95894982.012 7                  23418530.440    23418526.060
  23418525.140          46.850          42.850
 130977701.397 7 102060553.191 6  97808026.874 7  24924224.680    24924223.860
  24924222.680          42.900          40.600
 118738432.777 8  92523540.370 7  88668410.511 8  22595140.120    22595138.660
  22595138.060          48.850          47.050
 113221525.049 8  88224676.566 7                  21545273.340    21545268.280
  21545267.320          49.800          46.400
 107504962.147 8  83770209.389 8  80279812.884 8  20457469.460    20457467.740
  20457466.880          50.000          49.350
 108711335.310 8  84710288.063 8                  20687011.600    20687008.400
  20687007.780          49.800          48.350
 122856275.021 7  95732153.50946                  23378762.600
  23378755.160          47.950          40.850
 131155220.342 6 102009608.558 5                  24578431.680    24578434.820
  24578434.240          41.950          33.900
 104747709.635 7  81470473.179 7                  19588299.440    19588303.400
  19588301.240          44.900          47.150
 125630871.690 7  97712922.842 5                  23501856.180    23501859.800
  23501859.820          44.100          35.750
 128470896.784 7  99921810.540 6                  23991037.380    23991040.340
  23991039.160          42.600          37.150
 122368077.175 7  95175193.128 5                  22899511.940    22899516.160
  22899514.600          44.100          34.600
 110813333.882 7  86188094.177 6                  20751743.120    20751745.740
  20751743.220          47.950          36.700
 110853923.396 8  86219719.070 7                  20722916.560    20722917.140
  20722915.480          48.250          45.450
 105435923.142 8  82005765.228 7                  19779497.360    19779503.700
  19779502.560          48.800          42.950
 119793482.912 7  93172692.981 7                  22386226.500    22386228.160
  22386227.320          46.300          42.250
 148397922.833 7                 110816654.868 6  28239181.440
                        43.150
 15  1 27 22  1 20.0000000  0 18G14G31G06G24G12G25G29G02R02R20R01R08
                                R11R09R19R10R21E19
 113601999.095 8  88521039.93147                  21617733.160
  21617728.420          49.000          43.700
 123050135.649 7  95883222.729 7                  23415658.660    23415654.280
  23415653.360          46.750          42.200
 130986105.218 7 102067101.613 6  97814302.463 7  24925823.840    24925823.080
  24925821.840          42.700          40.650
 118752678.690 8  92534641.077 7  88679048.689 8  22597851.020    22597849.560
  22597848.980          48.900          47.150
 113231443.474 8  88232405.203 7                  21547160.660    21547155.680
  21547154.740          49.250          46.550
 107504673.527 8  83769984.491 8  80279597.354 8  20457414.520    20457412.800
  20457411.960          49.800          49.300
 108701376.808 8  84702528.188 8                  20685116.580    20685113.360
  20685112.740          49.850          48.250
 122854774.955 7  95730984.62046                  23378477.080
  23378469.720          47.900          41.950
 131147108.997 6 102003299.743 5                  24576911.640    24576914.720
  24576914.220          41.650          34.900
 104739131.291 7  81463801.125 7                  19586695.220    19586699.200
  19586697.060          44.850          47.150
 125637044.956 7  97717724.277 5                  23503011.080    23503014.640
  23503014.720          43.450          35.250
 128487360.300 7  99934615.493 6                  23994111.760    23994114.820
  23994113.560          43.400          37.750
 122351524.646 7  95162318.935 5                  22896414.380    22896418.660
  22896416.940          44.550          34.400
 110822524.796 8  86195242.645 6                  20753464.280    20753466.800
  20753464.340          48.400          36.350
 110866668.531 8  86229631.947 7                  20725299.120    20725299.740
  20725298.020          48.100          45.350
 105429115.691 8  82000470.542 7                  19778220.360    19778226.720
  19778225.480          48.950          43.000
 119771956.670 7  93155950.347 7                  22382203.760    22382205.500
  22382204.600          46.200          42.050
 148410611.902 7                 110826130.402 6  28241596.140
                        43.000
 15  1 27 22  1 25.0000000  0 18G14G31G06G24G12G25G29G02R02R20R01R08
                                R11R09R19R10R21E19
 113603905.128 8  88522525.14947                  21618095.820
  21618091.160          48.900          44.050
 123035046.427 7  95871464.896 7                  23412787.220    23412782.880
  23412781.940          46.850          42.650
 130994521.557 7 102073659.811 6  97820587.381 7  24927425.400    24927424.600
  24927423.380          43.050          40.150
 118766931.428 8  92545747.111 7  88689691.968 8  22600563.200    22600561.760
  22600561.200          48.750          47.000
 113241365.289 8  88240136.476 7                  21549048.560    21549043.740
  21549042.820          49.250          46.800
 107504391.529 8  83769764.758 8  80279386.767 8  20457360.820    20457359.120
  20457358.300          49.600          49.300
 108691430.939 8  84694778.165 8                  20683223.960    20683220.720
  20683220.100          49.850          48.300
 122853287.249 8  95729825.37147                  23378193.940
  23378186.640          48.100          42.100
 131139014.482 6 101997004.005 5                  24575394.760    24575397.640
  24575397.320          40.850          35.550
 104730573.439 7  81457145.024 7                  19585094.900    19585098.840
  19585096.700          45.100          47.000
 125643235.020 7  97722538.767 5                  23504169.080    23504172.760
  23504172.720          43.150          34.900
 128503827.763 7  99947423.505 6                  23997186.920    23997190.000
  23997188.740          43.400          37.700
 122334970.862 7  95149443.762 5                  22893316.640    22893320.800
  22893319.080          44.650          35.350
 110831725.197 8  86202398.525 6                  20755187.220    20755189.740
  20755187.260          48.300          37.100
 110879430.233 8  86239557.723 7                  20727684.800    20727685.400
  20727683.680          48.250          45.350
 105422316.851 8  81995182.556 7                  19776944.940    19776951.240
  19776950.020          49.050          42.800
 119750436.466 7  93139212.428 7                  22378182.160    22378183.840
  22378183.040          46.100          42.300
 148423298.845 7                 110835604.348 6  28244010.460
                        42.700
 15  1 27 22  1 30.0000000  0 18G14G31G06G24G12G25G29G02R02R20R01R08
                                R11R09R19R10R21E19
 113605826.340 8  88524022.18947                  21618461.400
  21618456.740          48.700          44.400
 123019958.792 7  95859708.307 7                  23409916.100    23409911.800
  23409910.820          46.950          42.400
 131002950.111 7 102080227.505 6  97826881.441 7  24929029.340    24929028.540
  24929027.380          42.700          39.750
 118781190.654 8  92556858.194 7  88700340.089 8  22603276.640    22603275.220
  22603274.660          48.750          47.050
 113251290.282 8  88247870.219 7                  21550937.060    21550932.400
  21550931.520          49.100          46.700
 107504115.860 8  83769549.943 8  80279180.917 8  20457308.360    20457306.660
  20457305.840          49.350          49.250
 108681497.489 8  84687037.811 8                  20681333.720    20681330.440
  20681329.820          49.900          48.250
 122851811.656 8  95728675.56146                  23377913.120
  23377905.840          48.400          41.250
 131130936.390 6 101990721.057 6                  24573880.900    24573883.820
  24573883.420          40.250          36.200
 104722035.840 7  81450504.676 7                  19583498.320    19583502.260
  19583500.140          45.000          47.050
 125649441.762 7  97727366.236 5                  23505330.120    23505333.840
  23505333.760          42.350          34.900
 128520298.586 7  99960234.081 6                  24000262.700    24000265.680
  24000264.500          42.400          36.800
 122318415.667 7  95136567.507 5                  22890218.620    22890222.720
  22890221.000          44.700          35.000
 110840934.825 8  86209561.567 6                  20756911.880    20756914.500
  20756911.940          48.300          36.750
 110892208.129 8  86249496.085 7                  20730073.500    20730074.100
  20730072.360          48.250          45.450
 105415526.162 8  81989900.904 7                  19775671.060    19775677.360
  19775676.100          49.100          42.750
 119728922.140 7  93122479.061 7                  22374161.700    22374163.380
  22374162.540          46.100          42.150
 148435983.331 7                 110845076.492 6  28246424.300
                        42.650
 15  1 27 22  1 35.0000000  0 18G14G31G06G24G12G25G29G02R02R20R01R08
                                R11R09R19R10R21E19
 113607765.125 8  88525532.93147                  21618830.320
  21618825.680          48.450          44.250
 123004875.124 7  95847954.792 7                  23407045.720    23407041.380
  23407040.440          47.150          42.750
 131011393.276 7 102086806.593 6  97833186.403 7  24930636.020    24930635.200
  24930634.080          42.800          40.350
 118795458.922 8  92567976.318 7  88710994.956 8  22605991.780    22605990.380
  22605989.820          48.650          47.150
 113261220.862 8  88255608.317 7                  21552826.660    21552822.140
  21552821.320          49.250          46.850
 107503848.939 8  83769341.948 8  80278981.584 8  20457257.540    20457255.860
  20457255.040          49.400          49.250
 108671578.794 8  84679308.957 8                  20679446.280    20679442.980
  20679442.340          49.750          48.250
 122850350.580 8  95727537.05446                  23377635.080
  23377627.800          48.250          41.350
 131122877.081 6 101984452.747 5                  24572370.480    24572373.560
  24572373.040          41.200          35.600
 104713520.936 7  81443881.981 7                  19581906.020    19581909.940
  19581907.800          44.750          46.900
 125655667.487 7  97732208.435 5                  23506494.760    23506498.540
  23506498.380          43.050          34.250
 128536775.369 7  99973049.344 6                  24003339.660    24003342.600
  24003341.380          42.100          37.350
 122301861.378 7  95123691.964 5                  22887120.820    22887124.960
  22887123.140          44.150          35.050
 110850156.194 8  86216733.734 6                  20758638.760    20758641.320
  20758638.820          48.100          36.400
 110905004.789 8  86259449.041 7                  20732465.720    20732466.320
  20732464.560          48.350          45.350
 105408746.238 8  81984627.630 7                  19774399.180    19774405.420
  19774404.200          48.700          42.800
 119707416.058 7  93105752.110 7                  22370142.740    22370144.500
  22370143.560          45.950          42.000
 148448667.794 7                 110854548.579 6  28248838.120
                        42.600
 15  1 27 22  1 40.0000000  0 18G14G31G06G24G12G25G29G02R02R20R01R08
                                R11R09R19R10R21E19
 113609719.588 8  88527055.89347                  21619202.200
  21619197.620          48.600          44.200
 122989793.595 7  95836202.961 7                  23404175.780    23404171.480
  23404170.520          47.250          42.950
 131019849.157 7 102093395.593 6  97839500.859 7  24932245.140    24932244.260
  24932243.240          43.000          39.900
 118809734.155 8  92579099.877 7  88721655.043 8  22608708.260    22608706.860
  22608706.300          48.700          47.150
 113271155.086 8  88263349.261 7                  21554717.020    21554712.560
  21554711.820          49.900          47.050
 107503588.875 8  83769139.303 8  80278787.375 8  20457208.040    20457206.360
  20457205.560          49.650          49.350
 108661672.960 8  84671590.131 8                  20677561.280    20677557.980
  20677557.320          49.750          48.400
 122848902.085 8  95726408.36046                  23377359.440
  23377352.160          48.400          41.650
 131114834.800 7 101978197.635 5                  24570863.360    24570866.400
  24570865.980          42.600          35.150
 104705026.882 7  81437275.503 7                  19580317.560    19580321.500
  19580319.360          44.650          46.800
 125661910.338 7  97737063.977 5                  23507662.600    23507666.420
  23507666.220          42.300          34.350
 128553256.064 7  99985867.685 6                  24006417.320    24006420.240
  24006419.040          42.700          37.900
 122285306.162 7  95110815.670 5                  22884022.740    22884026.820
  22884025.040          43.450          35.550
 110859387.393 7  86223913.558 6                  20760367.500    20760370.020
  20760367.560          47.650          36.900
 110917818.152 8  86269414.994 7                  20734861.020    20734861.660
  20734859.900          48.800          45.300
 105401975.026 8  81979361.139 7                  19773128.940    19773135.160
  19773133.920          48.700          42.600
 119685916.301 7  93089030.088 7                  22366125.020    22366126.720
  22366125.800          46.150          42.250
 148461350.304 7                 110864019.238 6  28251251.520
                        42.700
 15  1 27 22  1 45.0000000  0 18G14G31G06G24G12G25G29G02R02R20R01R08
                                R11R09R19R10R21E19
 113611690.965 8  88528592.02747                  21619577.320
  21619572.740          48.850          44.100
 122974715.477 7  95824453.776 7                  23401306.500    23401302.220
  23401301.240          47.450          43.150
 131028318.981 7 102099995.460 6  97845825.728 7  24933856.940    24933856.060
  24933855.020          42.400          39.950
 118824017.649 8  92590229.878 7  88732321.292 8  22611426.300    22611424.920
  22611424.380          48.400          47.050
 113281094.227 8  88271094.047 7                  21556608.380    21556603.920
  21556603.240          50.300          46.900
 107503336.893 8  83768942.962 8  80278599.218 8  20457160.080    20457158.420
  20457157.600          49.700          49.200
 108651781.265 8  84663882.323 8                  20675678.980    20675675.660
  20675675.000          49.800          48.350
 122847467.431 8  95725290.45447                  23377086.460
  23377079.120          48.500          42.200
 131106810.683 6 101971956.608 5                  24569359.620    24569362.660
  24569362.320          41.550          35.700
 104696554.835 7  81430686.133 7                  19578733.240    19578737.160
  19578735.040          44.250          46.750
 125668171.643 7  97741933.866 5                  23508833.840    23508837.700
  23508837.540          42.300          34.800
 128569742.038 6  99998690.101 6                  24009495.940    24009498.940
  24009497.780          41.950          38.650
 122268751.285 7  95097939.686 5                  22880924.740    22880928.900
  22880927.060          44.200          35.050
 110868629.544 7  86231101.895 6                  20762098.240    20762100.820
  20762098.320          47.650          36.700
 110930649.566 8  86279394.983 7                  20737259.720    20737260.380
  20737258.600          48.800          45.000
 105395213.842 8  81974102.444 7                  19771860.560    19771866.800
  19771865.500          48.250          42.550
 119664424.247 7  93072314.062 7                  22362108.680    22362110.400
  22362109.520          45.750          42.350
 148474032.134 7                 110873489.387 6  28253664.860
                        42.800
 15  1 27 22  1 50.0000000  0 18G14G31G06G24G12G25G29G02R02R20R01R08
                                R11R09R19R10R21E19
 113613678.022 8  88530140.37747                  21619955.420
  21619950.840          48.850          43.950
 122959639.448 7  95812706.219 7                  23398437.620    23398433.320
  23398432.400          47.650          43.250
 131036801.512 6 102106605.221 6  97852160.099 7  24935471.140    24935470.300
  24935469.180          41.700          39.700
 118838308.166 8  92601365.340 7  88742992.770 8  22614145.680    22614144.340
  22614143.780          48.200          47.200
 113291037.053 8  88278841.686 7                  21558500.480    21558495.980
  21558495.380          50.600          47.050
 107503091.764 8  83768751.954 8  80278416.168 8  20457113.440    20457111.760
  20457110.940          49.850          49.300
 108641902.466 8  84656184.560 8                  20673799.140    20673795.760
  20673795.120          49.950          48.350
 122846045.398 8  95724182.37846                  23376815.860
  23376808.520          48.350          41.650
 131098803.442 6 101965728.777 6                  24567859.100    24567862.080
  24567861.760          41.950          36.000
 104688103.667 7  81424112.994 7                  19577152.860    19577156.740
  19577154.600          44.000          46.750
 125674450.051 7  97746817.093 5                  23510008.260    23510012.260
  23510012.020          42.850          34.750
 128586231.992 7 100011515.594 6                  24012575.340    24012578.320
  24012577.240          42.150          37.450
 122252195.508 7  95085062.980 5                  22877826.600    22877830.620
  22877828.820          44.600          34.600
 110877881.550 7  86238297.888 6                  20763830.800    20763833.340
  20763830.940          47.700          36.750
 110943497.654 8  86289387.932 7                  20739661.560    20739662.200
  20739660.420          48.700          45.100
 105388461.648 8  81968850.729 7                  19770593.860    19770600.120
  19770598.780          48.350          42.550
 119642938.553 7  93055602.973 7                  22358093.560    22358095.300
  22358094.360          45.800          42.300
 148486711.988 7                 110882958.040 6  28256077.780
                        43.350
 15  1 27 22  1 55.0000000  0 18G14G31G06G24G12G25G29G02R02R20R01R08
                                R11R09R19R10R21E19
 113615681.331 8  88531701.40347                  21620336.620
  21620332.040          48.800          44.250
 122944566.177 7  95800960.817 7                  23395569.260    23395564.940
  23395564.080          47.750          43.450
 131045297.354 7 102113225.364 6  97858504.387 7  24937087.840    24937087.000
  24937085.900          42.000          39.850
 118852606.248 8  92612506.704 7  88753669.913 8  22616866.480    22616865.200
  22616864.620          48.100          47.300
 113300984.102 8  88286592.639 7                  21560393.440    21560388.840
  21560388.320          50.750          47.100
 107502854.084 8  83768566.751 8  80278238.679 8  20457068.220    20457066.540
  20457065.700          49.800          49.250
 108632037.156 8  84648497.307 8                  20671921.860    20671918.460
  20671917.780          49.900          48.500
 122844636.586 8  95723084.61346                  23376547.800
  23376540.400          48.300          41.500
 131090813.837 6 101959514.660 5                  24566361.860    24566364.980
  24566364.440          41.150          35.850
 104679673.892 7  81417556.508 7                  19575576.440    19575580.340
  19575578.160          43.650          46.800
 125680746.203 7  97751714.092 5                  23511186.080    23511190.080
  23511189.840          42.800          35.150
 128602726.414 7 100024344.614 6                  24015655.620    24015658.600
  24015657.480          42.650          37.150
 122235639.418 7  95072186.007 5                  22874728.420    22874732.340
  22874730.540          44.150          35.350
 110887143.913 7  86245501.939 6                  20765565.280    20765567.820
  20765565.480          47.500          36.750
 110956363.066 8  86299394.367 7                  20742066.640    20742067.240
  20742065.480          48.400          45.150
 105381718.758 8  81963606.271 7                  19769328.900    19769335.140
  19769333.780          48.000          42.300
 119621459.935 7  93038897.388 7                  22354079.720    22354081.500
  22354080.560          45.700          42.400
 148499390.481 7                 110892425.697 6  28258490.460
                        43.300
 15  1 27 22  2  0.0000000  0 18G14G31G06G24G12G25G29G02R02R20R01R08
                                R11R09R19R10R21E19
 113617700.424 8  88533274.72247                  21620720.800
  21620716.260          48.800          44.150
 122929495.182 7  95789217.191 7                  23392701.340    23392697.040
  23392696.160          47.700          43.650
 131053805.979 6 102119855.455 6  97864858.246 7  24938706.960    24938706.160
  24938705.100          41.800          39.750
 118866911.479 7  92623653.638 7  88764352.389 8  22619588.660    22619587.380
  22619586.840          47.950          47.350
 113310934.953 8  88294346.553 7                  21562287.160    21562282.440
  21562281.960          50.950          47.050
 107502623.354 8  83768386.961 8  80278066.389 8  20457024.300    20457022.620
  20457021.780          49.800          49.250
 108622184.895 8  84640820.221 8                  20670047.040    20670043.620
  20670042.940          49.850          48.400
 122843240.541 8  95721996.78446                  23376282.160
  23376274.700          48.300          41.350
 131082841.327 6 101953313.769 6                  24564867.800    24564870.800
  24564870.320          40.750          36.950
 104671265.078 7  81411016.322 7                  19574003.960    19574007.840
  19574005.640          43.800          46.650
 125687059.362 7  97756624.323 5                  23512367.080    23512371.160
  23512370.820          43.300          35.050
 128619224.927 7 100037176.782 6                  24018736.620    24018739.680
  24018738.500          42.700          37.600
 122219082.387 7  95059308.335 5                  22871630.020    22871633.880
  22871632.220          43.650          35.850
 110896416.128 7  86252713.675 6                  20767301.640    20767304.280
  20767301.880          47.500          36.700
 110969245.291 8  86309413.873 7                  20744474.840    20744475.480
  20744473.680          48.450          45.000
 105374984.831 7  81958368.770 7                  19768065.620    19768071.820
  19768070.460          47.950          42.250
 119599987.855 7  93022196.889 7                  22350067.140    22350068.940
  22350067.980          45.300          42.550
 148512067.130 7                 110901891.978 6  28260902.780
