     2.11           OBSERVATION DATA    M (MIXED)           RINEX VERSION / TYPE
teqc  2011Oct11     IGN-E (SPG)         20150127 16:00:39UTCPGM / RUN BY / DATE
Linux 2.4.21-27.ELsmp|Opteron|gcc -static|Linux x86_64|=+   COMMENT
BIT 2 OF LLI FLAGS DATA COLLECTED UNDER A/S CONDITION       COMMENT
VALE                                                        MARKER NAME
13439M001                                                   MARKER NUMBER
Programas GeodesicosInstituto Geografico Nacional           OBSERVER / AGENCY
1700071             LEICA GR10          3.03/6.214          REC # / TYPE / VERS
10190012            LEIAR25.R3      LEIT                    ANT # / TYPE
  4929534.0457   -29050.6755  4033709.9250                  APPROX POSITION XYZ
        3.0390        0.0000        0.0000                  ANTENNA: DELTA H/E/N
     1     1                                                WAVELENGTH FACT L1/2
     8    L1    L2    L5    C1    C2    P2    S1    S2      # / TYPES OF OBSERV
     5.0000                                                 INTERVAL
Forced Modulo Decimation to 5 seconds                       COMMENT
DefaultJobName                                              COMMENT
DefaultUserDiscription                                      COMMENT
Project creator:                                            COMMENT
 SNR is mapped to RINEX snr flag value [0-9]                COMMENT
  L1 & L2: min(max(int(snr_dBHz/6), 0), 9)                  COMMENT
  2015     1    27    15     0    0.0000000     GPS         TIME OF FIRST OBS
    15                                                      LEAP SECONDS
                                                            END OF HEADER
 15  1 27 15  0  0.0000000  0 16G30G07G13G02G15G28G09G10G05R14R05R21
                                R13R03R04R15
 109538621.306 8  85354861.212 8  81798422.457 8  20844472.460    20844472.300
  20844471.600          50.450          49.400
 119623123.282 7  93212891.723 7                  22763500.360    22763498.780
  22763498.220          47.700          44.200
 113821355.871 8  88692027.98847                  21659462.000
  21659459.200          49.950          43.700
 121486413.949 7  94664726.71446                  23118099.260
  23118097.280          47.650          39.800
 130257637.025 7 101499467.463 6                  24787200.480    24787202.280
  24787201.580          43.850          39.700
 117691452.097 8  91707749.93646                  22395877.380
  22395875.000          49.750          41.650
 130178168.757 7 101437545.495 6  97210987.374 7  24772080.100    24772082.340
  24772082.040          44.250          40.950
 116256137.402 8  90589211.16547                  22122804.600
  22122803.000          49.250          44.300
 107953724.474 8  84119801.416 8                  20542896.420    20542893.900
  20542893.140          49.600          49.250
 103464585.274 7  80472548.973 6                  19409651.360    19409658.960
  19409658.240          42.850          41.500
 111531374.076 8  86746668.912 7                  20864236.880    20864241.060
  20864240.560          48.600          45.600
 130108617.925 6 101195628.949 5                  24313907.200    24313913.800
  24313912.940          40.900          33.950
 123677590.371 6  96193775.725 6                  23160814.460    23160821.300
  23160819.760          38.050          40.600
 119563316.332 7  92993706.527 6                  22335433.600    22335438.220
  22335436.800          45.300          41.800
 103608506.287 8  80584435.864 7                  19348146.280    19348148.320
  19348147.240          49.000          47.100
 106782777.972 7  83053419.661 7                  19982887.560    19982894.960
  19982892.960          47.400          46.200
 15  1 27 15  0  5.0000000  0 16G30G07G13G02G15G28G09G10G05R14R05R21
                                R13R03R04R15
 109546808.956 8  85361241.199 8  81804536.608 8  20846030.500    20846030.360
  20846029.660          50.400          49.300
 119637532.390 7  93224119.584 7                  22766242.280    22766240.740
  22766240.160          47.850          43.750
 113811768.135 8  88684557.03147                  21657637.500
  21657634.720          49.900          42.850
 121500646.653 7  94675817.10146                  23120807.680
  23120805.660          47.850          39.050
 130243176.297 7 101488199.365 6                  24784448.640    24784450.440
  24784449.780          43.900          39.650
 117680649.357 8  91699332.23346                  22393821.680
  22393819.280          49.800          41.500
 130191940.595 7 101448276.798 6  97221271.516 8  24774700.820    24774703.020
  24774702.700          44.700          40.750
 116271101.570 8  90600871.53547                  22125652.160
  22125650.580          49.450          44.000
 107950216.617 8  84117068.019 8                  20542228.900    20542226.360
  20542225.600          49.750          49.100
 103471252.686 7  80477734.729 6                  19410902.200    19410909.820
  19410909.040          42.550          40.300
 111516352.837 8  86734985.724 7                  20861426.800    20861431.000
  20861430.480          48.450          44.050
 130113562.256 6 101199474.536 5                  24314831.080    24314837.840
  24314836.980          38.750          32.350
 123698145.499 6  96209763.030 6                  23164663.860    23164670.640
  23164669.100          37.850          38.900
 119579496.793 7  93006291.302 6                  22338456.260    22338460.860
  22338459.460          45.350          40.950
 103610014.872 8  80585609.193 7                  19348427.980    19348430.020
  19348428.940          48.900          45.700
 106769841.601 7  83043358.039 7                  19980466.700    19980474.100
  19980472.100          47.300          44.800
 15  1 27 15  0 10.0000000  0 16G30G07G13G02G15G28G09G10G05R14R05R21
                                R13R03R04R15
 109555007.599 8  85367629.763 8  81810658.983 8  20847590.640    20847590.520
  20847589.840          50.450          49.550
 119651945.938 7  93235350.920 7                  22768985.100    22768983.520
  22768982.980          47.950          44.500
 113802184.963 8  88677089.63447                  21655813.900
  21655811.060          50.000          43.300
 121514884.213 7  94686911.27946                  23123517.060
  23123515.000          47.850          40.750
 130228715.945 7 101476931.568 6                  24781696.920    24781698.700
  24781698.120          44.100          40.400
 117669856.416 8  91690922.17346                  22391767.840
  22391765.440          49.850          41.300
 130205713.572 7 101459008.999 6  97231556.546 7  24777321.700    24777323.960
  24777323.580          44.000          41.750
 116286073.717 8  90612538.14447                  22128501.240
  22128499.700          49.650          44.300
 107946722.523 8  84114345.358 8                  20541563.980    20541561.480
  20541560.680          49.900          49.350
 103477939.037 7  80482935.223 6                  19412156.540    19412164.120
  19412163.400          42.950          41.700
 111501338.028 8  86723307.558 7                  20858617.920    20858622.160
  20858621.620          48.850          45.600
 130118524.289 6 101203333.907 5                  24315758.340    24315765.180
  24315764.260          38.400          33.800
 123718704.254 6  96225753.157 6                  23168513.940    23168520.600
  23168519.120          37.900          40.150
 119595685.797 7  93018882.740 7                  22341480.560    22341485.060
  22341483.700          45.350          42.050
 103611538.613 8  80586794.319 7                  19348712.500    19348714.560
  19348713.440          48.650          47.000
 106756922.348 7  83033309.744 7                  19978049.020    19978056.460
  19978054.440          47.550          46.250
 15  1 27 15  0 15.0000000  0 16G30G07G13G02G15G28G09G10G05R14R05R21
                                R13R03R04R15
 109563217.554 8  85374027.135 7  81816789.790 8  20849152.900    20849152.840
  20849152.140          50.300          47.900
 119666364.231 7  93246585.952 7                  22771728.800    22771727.240
  22771726.660          47.850          42.600
 113792606.678 8  88669626.04446                  21653991.200
  21653988.360          50.000          41.600
 121529126.938 7  94698009.48646                  23126227.400
  23126225.320          47.700          37.250
 130214256.297 7 101465664.335 6                  24778945.320    24778947.080
  24778946.600          44.550          38.500
 117659073.619 8  91682520.01646                  22389715.920
  22389713.540          49.850          39.250
 130219488.029 7 101469742.311 6  97241842.660 7  24779942.860    24779945.200
  24779944.800          44.300          39.700
 116301054.155 8  90624211.20447                  22131351.880
  22131350.380          49.600          42.250
 107943242.565 8  84111633.709 7                  20540901.760    20540899.260
  20540898.440          49.950          47.750
 103484644.584 7  80488150.650 6                  19413414.480    19413422.000
  19413421.360          42.950          40.500
 111486329.973 8  86711634.643 7                  20855810.320    20855814.600
  20855814.040          48.900          44.800
 130123504.321 6 101207207.176 5                  24316688.920    24316695.640
  24316694.880          39.350          32.700
 123739266.903 6  96241746.317 6                  23172364.660    23172371.340
  23172369.840          37.950          39.200
 119611883.773 7  93031481.163 6                  22344506.500    22344510.980
  22344509.640          45.900          40.850
 103613077.957 8  80587991.588 7                  19348999.980    19349002.000
  19349000.880          48.650          46.100
 106744020.722 7  83023275.164 7                  19975634.640    19975642.100
  19975640.100          47.700          44.850
 15  1 27 15  0 20.0000000  0 16G30G07G13G02G15G28G09G10G05R14R05R21
                                R13R03R04R15
 109571438.997 8  85380433.452 8  81822929.173 8  20850717.340    20850717.320
  20850716.640          50.150          49.000
 119680787.488 7  93257824.847 7                  22774473.440    22774471.880
  22774471.320          47.950          43.600
 113783033.509 8  88662166.44047                  21652169.460
  21652166.620          49.900          42.950
 121543374.973 7  94709111.82546                  23128938.780
  23128936.700          47.650          38.950
 130199797.593 7 101454397.834 6                  24776193.940    24776195.640
  24776195.240          44.400          39.950
 117648301.188 8  91674125.94146                  22387665.960
  22387663.580          49.800          41.400
 130233264.144 7 101480476.946 6  97252130.001 7  24782564.320    24782566.700
  24782566.320          43.100          40.700
 116316043.074 8  90635890.86747                  22134204.140
  22134202.700          49.550          43.900
 107939776.943 8  84108933.224 8                  20540242.280    20540239.780
  20540238.940          49.900          48.800
 103491369.539 7  80493381.169 6                  19414676.080    19414683.520
  19414682.940          43.050          41.400
 111471329.007 8  86699967.231 7                  20853004.020    20853008.320
  20853007.820          48.900          46.000
 130128502.395 6 101211094.573 5                  24317622.880    24317629.740
  24317628.980          38.650          34.650
 123759834.080 6  96257743.004 6                  23176216.320    23176222.980
  23176221.460          37.750          40.500
 119628090.811 7  93044086.623 6                  22347534.140    22347538.620
  22347537.260          45.900          41.950
 103614633.043 8  80589201.092 7                  19349290.400    19349292.420
  19349291.260          48.800          47.250
 106731136.997 7  83013254.508 7                  19973223.600    19973231.080
  19973229.100          47.650          46.350
 15  1 27 15  0 25.0000000  0 16G30G07G13G02G15G28G09G10G05R14R05R21
                                R13R03R04R15
 109579671.627 8  85386848.480 8  81829076.922 8  20852283.920    20852283.940
  20852283.260          50.050          49.100
 119695215.417 7  93269067.377 7                  22777219.020    22777217.440
  22777216.860          47.700          43.700
 113773465.122 8  88654710.55847                  21650348.640
  21650345.780          49.750          43.250
 121557628.001 7  94720218.05446                  23131651.100
  23131649.020          47.050          39.550
 130185339.458 7 101443131.780 6                  24773442.700    24773444.380
  24773443.920          44.100          39.800
 117637538.802 8  91665739.68446                  22385617.920
  22385615.560          49.650          41.600
 130247041.649 7 101491212.632 6  97262418.368 7  24785185.940    24785188.540
  24785188.220          42.950          41.200
 116331040.139 8  90647576.87547                  22137057.980
  22137056.560          49.600          43.800
 107936325.349 8  84106243.672 8                  20539585.460    20539582.980
  20539582.120          49.700          48.800
 103498113.493 7  80498626.472 6                  19415941.260    19415948.760
  19415948.080          42.800          41.350
 111456334.658 8  86688304.964 7                  20850198.980    20850203.360
  20850202.840          48.800          45.950
 130133518.360 6 101214995.895 5                  24318560.280    24318567.140
  24318566.380          38.600          33.950
 123780405.067 6  96273742.638 6                  23180068.680    23180075.280
  23180073.780          38.150          39.650
 119644306.728 7  93056698.995 6                  22350563.400    22350567.860
  22350566.500          45.850          41.600
 103616203.601 8  80590422.634 7                  19349583.700    19349585.720
  19349584.540          48.650          47.150
 106718270.802 7  83003247.473 7                  19970815.880    19970823.360
  19970821.360          47.100          46.000
 15  1 27 15  0 30.0000000  0 16G30G07G13G02G15G28G09G10G05R14R05R21
                                R13R03R04R15
 109587913.964 8  85393271.080 8  81835231.910 8  20853852.360    20853852.380
  20853851.740          50.150          49.350
 119709646.514 7  93280312.386 7                  22779965.220    22779963.540
  22779963.020          47.650          44.050
 113763900.087 8  88647257.30347                  21648528.440
  21648525.580          49.850          43.300
 121571884.587 7  94731327.06546                  23134364.020
  23134361.980          46.650          39.800
 130170880.462 7 101431865.046 6                  24770691.260    24770692.880
  24770692.580          44.250          40.600
 117626785.073 8  91657360.18046                  22383571.520
  22383569.180          49.600          41.550
 130260819.015 7 101501948.217 7  97272706.651 8  24787807.600    24787810.360
  24787810.060          43.900          42.350
 116346043.919 8  90659268.12647                  22139913.100
  22139911.720          49.650          44.050
 107932886.346 8  84103563.934 8                  20538931.020    20538928.560
  20538927.700          49.800          49.000
 103504875.072 7  80503885.478 6                  19417209.740    19417217.220
  19417216.500          42.850          40.700
 111441345.618 8  86676646.838 7                  20847394.960    20847399.360
  20847398.860          48.900          45.450
 130138550.657 6 101218909.898 5                  24319500.540    24319507.500
  24319506.780          38.200          32.200
 123800978.411 6  96289744.124 6                  23183921.420    23183928.080
  23183926.520          38.000          39.350
 119660529.944 7  93069317.033 6                  22353594.040    22353598.440
  22353597.120          45.800          40.800
 103617788.097 8  80591655.022 7                  19349879.600    19349881.600
  19349880.440          48.700          46.650
 106705420.608 7  82993252.889 7                  19968411.140    19968418.580
  19968416.620          47.100          45.350
 15  1 27 15  0 35.0000000  0 16G30G07G13G02G15G28G09G10G05R14R05R21
                                R13R03R04R15
 109596169.675 8  85399704.101 8  81841396.893 8  20855423.340    20855423.380
  20855422.740          50.250          49.400
 119724084.500 7  93291562.757 7                  22782712.720    22782711.040
  22782710.500          47.700          44.300
 113754342.061 8  88639809.49847                  21646709.600
  21646706.740          49.900          43.800
 121586148.379 7  94742441.67846                  23137078.320
  23137076.220          46.700          40.150
 130156424.306 7 101420600.524 6                  24767940.360    24767942.000
  24767941.740          44.250          40.550
 117616043.610 8  91648990.22746                  22381527.460
  22381525.140          49.650          41.650
 130274599.969 7 101512686.596 6  97282997.612 7  24790430.040    24790432.860
  24790432.580          44.200          41.700
 116361058.050 8  90670967.43847                  22142770.180
  22142768.840          49.550          44.750
 107929463.607 8  84100896.865 8                  20538279.680    20538277.240
  20538276.380          49.800          49.150
 103511658.039 7  80509161.113 6                  19418482.240    19418489.660
  19418488.960          43.000          39.950
 111426365.454 8  86664995.597 7                  20844592.620    20844597.020
  20844596.520          48.950          44.300
 130143603.037 6 101222839.498 5                  24320444.700    24320451.460
  24320450.860          39.050          30.350
 123821557.974 6  96305750.445 6                  23187775.340    23187781.980
  23187780.420          37.800          38.100
 119676764.227 7  93081943.683 6                  22356626.760    22356631.120
  22356629.780          45.400          40.250
 103619390.270 8  80592901.165 7                  19350178.780    19350180.780
  19350179.640          48.800          45.650
 106692590.077 7  82983273.595 7                  19966010.060    19966017.540
  19966015.560          46.800          44.750
 15  1 27 15  0 40.0000000  0 16G30G07G13G02G15G28G09G10G05R14R05R21
                                R13R03R04R15
 109604436.119 8  85406145.499 8  81847569.897 8  20856996.360    20856996.440
  20856995.780          50.200          49.650
 119738526.707 7  93302816.420 7                  22785461.000    22785459.280
  22785458.800          47.450          43.950
 113744788.446 8  88632365.13147                  21644891.600
  21644888.780          49.850          43.950
 121600416.786 7  94753559.89846                  23139793.540
  23139791.420          46.650          39.650
 130141968.331 7 101409336.132 6                  24765189.460    24765191.120
  24765190.880          43.600          40.300
 117605311.808 8  91640627.81346                  22379485.240
  22379482.920          49.400          41.850
 130288381.862 7 101523425.742 7  97293289.283 7  24793052.660    24793055.480
  24793055.180          44.300          42.000
 116376079.921 8  90682672.78647                  22145628.760
  22145627.440          49.400          45.250
 107926054.521 8  84098240.436 8                  20537630.940    20537628.520
  20537627.640          49.550          49.350
 103518459.598 7  80514451.224 6                  19419758.160    19419765.600
  19419764.900          43.200          41.000
 111411391.720 8  86653349.375 7                  20841791.460    20841795.860
  20841795.360          48.700          45.350
 130148672.849 6 101226782.666 5                  24321392.120    24321398.880
  24321398.200          38.400          32.750
 123842140.864 6  96321759.357 6                  23191629.900    23191636.420
  23191634.960          37.800          39.050
 119693006.821 7  93094576.788 6                  22359661.020    22359665.400
  22359664.040          45.450          41.050
 103621007.563 8  80594159.061 7                  19350480.800    19350482.800
  19350481.680          48.800          46.800
 106679776.664 7  82973307.616 7                  19963612.200    19963619.680
  19963617.720          46.900          46.050
 15  1 27 15  0 45.0000000  0 16G30G07G13G02G15G28G09G10G05R14R05R21
                                R13R03R04R15
 109612713.874 8  85412595.700 8  81853751.333 8  20858571.540    20858571.660
  20858570.980          50.150          49.550
 119752973.656 7  93314073.777 7                  22788210.180    22788208.480
  22788207.980          47.350          44.000
 113735239.799 8  88624924.62747                  21643074.560
  21643071.720          49.900          43.750
 121614690.340 7  94764682.12646                  23142509.740
  23142507.620          46.800          39.950
 130127513.116 7 101398072.332 6                  24762438.680    24762440.360
  24762440.120          43.700          40.000
 117594590.248 8  91632273.36546                  22377444.940
  22377442.640          49.450          41.700
 130302165.253 7 101534166.040 6  97303582.073 7  24795675.600    24795678.380
  24795678.080          44.200          41.650
 116391110.082 8  90694384.58347                  22148488.900
  22148487.620          49.250          44.500
 107922659.682 8  84095595.106 8                  20536984.900    20536982.500
  20536981.620          49.500          49.250
 103525280.362 7  80519756.263 6                  19421037.740    19421045.200
  19421044.460          43.350          40.700
 111396424.958 8  86641708.570 7                  20838991.600    20838995.960
  20838995.520          48.450          45.000
 130153760.595 6 101230739.779 5                  24322342.980    24322349.800
  24322349.000          40.000          32.250
 123862727.665 6  96337771.303 6                  23195485.080    23195491.680
  23195490.220          38.400          39.200
 119709258.435 7  93107216.914 6                  22362696.980    22362701.360
  22362699.980          45.400          40.950
 103622640.420 8  80595429.049 7                  19350785.720    19350787.740
  19350786.620          48.850          46.600
 106666980.990 7  82963355.435 7                  19961217.640    19961225.160
  19961223.200          47.350          45.800
 15  1 27 15  0 50.0000000  0 16G30G07G13G02G15G28G09G10G05R14R05R21
                                R13R03R04R15
 109621002.219 8  85419054.150 8  81859940.681 8  20860148.740    20860148.880
  20860148.200          50.300          49.650
 119767424.617 7  93325334.264 7                  22790960.120    22790958.400
  22790957.940          47.600          44.100
 113725695.425 8  88617487.46547                  21641258.340
  21641255.500          49.800          43.750
 121628968.318 7  94775807.78446                  23145226.780
  23145224.700          46.950          40.150
 130113058.014 7 101386808.624 6                  24759687.940    24759689.660
  24759689.420          44.350          40.200
 117583878.250 8  91623926.37647                  22375406.480
  22375404.200          49.250          42.300
 130315949.481 7 101544906.983 6  97313875.461 7  24798298.720    24798301.460
  24798301.160          44.900          41.600
 116406147.804 8  90706102.28147                  22151350.520
  22151349.240          49.600          44.650
 107919278.361 8  84092960.315 8                  20536341.440    20536339.060
  20536338.200          49.650          49.250
 103532119.543 7  80525075.637 6                  19422320.760    19422328.240
  19422327.500          43.200          41.000
 111381464.406 8  86630072.583 7                  20836192.880    20836197.260
  20836196.840          48.600          45.500
 130158865.572 6 101234710.275 5                  24323297.020    24323303.800
  24323302.920          40.200          32.100
 123883317.887 6  96353785.907 6                  23199341.060    23199347.640
  23199346.160          38.350          39.250
 119725518.303 7  93119863.459 6                  22365734.440    22365738.860
  22365737.460          46.050          40.950
 103624288.273 8  80596710.710 7                  19351093.460    19351095.460
  19351094.340          48.700          46.800
 106654202.351 7  82953416.506 7                  19958826.280    19958833.820
  19958831.840          47.450          45.950
 15  1 27 15  0 55.0000000  0 16G30G07G13G02G15G28G09G10G05R14R05R21
                                R13R03R04R15
 109629303.033 8  85425522.325 8  81866139.354 8  20861728.300    20861728.460
  20861727.800          50.300          50.250
 119781881.519 7  93336599.378 7                  22793711.140    22793709.480
  22793709.020          47.650          45.200
 113716157.218 8  88610055.10647                  21639443.280
  21639440.420          49.800          45.200
 121643252.559 7  94786938.34546                  23147944.960
  23147942.940          46.900          40.250
 130098604.859 7 101375546.437 6                  24756937.580    24756939.300
  24756939.040          44.400          41.700
 117573177.718 8  91615588.32447                  22373370.180
  22373367.940          49.300          43.300
 130329736.424 7 101555650.057 7  97324170.899 7  24800922.420    24800925.080
  24800924.720          45.250          42.150
 116421195.002 8  90717827.36847                  22154213.920
  22154212.700          49.700          45.950
 107915912.484 8  84090337.558 8                  20535700.920    20535698.540
  20535697.720          49.750          50.050
 103538979.148 7  80530410.885 6                  19423607.640    19423615.060
  19423614.360          43.000          40.400
 111366511.956 8  86618442.908 7                  20833395.720    20833400.060
  20833399.660          48.650          44.750
 130163989.626 6 101238695.686 5                  24324254.560    24324261.400
  24324260.500          38.900          30.950
 123903913.339 6  96369804.590 6                  23203197.960    23203204.540
  23203203.060          38.000          38.850
 119741788.318 7  93132517.917 6                  22368773.800    22368778.260
  22368776.840          45.750          41.150
 103625952.930 8  80598005.450 7                  19351404.340    19351406.320
  19351405.200          48.600          46.200
 106641442.733 7  82943492.367 7                  19956438.540    19956446.020
  19956444.060          47.200          45.950
 15  1 27 15  1  0.0000000  0 16G30G07G13G02G15G28G09G10G05R14R05R21
                                R13R03R04R15
 109637612.645 8  85431997.349 8  81872344.587 8  20863309.540    20863309.720
  20863309.060          50.200          49.900
 119796340.710 7  93347866.272 7                  22796462.580    22796460.980
  22796460.500          47.800          44.600
 113706621.499 8  88602624.68447                  21637628.720
  21637625.840          49.850          44.050
 121657539.439 7  94798070.95046                  23150663.640
  23150661.720          47.000          40.150
 130084150.009 7 101364282.938 6                  24754186.900    24754188.640
  24754188.440          44.600          40.650
 117562485.092 8  91607256.42647                  22371335.400
  22371333.180          49.250          42.650
 130343522.392 7 101566392.383 6  97334465.624 7  24803545.900    24803548.420
  24803548.060          44.200          41.050
 116436247.991 8  90729556.96247                  22157078.440
  22157077.240          49.650          45.000
 107912558.324 8  84087723.929 8                  20535062.640    20535060.300
  20535059.460          49.750          49.800
 103545855.401 7  80535759.076 6                  19424897.580    19424905.020
  19424904.340          43.250          41.000
 111351563.983 8  86606816.726 7                  20830599.400    20830603.700
  20830603.320          48.750          45.000
 130169129.231 6 101242693.146 5                  24325215.040    24325221.900
  24325220.960          38.950          31.200
 123924510.174 6  96385824.342 6                  23207055.120    23207061.660
  23207060.220          38.600          39.250
 119758064.671 7  93145177.278 6                  22371814.320    22371818.860
  22371817.460          45.750          41.700
 103627630.849 8  80599310.500 7                  19351717.660    19351719.660
  19351718.540          48.750          46.750
 106628698.313 7  82933580.045 7                  19954053.640    19954061.080
  19954059.100          47.600          45.800
 15  1 27 15  1  5.0000000  0 16G30G07G13G02G15G28G09G10G05R14R05R21
                                R13R03R04R15
 109645934.905 8  85438482.222 8  81878559.256 8  20864893.180    20864893.360
  20864892.720          50.250          49.250
 119810806.020 7  93359137.936 7                  22799215.180    22799213.640
  22799213.160          47.950          42.750
 113697092.151 8  88595199.22047                  21635815.340
  21635812.460          50.000          42.450
 121671832.728 7  94809208.54146                  23153383.580
  23153381.660          47.400          38.550
 130069697.342 7 101353021.126 6                  24751436.660    24751438.440
  24751438.140          44.650          39.550
 117551804.162 8  91598933.63746                  22369302.840
  22369300.660          49.300          41.700
 130357311.261 7 101577136.941 6  97344762.495 7  24806169.860    24806172.340
  24806171.900          44.150          40.250
 116451310.649 8  90741294.08147                  22159944.820
  22159943.580          49.700          44.700
 107909219.800 8  84085122.477 8                  20534427.320    20534424.980
  20534424.180          49.850          49.150
 103552752.118 7  80541123.191 6                  19426191.420    19426198.840
  19426198.140          43.150          41.850
 111336624.419 8  86595197.066 7                  20827804.640    20827808.980
  20827808.560          48.750          46.150
 130174288.116 6 101246705.612 5                  24326179.140    24326186.100
  24326185.000          39.850          31.500
 123945112.407 6  96401848.291 6                  23210913.300    23210919.760
  23210918.380          37.950          40.050
 119774351.436 7  93157844.737 7                  22374856.820    22374861.400
  22374860.060          45.650          42.300
 103629325.689 8  80600628.699 7                  19352034.160    19352036.160
  19352035.020          48.500          47.650
 106615972.932 7  82923682.524 7                  19951672.280    19951679.700
  19951677.720          47.700          46.350
 15  1 27 15  1 10.0000000  0 16G30G07G13G02G15G28G09G10G05R14R05R21
                                R13R03R04R15
 109654269.168 8  85444976.454 8  81884782.908 8  20866479.140    20866479.300
  20866478.680          50.200          49.750
 119825276.790 8  93370413.861 7                  22801968.880    22801967.340
  22801966.860          48.150          44.350
 113687568.524 8  88587778.21847                  21634003.040
  21634000.180          50.150          43.700
 121686131.811 7  94820350.65746                  23156104.640
  23156102.700          47.250          40.000
 130055246.200 7 101341760.510 6                  24748686.660    24748688.480
  24748688.060          44.600          39.700
 117541134.285 8  91590619.47247                  22367272.360
  22367270.260          49.550          42.700
 130371102.413 7 101587883.279 6  97355061.065 7  24808794.200    24808796.660
  24808796.100          44.100          41.100
 116466382.293 8  90753038.20947                  22162812.900
  22162811.640          49.950          44.600
 107905896.263 8  84082532.708 8                  20533794.860    20533792.540
  20533791.740          49.800          49.650
 103559668.773 7  80546502.818 6                  19427488.980    19427496.420
  19427495.700          43.050          41.950
 111321692.608 8  86583583.440 7                  20825011.320    20825015.660
  20825015.260          48.800          46.050
 130179465.674 6 101250732.583 5                  24327146.760    24327153.700
  24327152.440          39.450          32.150
 123965719.177 6  96417875.764 6                  23214772.320    23214778.700
  23214777.340          38.000          39.900
 119790647.898 7  93170519.744 7                  22377901.160    22377905.740
  22377904.440          45.650          42.700
 103631037.047 8  80601959.749 7                  19352353.740    19352355.740
  19352354.600          48.750          47.600
 106603265.971 8  82913799.349 7                  19949294.360    19949301.720
  19949299.760          48.050          46.650
 15  1 27 15  1 15.0000000  0 16G30G07G13G02G15G28G09G10G05R14R05R21
                                R13R03R04R15
 109662614.766 8  85451479.516 8  81891015.000 8  20868067.240    20868067.420
  20868066.780          50.100          48.900
 119839752.364 8  93381693.524 7                  22804723.500    22804721.940
  22804721.460          48.000          43.550
 113678049.937 8  88580361.15147                  21632191.720
  21632188.840          50.150          42.800
 121700436.023 7  94831496.76646                  23158826.660
  23158824.700          47.100          39.900
 130040795.927 7 101330500.578 6                  24745936.880    24745938.760
  24745938.200          45.000          39.100
 117530474.800 8  91582313.40146                  22365243.880
  22365241.820          49.250          41.500
 130384895.166 7 101598630.870 6  97365360.818 7  24811418.760    24811421.360
  24811420.820          43.500          40.250
 116481462.282 8  90764788.84647                  22165682.580
  22165681.300          49.850          43.600
 107902587.073 8  84079954.121 8                  20533165.140    20533162.840
  20533162.040          49.700          49.000
 103566604.632 7  80551897.383 6                  19428790.200    19428797.660
  19428796.880          43.000          41.650
 111306767.934 8  86571975.366 7                  20822219.360    20822223.720
  20822223.300          48.950          46.050
 130184661.215 6 101254773.535 5                  24328117.700    24328124.860
  24328123.300          38.950          30.900
 123986330.126 6  96433906.508 6                  23218632.000    23218638.520
  23218637.120          38.150          40.000
 119806953.278 7  93183201.694 6                  22380947.180    22380951.740
  22380950.460          45.300          41.600
 103632764.095 8  80603303.014 7                  19352676.240    19352678.240
  19352677.120          48.450          47.200
 106590576.837 7  82903930.043 7                  19946919.780    19946927.120
  19946925.140          47.750          45.950
 15  1 27 15  1 20.0000000  0 16G30G07G13G02G15G28G09G10G05R14R05R21
                                R13R03R04R15
 109670971.662 8  85457991.383 8  81897255.540 8  20869657.500    20869657.680
  20869657.040          50.250          48.450
 119854232.829 8  93392976.998 7                  22807479.060    22807477.520
  22807476.960          48.050          42.900
 113668536.431 8  88572948.03446                  21630381.360
  21630378.460          50.150          41.950
 121714745.319 7  94842646.84046                  23161549.640
  23161547.660          46.800          37.950
 130026346.502 7 101319241.309 6                  24743187.200    24743189.040
  24743188.560          45.300          38.700
 117519825.671 8  91574015.39646                  22363217.360
  22363215.380          49.450          40.350
 130398689.502 7 101609379.678 6  97375661.764 7  24814043.640    24814046.300
  24814045.760          43.850          39.750
 116496550.576 8  90776545.95047                  22168553.840
  22168552.520          49.850          43.050
 107899292.202 8  84077386.693 8                  20532538.140    20532535.820
  20532535.060          49.650          48.550
 103573559.553 7  80557306.764 6                  19430094.940    19430102.360
  19430101.660          43.250          41.700
 111291850.243 8  86560372.726 7                  20819428.700    20819433.040
  20819432.660          49.050          46.050
 130189874.774 6 101258828.533 5                  24329091.940    24329099.060
  24329097.580          39.400          32.500
 124006945.012 6  96449940.305 6                  23222492.460    23222499.000
  23222497.640          38.250          40.000
 119823267.726 7  93195890.699 7                  22383994.880    22383999.480
  22383998.160          45.100          42.200
 103634506.932 8  80604658.550 7                  19353001.680    19353003.720
  19353002.580          48.700          47.550
 106577905.609 7  82894074.650 7                  19944548.540    19944555.880
  19944553.840          47.600          46.300
 15  1 27 15  1 25.0000000  0 16G30G07G13G02G15G28G09G10G05R14R05R21
                                R13R03R04R15
 109679338.068 8  85464510.668 8  81903503.184 8  20871249.560    20871249.740
  20871249.100          50.300          49.400
 119868716.227 8  93404262.756 7                  22810235.180    22810233.620
  22810233.060          48.250          43.850
 113659026.185 8  88565537.46547                  21628571.620
  21628568.680          50.000          43.350
 121729057.897 7  94853799.47346                  23164273.280
  23164271.260          46.700          39.050
 130011896.138 7 101307981.321 6                  24740437.380    24740439.260
  24740438.760          45.650          39.200
 117509185.183 8  91565724.13546                  22361192.500
  22361190.540          49.650          41.600
 130412483.587 7 101620128.307 6  97385962.545 7  24816668.500    24816671.260
  24816670.780          43.850          41.250
 116511645.419 8  90788308.15547                  22171426.340
  22171424.980          49.950          44.550
 107896009.865 8  84074829.036 8                  20531913.540    20531911.220
  20531910.460          49.650          49.350
 103580531.906 7  80562729.703 7                  19431402.960    19431410.400
  19431409.680          44.100          43.750
 111276937.915 8  86548774.257 7                  20816639.060    20816643.400
  20816642.980          49.750          47.450
 130195104.396 6 101262896.055 5                  24330069.200    24330076.420
  24330074.920          39.200          35.250
 124027562.008 6  96465975.740 6                  23226353.360    23226359.880
  23226358.540          39.250          41.500
 119839589.123 7  93208585.100 7                  22387043.860    22387048.480
  22387047.140          45.750          43.200
 103636263.611 8  80606024.856 8                  19353329.740    19353331.760
  19353330.640          49.400          48.800
 106565250.493 8  82884231.784 7                  19942180.380    19942187.620
  19942185.600          48.500          47.400
 15  1 27 15  1 30.0000000  0 16G30G07G13G02G15G28G09G10G05R14R05R21
                                R13R03R04R15
 109687717.269 8  85471039.902 8  81909760.376 8  20872844.080    20872844.220
  20872843.600          50.350          49.750
 119883205.839 8  93415553.357 7                  22812992.500    22812990.880
  22812990.320          48.450          44.450
 113649522.551 8  88558132.04047                  21626763.120
  21626760.180          49.950          43.900
 121743377.002 7  94864957.19746                  23166998.180
  23166996.080          46.550          40.250
 129997448.166 7 101296723.162 6                  24737688.040    24737689.860
  24737689.300          45.600          38.950
 117498556.637 8  91557442.16647                  22359169.920
  22359167.960          49.750          42.050
 130426280.785 7 101630879.354 7  97396265.638 7  24819293.940    24819296.780
  24819296.340          44.350          42.050
 116526750.051 8  90800077.98647                  22174300.700
  22174299.320          49.950          44.750
 107892743.372 8  84072283.714 8                  20531291.960    20531289.620
  20531288.880          49.550          49.700
 103587524.940 7  80568168.721 7                  19432714.900    19432722.260
  19432721.580          43.650          42.900
 111262034.256 8  86537182.527 7                  20813851.020    20813855.340
  20813854.920          49.750          46.900
 130200353.508 6 101266978.653 5                  24331050.120    24331057.380
  24331055.960          39.950          33.750
 124048184.384 6  96482015.357 6                  23230215.300    23230221.840
  23230220.500          38.850          41.400
 119855921.194 7  93221287.798 7                  22390094.840    22390099.480
  22390098.160          45.850          43.250
 103638037.606 8  80607404.628 8                  19353661.020    19353663.040
  19353661.940          49.300          48.400
 106552614.854 8  82874404.067 7                  19939815.820    19939823.020
  19939821.000          48.150          47.200
 15  1 27 15  1 35.0000000  0 16G30G07G13G02G15G28G09G10G05R14R05R21
                                R13R03R04R15
 109696106.550 8  85477577.005 8  81916025.098 8  20874440.520    20874440.620
  20874440.000          50.550          49.200
 119897698.972 8  93426846.707 7                  22815750.460    22815748.800
  22815748.300          48.100          43.900
 113640022.753 8  88550729.61047                  21624955.360
  21624952.380          49.950          43.300
 121757699.971 7  94876117.94046                  23169723.780
  23169721.680          46.350          39.550
 129982999.854 7 101285464.732 6                  24734938.620    24734940.380
  24734939.840          45.200          38.850
 117487937.335 8  91549167.41046                  22357149.100
  22357147.160          49.650          41.600
 130440078.388 7 101641630.732 6  97406569.009 7  24821919.520    24821922.380
  24821921.980          44.700          41.700
 116541861.775 8  90811853.35047                  22177176.400
  22177175.020          49.800          44.150
 107889490.040 8  84069748.653 8                  20530672.880    20530670.540
  20530669.780          49.550          49.250
 103594535.861 7  80573621.673 6                  19434030.180    19434037.460
  19434036.820          43.350          41.950
 111247136.550 8  86525595.430 7                  20811064.140    20811068.380
  20811067.940          49.300          46.200
 130205619.367 6 101271074.277 5                  24332034.300    24332041.240
  24332040.000          38.200          31.650
 124068809.566 6  96498057.157 6                  23234077.780    23234084.320
  23234082.980          38.700          41.000
 119872260.927 7  93233996.463 7                  22393147.260    22393151.920
  22393150.580          45.450          42.300
 103639826.236 8  80608795.784 7                  19353995.040    19353997.040
  19353996.000          49.250          47.850
 106539995.842 8  82864589.292 7                  19937454.380    19937461.560
  19937459.520          48.300          46.650
 15  1 27 15  1 40.0000000  0 16G30G07G13G02G15G28G09G10G05R14R05R21
                                R13R03R04R15
 109704507.084 8  85484122.884 8  81922298.232 8  20876039.100    20876039.180
  20876038.540          50.500          49.250
 119912196.816 8  93438143.719 7                  22818509.320    22818507.620
  22818507.120          48.000          44.000
 113630527.981 8  88543331.09547                  21623148.560
  21623145.560          49.850          43.300
 121772027.954 7  94887282.56746                  23172450.300
  23172448.280          46.350          40.500
 129968552.374 7 101274206.976 6                  24732189.340    24732191.060
  24732190.580          45.050          39.250
 117477328.462 8  91540900.77246                  22355130.260
  22355128.320          49.650          41.700
 130453877.525 7 101652383.293 7  97416873.540 8  24824545.360    24824548.320
  24824547.980          44.100          42.250
 116556981.745 8  90823635.12847                  22180053.680
  22180052.260          49.800          44.150
 107886251.033 8  84067224.753 8                  20530056.500    20530054.180
  20530053.420          49.550          49.400
 103601565.853 7  80579089.448 7                  19435348.960    19435356.320
  19435355.600          43.350          42.200
 111232245.935 8  86514013.837 7                  20808278.580    20808282.720
  20808282.280          49.400          46.350
 130210903.119 6 101275183.902 4                  24333021.720    24333028.420
  24333027.280          37.650          29.900
 124089438.708 6  96514102.029 6                  23237941.000    23237947.540
  23237946.200          38.150          40.800
 119888609.672 7  93246712.140 7                  22396201.360    22396206.000
  22396204.680          45.550          42.350
 103641630.524 8  80610199.105 7                  19354332.000    19354333.940
  19354332.960          49.050          47.850
 106527394.609 8  82854788.339 7                  19935096.280    19935103.380
  19935101.360          48.250          46.850
 15  1 27 15  1 45.0000000  0 16G30G07G13G02G15G28G09G10G05R14R05R21
                                R13R03R04R15
 109712917.768 8  85490676.677 8  81928578.934 8  20877639.640    20877639.680
  20877639.020          50.400          49.050
 119926698.260 8  93449443.533 7                  22821268.860    22821267.160
  22821266.680          48.050          43.800
 113621037.182 8  88535935.67947                  21621342.520
  21621339.520          49.750          43.500
 121786359.831 7  94898450.24346                  23175177.540
  23175175.600          46.400          40.150
 129954104.600 7 101262948.989 6                  24729440.020    24729441.740
  24729441.200          44.700          39.300
 117466728.971 8  91532641.44946                  22353113.240
  22353111.320          49.450          41.750
 130467677.146 7 101663136.227 7  97427178.436 7  24827171.280    24827174.420
  24827174.140          43.700          42.050
 116572108.864 8  90835422.48947                  22182932.300
  22182930.840          49.700          43.550
 107883025.295 8  84064711.193 8                  20529442.660    20529440.340
  20529439.600          49.400          49.150
 103608613.950 7  80584571.305 6                  19436671.200    19436678.460
  19436677.820          43.600          41.500
 111217361.409 8  86502436.993 7                  20805494.160    20805498.240
  20805497.800          49.700          45.800
 130216203.694 6 101279306.580 5                  24334012.300    24334018.780
  24334017.660          37.850          30.350
 124110070.528 6  96530148.989 6                  23241804.720    23241811.240
  23241809.880          38.600          40.150
 119904966.284 7  93259433.932 6                  22399256.900    22399261.580
  22399260.260          45.650          41.800
 103643449.503 8  80611613.870 7                  19354671.680    19354673.600
  19354672.660          49.150          47.250
 106514810.171 8  82845000.466 7                  19932741.300    19932748.380
  19932746.340          48.350          45.950
 15  1 27 15  1 50.0000000  0 16G30G07G13G02G15G28G09G10G05R14R05R21
                                R13R03R04R15
 109721341.233 8  85497240.421 8  81934869.193 8  20879242.580    20879242.620
  20879241.920          50.550          49.200
 119941205.926 8  93460748.207 7                  22824029.580    22824027.880
  22824027.400          48.000          44.050
 113611552.981 8  88528545.40947                  21619537.740
  21619534.720          49.900          42.950
 121800698.285 7  94909623.02946                  23177906.060
  23177904.160          46.650          39.700
 129939659.272 7 101251692.891 6                  24726691.140    24726692.860
  24726692.360          44.150          39.850
 117456141.509 8  91524391.49746                  22351098.520
  22351096.580          49.650          41.700
 130481479.903 7 101673891.597 7  97437485.665 8  24829797.800    24829801.060
  24829800.820          43.550          42.600
 116587245.801 8  90847217.49347                  22185812.760
  22185811.300          49.650          44.400
 107879815.485 8  84062210.047 8                  20528831.860    20528829.500
  20528828.780          49.350          49.350
 103615682.734 7  80590069.251 6                  19437997.320    19438004.500
  19438003.900          43.650          41.550
 111202485.620 8  86490866.941 7                  20802711.360    20802715.400
  20802714.940          49.400          45.950
 130221523.719 6 101283444.375 5                  24335006.500    24335012.940
  24335011.700          38.350          30.350
 124130707.717 6  96546200.136 6                  23245669.500    23245675.900
  23245674.560          38.250          40.050
 119921333.375 7  93272163.879 7                  22402314.440    22402319.100
  22402317.840          45.150          42.150
 103645285.858 8  80613042.151 7                  19355014.620    19355016.560
  19355015.560          49.150          47.100
 106502245.176 8  82835227.698 7                  19930390.000    19930397.000
  19930394.960          48.000          46.200
 15  1 27 15  1 55.0000000  0 16G30G07G13G02G15G28G09G10G05R14R05R21
                                R13R03R04R15
 109729775.436 8  85503812.540 8  81941167.474 8  20880847.560    20880847.580
  20880846.880          50.300          48.850
 119955717.785 8  93472056.149 7                  22826791.120    22826789.400
  22826788.940          48.250          43.650
 113602073.325 8  88521158.67547                  21617733.820
  21617730.800          50.050          42.800
 121815041.237 7  94920799.32146                  23180635.480
  23180633.620          47.200          38.950
 129925214.259 7 101240437.055 6                  24723942.280    24723944.100
  24723943.600          44.000          39.550
 117445564.013 8  91516149.31146                  22349085.700
  22349083.720          49.700          41.200
 130495283.718 7 101684647.803 7  97447793.686 7  24832424.480    24832427.940
  24832427.720          43.400          42.050
 116602390.467 8  90859018.52547                  22188694.700
  22188693.200          49.550          43.400
 107876619.559 8  84059719.723 8                  20528223.680    20528221.320
  20528220.620          49.400          49.100
 103622770.029 7  80595581.593 6                  19439326.840    19439334.020
  19439333.460          43.300          41.200
 111187616.534 8  86479302.099 7                  20799929.820    20799933.860
  20799933.320          49.400          45.400
 130226861.164 6 101287595.712 4                  24336003.920    24336010.200
  24336008.960          37.150          29.050
 124151348.203 6  96562253.841 6                  23249534.820    23249541.200
  23249539.880          38.200          39.400
 119937708.786 7  93284900.293 6                  22405373.460    22405378.200
  22405376.920          45.250          41.400
 103647137.452 8  80614482.277 7                  19355360.420    19355362.300
  19355361.300          49.150          46.600
 106489697.593 7  82825468.476 7                  19928041.900    19928048.880
  19928046.840          47.850          45.800
 15  1 27 15  2  0.0000000  0 16G30G07G13G02G15G28G09G10G05R14R05R21
                                R13R03R04R15
 109738221.815 8  85510394.132 8  81947474.829 8  20882454.880    20882454.840
  20882454.160          50.300          48.600
 119970235.275 8  93483368.477 7                  22829553.700    22829552.020
  22829551.520          48.450          43.650
 113592599.681 8  88513776.61847                  21615931.040
  21615928.040          50.050          42.000
 121829390.116 7  94931980.24346                  23183365.980
  23183364.100          47.400          38.550
 129910771.067 7 101229182.633 6                  24721193.800    24721195.640
  24721195.200          43.900          39.050
 117434997.940 8  91507916.02146                  22347075.040
  22347073.020          49.850          40.900
 130509090.041 7 101695405.953 6  97458103.595 7  24835051.680    24835055.260
  24835055.160          43.900          41.550
 116617544.300 8  90870826.69647                  22191578.340
  22191576.860          49.450          43.250
 107873438.915 8  84057241.299 8                  20527618.420    20527616.080
  20527615.360          49.650          48.800
 103629877.279 7  80601109.456 6                  19440660.100    19440667.340
  19440666.740          43.050          41.550
 111172755.616 8  86467743.616 7                  20797149.780    20797153.800
  20797153.280          49.650          45.850
 130232217.465 5 101291761.706 4                  24337004.900    24337011.160
  24337009.800          34.700          29.000
 124171993.463 6  96578311.247 6                  23253401.020    23253407.400
  23253406.100          38.000          40.650
 119954094.174 7  93297644.457 6                  22408434.340    22408439.140
  22408437.840          45.250          41.850
 103649005.796 8  80615935.429 7                  19355709.300    19355711.220
  19355710.180          48.900          47.100
 106477168.829 7  82815723.885 7                  19925697.380    19925704.300
  19925702.260          47.850          46.250
 15  1 27 15  2  5.0000000  0 16G30G07G13G02G15G28G09G10G05R14R05R21
                                R13R03R04R15
 109746677.353 8  85516982.857 8  81953789.030 8  20884063.920    20884063.880
  20884063.180          50.200          49.650
 119984755.401 8  93494682.849 7                  22832316.780    22832315.140
  22832314.640          48.250          45.000
 113583129.046 8  88506396.90547                  21614128.840
  21614125.840          50.000          43.750
 121843741.915 7  94943163.42246                  23186097.060
  23186095.180          47.650          40.550
 129896326.654 7 101217927.262 6                  24718445.100    24718446.940
  24718446.560          44.200          40.350
 117424440.295 8  91499689.29947                  22345066.000
  22345063.920          49.950          42.100
 130522895.902 7 101706163.744 7  97468413.151 7  24837678.860    24837682.420
  24837682.420          43.800          42.700
 116632704.325 8  90882639.68547                  22194463.200
  22194461.680          49.550          44.050
 107870270.601 8  84054772.483 8                  20527015.500    20527013.160
  20527012.440          49.650          49.700
 103637001.571 7  80606650.574 7                  19441996.600    19442003.840
  19442003.200          43.100          42.000
 111157899.820 8  86456189.122 7                  20794370.740    20794374.740
  20794374.240          49.300          46.300
 130237589.532 6 101295940.026 5                  24338008.820    24338015.080
  24338013.740          37.550          31.850
 124192640.555 6  96594370.084 6                  23257267.640    23257273.960
  23257272.660          37.900          41.000
 119970486.319 7  93310393.884 6                  22411496.520    22411501.300
  22411500.020          45.350          41.850
 103650887.883 8  80617399.269 7                  19356060.780    19356062.700
  19356061.600          48.750          47.500
 106464655.841 7  82805991.568 7                  19923355.780    19923362.620
  19923360.620          47.950          46.200
 15  1 27 15  2 10.0000000  0 16G30G07G13G02G15G28G09G10G05R14R05R21
                                R13R03R04R15
 109755144.616 8  85523580.720 8  81960111.986 8  20885675.200    20885675.120
  20885674.440          50.050          49.300
 119999280.694 8  93506001.247 7                  22835080.860    22835079.240
  22835078.700          48.100          44.150
 113573663.978 8  88499021.54847                  21612327.680
  21612324.720          49.800          43.250
 121858099.166 7  94954350.86446                  23188829.200
  23188827.280          47.650          40.000
 129881883.599 7 101206672.958 6                  24715696.660    24715698.520
  24715698.140          44.100          39.650
 117413893.670 8  91491471.16646                  22343059.060
  22343056.940          49.850          41.450
 130536703.826 7 101716923.161 6  97478724.261 7  24840306.460    24840309.980
  24840310.020          44.650          41.400
 116647873.072 8  90894459.48547                  22197349.700
  22197348.200          49.550          44.150
 107867117.123 8  84052315.233 8                  20526415.420    20526413.080
  20526412.380          49.700          49.400
 103644145.447 7  80612206.931 6                  19443336.820    19443344.000
  19443343.320          43.100          41.100
 111143051.833 8  86444640.698 7                  20791593.120    20791597.160
  20791596.660          49.000          45.850
 130242979.971 5 101300132.555 5                  24339016.120    24339022.540
  24339021.280          33.850          32.350
 124213291.892 6  96610432.233 6                  23261135.040    23261141.280
  23261140.040          37.750          39.950
 119986887.966 7  93323150.723 6                  22414560.500    22414565.320
  22414563.960          44.750          41.800
 103652786.185 8  80618875.726 7                  19356415.280    19356417.160
  19356416.080          48.700          46.900
 106452161.314 7  82796273.616 7                  19921017.640    19921024.420
  19921022.420          47.950          45.850
 15  1 27 15  2 15.0000000  0 16G30G07G13G02G15G28G09G10G05R14R05R21
                                R13R03R04R15
 109763622.391 8  85530186.771 8  81966442.790 8  20887288.460    20887288.380
  20887287.680          50.150          49.000
 120013809.985 8  93517322.768 7                  22837845.680    22837844.020
  22837843.520          48.100          43.650
 113564203.303 8  88491649.59847                  21610527.360
  21610524.400          49.700          42.650
 121872460.679 7  94965541.62246                  23191562.140
  23191560.160          47.550          39.800
 129867440.783 7 101195418.832 6                  24712948.260    24712950.160
  24712949.800          44.700          39.200
 117403356.922 8  91483260.72746                  22341054.000
  22341051.820          49.800          41.400
 130550512.651 7 101727683.282 6  97489036.032 7  24842934.300    24842937.680
  24842937.780          45.550          41.450
 116663049.370 8  90906285.16847                  22200237.660
  22200236.140          49.350          43.800
 107863977.381 8  84049868.677 8                  20525817.940    20525815.620
  20525814.900          49.850          49.050
 103651307.602 7  80617777.489 6                  19444680.440    19444687.640
  19444686.900          43.000          40.700
 111128210.285 8  86433097.272 7                  20788816.700    20788820.800
  20788820.280          49.200          45.400
 130248387.586 6 101304338.431 5                  24340026.620    24340033.080
  24340032.080          37.550          32.450
 124233946.417 6  96626496.847 6                  23265003.000    23265009.240
  23265008.000          38.100          39.100
 120003297.809 7  93335913.907 6                  22417625.980    22417630.820
  22417629.460          45.100          40.950
 103654699.657 8  80620363.982 7                  19356772.620    19356774.500
  19356773.380          48.750          46.450
 106439684.102 7  82786569.127 7                  19918682.720    19918689.440
  19918687.440          47.850          45.450
 15  1 27 15  2 20.0000000  0 16G30G07G13G02G15G28G09G10G05R14R05R21
                                R13R03R04R15
 109772111.631 8  85536801.766 8  81972782.163 8  20888903.920    20888903.840
  20888903.120          50.300          49.150
 120028344.215 8  93528648.138 7                  22840611.460    22840609.800
  22840609.300          48.050          43.900
 113554747.936 8  88484281.79147                  21608728.020
