     2.11           OBSERVATION DATA    M (MIXED)           RINEX VERSION / TYPE
teqc  2011Oct11     IGN-E (SPG)         20150127 18:00:46UTCPGM / RUN BY / DATE
Linux 2.4.21-27.ELsmp|Opteron|gcc -static|Linux x86_64|=+   COMMENT
BIT 2 OF LLI FLAGS DATA COLLECTED UNDER A/S CONDITION       COMMENT
VALE                                                        MARKER NAME
13439M001                                                   MARKER NUMBER
Programas GeodesicosInstituto Geografico Nacional           OBSERVER / AGENCY
1700071             LEICA GR10          3.03/6.214          REC # / TYPE / VERS
10190012            LEIAR25.R3      LEIT                    ANT # / TYPE
  4929534.0457   -29050.6755  4033709.9250                  APPROX POSITION XYZ
        3.0390        0.0000        0.0000                  ANTENNA: DELTA H/E/N
     1     1                                                WAVELENGTH FACT L1/2
     8    L1    L2    L5    C1    C2    P2    S1    S2      # / TYPES OF OBSERV
     5.0000                                                 INTERVAL
Forced Modulo Decimation to 5 seconds                       COMMENT
DefaultJobName                                              COMMENT
DefaultUserDiscription                                      COMMENT
Project creator:                                            COMMENT
 SNR is mapped to RINEX snr flag value [0-9]                COMMENT
  L1 & L2: min(max(int(snr_dBHz/6), 0), 9)                  COMMENT
  2015     1    27    17     0    0.0000000     GPS         TIME OF FIRST OBS
    15                                                      LEAP SECONDS
                                                            END OF HEADER
 15  1 27 17  0  0.0000000  0 19G30G21G18G13G17G15G28G24G05R14R05R16
                                R24R06R09R04R15E19E20
 128373583.334 7 100031452.954 7  95863489.249 7  24428647.700    24428648.080
  24428647.220          44.200          42.200
 134755420.992 6 105004221.90144                  25643104.580
  25643104.580          40.750          27.000
 131130342.381 7 102179492.52645                  24953269.620
  24953268.060          44.850          33.000
 106567379.032 8  83039584.17147                  20279071.760
  20279067.540          49.800          47.450
 129718767.290 7 101079613.761 6                  24684637.680    24684636.620
  24684636.340          45.550          39.550
 111683045.227 8  87025778.736 7                  21252558.860    21252555.720
  21252555.040          50.250          47.400
 116033882.348 8  90416146.43347                  22080445.100
  22080440.880          49.600          43.450
 121160589.666 7  94410926.141 7  90477153.039 8  23056067.840    23056068.900
  23056068.120          46.600          44.750
 117844127.044 8  91826606.670 7                  22424978.660    22424976.980
  22424976.380          49.750          46.000
 125231747.387 6  97402561.410 5                  23493117.520    23493126.120
  23493125.060          38.850          33.650
 103844298.601 8  80767837.092 7                  19426206.920    19426209.800
  19426209.300          49.550          47.450
 108392889.330 7  84305636.320 7                  20291362.440    20291366.220
  20291365.460          47.800          46.300
 128769989.988 7 100154449.199 5                  24080635.640    24080639.020
  24080637.120          42.400          32.150
 109554116.206 8  85208813.907 7                  20530380.960    20530383.340
  20530383.520          49.100          44.350
 128891045.004 6 100248588.056 4                  24137141.200    24137152.780
  24137149.720          41.000          29.550
 121637806.048 7  94607216.230 6                  22714997.180    22715000.820
  22714998.940          46.100          41.050
 106934043.932 7  83171076.930 7                  20011190.240    20011196.200
  20011194.140          47.800          46.050
 146974701.882 7                 109753855.242 6  27968354.300
                        44.250
 118391961.418 8                                  22529239.520
                        48.750
 15  1 27 17  0  5.0000000  0 19G30G21G18G13G17G15G28G24G05R14R05R16
                                R24R06R09R04R15E19E20
 128388733.071 7 100043257.915 6  95874802.356 8  24431530.540    24431531.020
  24431530.180          44.150          41.400
 134759343.169 6 105007278.07044                  25643851.040
  25643850.960          41.200          29.000
 131115561.041 7 102167974.58145                  24950456.840
  24950455.260          45.200          32.650
 106568244.211 8  83040258.33647                  20279236.420
  20279232.200          49.750          47.250
 129706977.447 7 101070426.889 6                  24682394.120    24682393.080
  24682392.760          45.550          39.700
 111673321.464 8  87018201.784 7                  21250708.500    21250705.340
  21250704.680          50.300          47.650
 116042821.502 8  90423111.99847                  22082146.040
  22082141.920          49.250          43.950
 121147820.655 7  94400976.273 7  90467617.756 8  23053637.960    23053639.040
  23053638.280          47.000          44.700
 117859754.190 8  91838783.663 7                  22427952.420    22427950.740
  22427950.140          49.900          46.150
 125250101.232 6  97416836.621 5                  23496560.700    23496569.180
  23496568.300          38.250          33.900
 103852283.505 8  80774047.569 7                  19427700.680    19427703.580
  19427703.080          49.600          47.800
 108384093.510 7  84298795.122 7                  20289715.840    20289719.620
  20289718.820          47.850          46.450
 128762925.839 7 100148954.838 5                  24079314.580    24079318.000
  24079316.000          42.800          32.400
 109540265.435 8  85198041.096 7                  20527785.360    20527787.720
  20527787.900          49.150          44.600
 128873358.695 6 100234832.180 5                  24133829.060    24133840.300
  24133837.600          40.000          30.000
 121659038.405 7  94623730.257 6                  22718962.220    22718965.860
  22718964.060          46.550          41.200
 106944958.385 7  83179565.957 7                  20013232.780    20013238.680
  20013236.640          47.550          46.350
 146960701.172 7                 109743400.209 6  27965690.080
                        44.100
 118384971.800 8                                  22527909.480
                        48.700
 15  1 27 17  0 10.0000000  0 19G30G21G18G13G17G15G28G24G05R14R05R16
                                R24R06R09R04R15E19E20
 128403882.597 7 100055062.753 6  95886115.316 8  24434413.420    24434413.880
  24434413.000          44.900          40.850
 134763274.894 6 105010341.85245                  25644599.200
  25644599.120          40.400          30.350
 131100786.015 7 102156461.59445                  24947645.240
  24947643.600          45.400          33.050
 106569119.602 8  83040940.45947                  20279402.980
  20279398.760          50.000          47.050
 129695191.653 7 101061243.170 6                  24680151.320    24680150.300
  24680149.980          45.700          39.900
 111663605.082 8  87010630.583 7                  21248859.520    21248856.380
  21248855.740          50.450          47.550
 116051772.506 8  90430086.80247                  22083849.220
  22083845.200          49.100          43.900
 121135056.986 7  94391030.562 7  90458086.454 8  23051209.100    23051210.160
  23051209.440          46.950          44.950
 117875389.030 8  91850966.649 7                  22430927.660    22430925.920
  22430925.360          49.850          46.150
 125268453.509 6  97431110.629 5                  23500003.520    23500011.980
  23500011.140          38.900          33.750
 103860288.613 8  80780273.758 7                  19429198.200    19429201.100
  19429200.600          49.850          47.650
 108375310.729 7  84291964.077 7                  20288071.700    20288075.500
  20288074.640          47.850          46.300
 128755878.785 7 100143473.809 5                  24077996.740    24078000.240
  24077998.080          42.250          31.750
 109526429.499 8  85187279.818 7                  20525192.560    20525194.820
  20525195.060          49.450          44.400
 128855677.603 6 100221080.354 5                  24130517.800    24130529.140
  24130526.460          39.950          31.250
 121680277.234 7  94640249.342 6                  22722928.440    22722932.180
  22722930.420          45.850          41.550
 106955882.218 7  83188062.272 7                  20015277.040    20015282.980
  20015280.920          47.350          46.200
 146946702.543 7                 109732946.694 6  27963026.240
                        44.000
 118377991.051 8                                  22526581.100
                        48.850
 15  1 27 17  0 15.0000000  0 19G30G21G18G13G17G15G28G24G05R14R05R16
                                R24R06R09R04R15E19E20
 128419031.764 7 100066867.328 6  95897428.013 7  24437296.180    24437296.600
  24437295.700          44.200          41.250
 134767216.045 6 105013412.76844                  25645349.160
  25645349.020          39.950          25.400
 131086017.098 7 102144953.36145                  24944834.820
  24944833.140          44.800          33.700
 106570005.015 8  83041630.39147                  20279571.460
  20279567.260          50.050          47.050
 129683409.704 7 101052062.448 6                  24677909.280    24677908.280
  24677907.940          45.900          40.150
 111653895.866 8  87003064.970 7                  21247011.940    21247008.780
  21247008.160          50.550          47.600
 116060735.161 8  90437070.68347                  22085554.620
  22085550.700          49.050          43.700
 121122298.217 7  94381088.685 7  90448558.814 8  23048781.180    23048782.200
  23048781.500          46.750          44.750
 117891031.318 8  91863155.436 7                  22433904.320    22433902.520
  22433901.960          49.900          46.150
 125286804.222 6  97445383.407 5                  23503446.040    23503454.540
  23503453.780          39.350          33.700
 103868313.684 8  80786515.482 7                  19430699.460    19430702.340
  19430701.880          49.900          47.550
 108366540.790 7  84285143.021 7                  20286429.940    20286433.720
  20286432.860          47.650          46.000
 128748848.502 7 100138005.788 5                  24076682.040    24076685.460
  24076683.280          42.350          31.650
 109512608.293 8  85176530.000 7                  20522602.500    20522604.680
  20522605.000          49.550          44.400
 128838001.523 6 100207332.414 5                  24127207.440    24127218.860
  24127216.160          41.350          30.900
 121701522.197 7  94656773.164 6                  22726895.820    22726899.580
  22726897.920          45.950          41.800
 106966815.147 7  83196565.664 7                  20017322.960    20017328.980
  20017326.920          46.950          46.150
 146932705.745 7                 109722494.583 6  27960362.780
                        43.650
 118371018.937 8                                  22525254.360
                        48.850
 15  1 27 17  0 20.0000000  0 19G30G21G18G13G17G15G28G24G05R14R05R16
                                R24R06R09R04R15E19E20
 128434182.625 7 100078673.192 6  95908741.993 8  24440179.240    24440179.720
  24440178.820          43.700          41.900
 134771168.612 6 105016492.75044                  25646101.280
  25646101.140          40.350          25.100
 131071256.357 7 102133451.50845                  24942025.980
  24942024.260          44.750          34.700
 106570902.512 8  83042329.74447                  20279742.260
  20279738.040          49.950          47.750
 129671633.692 7 101042886.346 6                  24675668.360    24675667.360
  24675667.000          46.100          41.350
 111644195.924 8  86995506.576 7                  21245166.100    21245162.940
  21245162.300          50.450          47.950
 116069711.516 8  90444065.24147                  22087262.680
  22087258.760          49.250          44.900
 121109546.663 7  94371152.422 7  90439036.565 8  23046354.640    23046355.600
  23046354.900          46.650          44.950
 117906683.147 8  91875351.659 7                  22436882.800    22436880.940
  22436880.380          49.750          46.200
 125305155.348 6  97459656.522 5                  23506888.720    23506897.140
  23506896.440          39.300          34.350
 103876360.817 8  80792774.362 8                  19432204.880    19432207.720
  19432207.280          49.700          48.150
 108357785.797 7  84278333.584 7                  20284791.000    20284794.800
  20284793.880          47.700          46.800
 128741837.295 7 100132552.623 5                  24075370.980    24075374.220
  24075372.080          42.200          33.450
 109498803.893 8  85165793.253 7                  20520015.580    20520017.760
  20520018.060          49.750          45.000
 128820332.550 6 100193590.021 5                  24123898.480    24123910.040
  24123907.120          41.800          31.250
 121722775.490 7  94673303.474 6                  22730864.760    22730868.540
  22730866.940          45.600          41.850
 106977759.383 7  83205077.840 7                  20019371.040    20019377.040
  20019375.000          47.100          46.950
 146918712.905 7                 109712045.392 6  27957700.000
                        43.200
 118364057.566 8                                  22523929.640
                        48.850
 15  1 27 17  0 25.0000000  0 19G30G21G18G13G17G15G28G24G05R14R05R16
                                R24R06R09R04R15E19E20
 128449330.632 7 100090476.826 6  95920053.809 7  24443061.800    24443062.240
  24443061.360          43.550          40.950
 134775128.013 6 105019577.94644                  25646854.740
  25646854.380          39.800          27.350
 131056499.269 7 102121952.47845                  24939217.820
  24939216.080          45.150          32.550
 106571807.524 8  83043034.94447                  20279914.480
  20279910.260          49.900          47.050
 129659859.023 7 101033711.306 6                  24673427.720    24673426.660
  24673426.360          45.700          39.850
 111634500.704 8  86987951.851 7                  21243321.180    21243318.020
  21243317.360          50.300          47.150
 116078696.996 8  90451066.91447                  22088972.520
  22088968.600          49.750          43.400
 121096797.600 7  94361218.089 7  90429516.171 8  23043928.560    23043929.520
  23043928.780          46.800          44.050
 117922339.908 8  91887551.722 7                  22439862.220    22439860.320
  22439859.740          49.700          45.400
 125323502.201 6  97473926.274 5                  23510330.540    23510338.960
  23510338.380          39.100          34.050
 103884425.466 8  80799046.859 8                  19433713.560    19433716.380
  19433715.920          49.300          48.400
 108349041.071 7  84271532.127 7                  20283154.000    20283157.740
  20283156.840          47.650          47.000
 128734840.489 6 100127110.667 5                  24074062.540    24074065.940
  24074063.620          41.600          33.300
 109485011.711 8  85155065.992 7                  20517430.940    20517433.080
  20517433.400          49.600          45.100
 128802666.161 6 100179849.631 5                  24120590.020    24120601.720
  24120598.560          40.800          30.600
 121744032.480 7  94689836.678 6                  22734834.400    22734838.160
  22734836.500          45.650          41.200
 106988710.207 7  83213595.131 7                  20021420.320    20021426.300
  20021424.300          47.100          47.100
 146904719.426 7                 109701595.781 6  27955037.120
                        43.050
 118357102.313 8                                  22522606.100
                        48.900
 15  1 27 17  0 30.0000000  0 19G30G21G18G13G17G15G28G24G05R14R05R16
                                R24R06R09R04R15E19E20
 128464480.765 7 100102282.131 6  95931367.218 7  24445944.720    24445945.240
  24445944.340          44.050          40.900
 134779099.296 6 105022672.46543                  25647610.480
  25647610.180          40.550          22.650
 131041750.828 7 102110460.22145                  24936411.280
  24936409.440          45.600          32.050
 106572725.106 8  83043749.93247                  20280089.100
  20280084.860          49.700          47.400
 129648090.823 7 101024541.286 6                  24671188.300    24671187.180
  24671186.860          45.850          39.750
 111624815.177 8  86980404.688 7                  21241478.100    21241474.900
  21241474.280          50.200          47.300
 116087696.630 8  90458079.61447                  22090685.100
  22090681.120          49.900          43.350
 121084056.163 7  94351289.692 7  90420001.461 8  23041503.940    23041504.900
  23041504.060          46.800          44.200
 117938006.598 8  91899759.532 7                  22442843.500    22442841.600
  22442841.000          49.700          45.600
 125341849.950 6  97488196.778 5                  23513772.540    23513780.820
  23513780.360          39.400          34.650
 103892512.535 8  80805336.798 8                  19435226.420    19435229.220
  19435228.780          49.100          48.000
 108340311.690 7  84264742.616 7                  20281519.820    20281523.540
  20281522.680          47.600          46.800
 128727863.121 6 100121683.825 5                  24072757.720    24072761.160
  24072758.860          41.300          33.750
 109471236.783 8  85144352.165 7                  20514849.560    20514851.640
  20514851.980          49.550          44.950
 128785007.329 6 100166115.123 5                  24117282.940    24117294.720
  24117291.380          40.550          30.300
 121765298.209 7  94706376.696 6                  22738805.620    22738809.260
  22738807.660          44.850          41.400
 106999672.670 7  83222121.479 7                  20023471.800    20023477.780
  20023475.800          46.900          46.850
 146890730.343 7                 109691149.395 6  27952375.100
                        43.150
 118350158.241 8                                  22521284.680
                        48.750
 15  1 27 17  0 35.0000000  0 19G30G21G18G13G17G15G28G24G05R14R05R16
                                R24R06R09R04R15E19E20
 128479630.746 7 100114087.315 6  95942680.515 7  24448827.640    24448828.180
  24448827.220          43.850          40.650
 134783080.114 6 105025774.43644                  25648368.000
  25648367.760          39.450          28.800
 131027008.751 7 102098972.88245                  24933605.920
  24933604.040          45.550          33.900
 106573652.966 8  83044472.94447                  20280265.660
  20280261.400          49.550          47.550
 129636326.711 7 101015374.446 6                  24668949.660    24668948.580
  24668948.220          45.550          40.250
 111615137.115 8  86972863.342 7                  21239636.440    21239633.240
  21239632.600          50.100          47.350
 116096708.060 8  90465101.50147                  22092399.960
  22092395.900          50.150          43.550
 121071319.919 7  94341365.353 7  90410490.640 8  23039080.320    23039081.240
  23039080.400          46.900          44.250
 117953680.947 8  91911973.305 7                  22445826.240    22445824.340
  22445823.720          49.400          45.850
 125360196.228 6  97502466.128 5                  23517214.280    23517222.580
  23517222.100          39.350          34.050
 103900619.709 8  80811642.375 7                  19436743.060    19436745.880
  19436745.400          49.300          47.800
 108331595.431 7  84257963.310 7                  20279888.100    20279891.820
  20279890.980          47.650          46.850
 128720902.889 6 100116270.321 5                  24071456.080    24071459.720
  24071457.380          40.600          33.550
 109457476.872 8  85133650.022 7                  20512270.980    20512273.040
  20512273.360          49.650          44.850
 128767353.716 6 100152384.635 5                  24113976.820    24113988.380
  24113985.340          40.550          30.200
 121786570.319 7  94722921.625 6                  22742778.020    22742781.720
  22742780.120          45.400          41.400
 107010644.394 7  83230655.039 7                  20025525.000    20025530.960
  20025529.000          47.050          46.700
 146876743.338 7                 109680704.593 6  27949713.460
                        42.950
 118343223.055 8                                  22519964.960
                        48.600
 15  1 27 17  0 40.0000000  0 19G30G21G18G13G17G15G28G24G05R14R05R16
                                R24R06R09R04R15E19E20
 128494778.704 7 100125890.927 6  95953992.326 7  24451710.160    24451710.760
  24451709.780          44.400          41.100
 134787068.655 6 105028882.34645                  25649126.960
  25649126.540          39.900          30.400
 131012271.301 7 102087489.16345                  24930801.500
  24930799.600          45.250          32.950
 106574589.245 8  83045202.51347                  20280443.820
  20280439.560          49.350          47.500
 129624564.925 7 101006209.448 6                  24666711.440    24666710.360
  24666709.960          45.850          40.050
 111605464.684 8  86965326.393 7                  21237795.860    21237792.640
  21237792.000          50.000          47.400
 116105729.495 8  90472131.19547                  22094116.780
  22094112.580          50.350          43.450
 121058587.142 7  94331443.718 7  90400982.413 8  23036657.340    23036658.220
  23036657.400          46.450          44.500
 117969361.101 8  91924191.596 7                  22448810.100    22448808.180
  22448807.540          49.350          46.000
 125378539.190 6  97516732.893 5                  23520655.380    23520663.700
  23520663.180          39.000          34.250
 103908745.354 8  80817962.324 7                  19438263.160    19438265.940
  19438265.480          49.400          47.700
 108322890.269 7  84251192.643 7                  20278258.460    20278262.200
  20278261.380          47.400          46.850
 128713957.892 6 100110868.682 5                  24070157.240    24070161.000
  24070158.720          41.550          33.300
 109443730.178 8  85122958.157 7                  20509694.880    20509696.900
  20509697.200          49.450          44.750
 128749703.479 6 100138656.774 4                  24110671.460    24110682.880
  24110680.040          40.850          29.800
 121807846.866 7  94739470.023 7                  22746751.280    22746755.020
  22746753.500          45.700          42.250
 107021623.470 7  83239194.332 7                  20027579.620    20027585.560
  20027583.580          47.200          46.400
 146862756.665 7                 109670260.015 6  27947051.880
                        43.050
 118336294.940 8                                  22518646.580
                        48.600
 15  1 27 17  0 45.0000000  0 19G30G21G18G13G17G15G28G24G05R14R05R16
                                R24R06R09R04R15E19E20
 128509929.859 7 100137697.024 6  95965306.506 7  24454593.340    24454593.920
  24454593.020          44.150          41.000
 134791070.122 6 105032000.35044                  25649888.420
  25649887.900          39.650          29.250
 130997543.554 7 102076013.01545                  24927998.900
  24927997.040          44.600          34.400
 106575539.069 8  83045942.63747                  20280624.560
  20280620.300          49.450          47.250
 129612810.688 7 100997050.320 6                  24664474.660    24664473.540
  24664473.120          45.750          39.900
 111595802.991 8  86957797.803 7                  21235957.300    21235954.100
  21235953.440          49.850          47.400
 116114766.054 8  90479172.67947                  22095836.500
  22095832.180          50.550          43.600
 121045862.925 7  94321528.766 7  90391480.586 8  23034236.020    23034236.840
  23034236.080          46.300          44.800
 117985052.203 8  91936418.417 7                  22451796.060    22451794.100
  22451793.460          49.450          46.050
 125396883.969 6  97531001.067 5                  23524096.880    23524105.120
  23524104.600          39.750          33.400
 103916894.418 8  80824300.472 7                  19439787.600    19439790.380
  19439789.920          49.400          47.700
 108314201.606 7  84244434.790 7                  20276631.920    20276635.640
  20276634.840          47.450          46.900
 128707033.495 6 100105483.053 5                  24068862.300    24068866.140
  24068863.880          41.600          32.450
 109430001.798 8  85112280.541 7                  20507122.220    20507124.180
  20507124.480          49.700          44.550
 128732061.974 6 100124935.762 5                  24107367.660    24107379.360
  24107376.340          40.750          30.150
 121829133.180 7  94756026.003 6                  22750726.300    22750730.160
  22750728.700          45.400          41.900
 107032615.329 7  83247743.567 7                  20029636.640    20029642.500
  20029640.560          47.350          46.550
 146848775.427 7                 109659819.502 6  27944391.340
                        43.200
 118329379.032 8                                  22517330.520
                        48.600
 15  1 27 17  0 50.0000000  0 19G30G21G18G13G17G15G28G24G05R14R05R16
                                R24R06R09R04R15E19E20
 128525078.456 7 100149501.125 6  95976618.785 8  24457476.000    24457476.560
  24457475.720          44.250          41.750
 134795078.726 6 105035123.92645                  25650651.160
  25650650.720          39.650          30.200
 130982819.833 7 102064540.02745                  24925197.100
  24925195.200          44.200          34.150
 106576496.844 8  83046688.95548                  20280806.840
  20280802.540          49.550          48.450
 129601058.350 7 100987892.671 6                  24662238.220    24662237.160
  24662236.740          45.750          41.550
 111586146.409 8  86950273.200 8                  21234119.720    21234116.520
  21234115.860          49.800          48.550
 116123812.051 8  90486221.51847                  22097558.020
  22097553.580          50.600          44.750
 121033141.603 7  94311616.062 7  90381980.915 8  23031815.180    23031816.100
  23031815.320          46.550          45.950
 118000748.550 8  91948649.332 7                  22454782.980    22454781.040
  22454780.400          49.550          46.850
 125415224.783 6  97545266.176 5                  23527537.580    23527545.900
  23527545.280          39.400          35.350
 103925061.292 8  80830652.481 8                  19441315.360    19441318.140
  19441317.660          49.150          48.850
 108305523.605 7  84237685.244 8                  20275007.340    20275011.100
  20275010.320          47.600          48.250
 128700123.831 6 100100108.874 5                  24067570.160    24067573.780
  24067571.740          41.800          35.000
 109416286.171 8  85101612.827 7                  20504551.960    20504553.860
  20504554.140          49.500          45.900
 128714423.362 6 100111216.949 5                  24104064.440    24104076.320
  24104073.200          40.900          30.750
 121850423.406 7  94772585.039 7                  22754702.100    22754705.980
  22754704.540          45.100          42.650
 107043614.242 7  83256298.281 8                  20031694.960    20031700.820
  20031698.860          47.500          48.150
 146834793.953 7                 109649378.829 6  27941730.720
                        43.600
 118322469.701 8                                  22516015.720
                        48.650
 15  1 27 17  0 55.0000000  0 19G30G21G18G13G17G15G28G24G05R14R05R16
                                R24R06R09R04R15E19E20
 128540226.392 7 100161304.726 6  95987930.550 7  24460358.560    24460359.100
  24460358.240          43.600          40.250
 134799096.382 6 105038254.53644                  25651415.740
  25651415.200          39.300          28.050
 130968102.050 7 102053071.60445                  24922396.380
  24922394.520          44.300          33.800
 106577464.394 8  83047442.88247                  20280990.980
  20280986.640          49.550          47.550
 129589309.617 7 100978737.833 6                  24660002.500    24660001.420
  24660001.060          45.750          40.200
 111576496.773 8  86942754.002 7                  21232283.460    21232280.260
  21232279.580          49.850          47.400
 116132869.344 8  90493279.15947                  22099281.680
  22099277.160          50.600          43.200
 121020424.972 7  94301707.001 7  90372484.733 8  23029395.280    23029396.200
  23029395.460          46.950          45.000
 118016451.973 8  91960885.765 7                  22457771.240    22457769.320
  22457768.680          49.300          45.700
 125433563.782 6  97559529.850 5                  23530977.940    23530986.220
  23530985.600          38.650          32.900
 103933247.863 8  80837019.808 7                  19442846.820    19442849.600
  19442849.120          49.350          47.050
 108296858.149 7  84230945.445 7                  20273385.100    20273388.900
  20273388.140          47.700          46.100
 128693230.958 6 100094747.744 5                  24066281.180    24066284.800
  24066282.720          41.900          31.900
 109402585.061 8  85090956.408 7                  20501984.400    20501986.260
  20501986.500          49.700          43.700
 128696789.502 6 100097501.828 4                  24100762.060    24100773.760
  24100770.880          41.100          27.300
 121871719.463 7  94789148.637 6                  22758679.020    22758682.760
  22758681.320          45.050          39.350
 107054621.835 7  83264859.734 7                  20033754.940    20033760.720
  20033758.780          47.550          45.750
 146820814.122 7                 109638939.360 6  27939070.460
                        43.450
 118315568.783 8                                  22514702.500
                        48.750
 15  1 27 17  1  0.0000000  0 19G30G21G18G13G17G15G28G24G05R14R05R16
                                R24R06R09R04R15E19E20
 128555375.188 7 100173108.987 6  95999242.968 8  24463241.240    24463241.760
  24463240.980          44.050          41.000
 134803124.580 6 105041393.39944                  25652182.280
  25652181.340          38.800          27.500
 130953391.687 7 102041609.02845                  24919597.060
  24919595.160          44.300          34.150
 106578443.220 8  83048205.60647                  20281177.240
  20281172.880          49.550          47.650
 129577566.092 7 100969587.053 6                  24657767.740    24657766.600
  24657766.320          45.500          40.750
 111566855.628 8  86935241.429 7                  21230448.780    21230445.580
  21230444.960          49.800          47.600
 116141939.490 8  90500346.81447                  22101007.760
  22101003.200          50.550          43.450
 121007714.686 7  94291802.900 7  90362993.300 8  23026976.580    23026977.540
  23026976.800          47.400          45.000
 118032163.980 8  91973128.884 7                  22460761.140    22460759.240
  22460758.600          49.250          45.900
 125451902.312 6  97573793.132 5                  23534418.220    23534426.620
  23534425.860          38.300          33.550
 103941455.531 8  80843403.556 7                  19444382.220    19444385.020
  19444384.520          49.350          47.200
 108288206.849 7  84224216.664 7                  20271765.560    20271769.380
  20271768.620          47.550          46.100
 128686356.358 6 100089400.855 5                  24064995.580    24064999.180
  24064997.060          41.700          31.600
 109388900.086 8  85080312.541 7                  20499419.900    20499421.660
  20499421.920          49.750          43.900
 128679161.943 6 100083791.613 4                  24097460.880    24097472.080
  24097469.720          40.600          28.000
 121893022.894 7  94805717.966 6                  22762657.180    22762661.040
  22762659.500          44.800          39.950
 107065639.554 7  83273429.061 7                  20035816.740    20035822.560
  20035820.580          47.250          45.700
 146806837.480 7                 109628502.286 6  27936410.800
                        43.000
 118308677.803 8                                  22513391.180
                        48.650
 15  1 27 17  1  5.0000000  0 19G30G21G18G13G17G15G28G24G05R14R05R16
                                R24R06R09R04R15E19E20
 128570523.881 7 100184913.173 6  96010555.312 8  24466123.920    24466124.420
  24466123.740          43.750          40.650
 134807162.397 6 105044540.67243                  25652950.740
  25652949.840          39.400          23.700
 130938687.877 7 102030151.53345                  24916798.980
  24916797.140          44.550          31.000
 106579432.410 8  83048976.40147                  20281365.480
  20281361.100          49.550          47.650
 129565826.856 7 100960439.610 6                  24655533.860    24655532.660
  24655532.340          45.950          40.850
 111557222.052 8  86927734.757 7                  21228615.560    21228612.400
  21228611.760          49.950          47.750
 116151021.474 8  90507423.68547                  22102736.060
  22102731.480          50.250          43.650
 120995009.765 7  94281902.970 7  90353505.879 8  23024558.920    23024559.920
  23024559.180          47.200          45.050
 118047883.677 8  91985377.993 7                  22463752.500    22463750.620
  22463749.980          49.200          46.250
 125470239.327 6  97588055.256 5                  23537858.160    23537866.520
  23537865.840          38.600          33.550
 103949683.469 8  80849803.069 7                  19445921.420    19445924.200
  19445923.720          49.400          47.450
 108279568.612 7  84217498.048 7                  20270148.460    20270152.280
  20270151.520          47.250          46.300
 128679499.026 6 100084067.332 5                  24063713.200    24063716.680
  24063714.680          40.900          32.750
 109375230.244 8  85069680.443 7                  20496858.160    20496859.960
  20496860.180          49.700          44.050
 128661539.814 6 100070085.629 4                  24094160.720    24094172.060
  24094169.460          40.650          28.350
 121914332.660 7  94822292.189 6                  22766636.660    22766640.560
  22766638.940          45.600          39.800
 107076666.420 7  83282005.512 7                  20037880.280    20037886.060
  20037884.080          47.150          45.850
 146792863.059 7                 109618066.859 6  27933751.480
                        42.950
 118301795.808 8                                  22512081.580
                        48.750
 15  1 27 17  1 10.0000000  0 19G30G21G18G13G17G15G28G24G05R14R05R16
                                R24R06R09R04R15E19E20
 128585672.969 7 100196717.676 6  96021867.933 8  24469006.680    24469007.140
  24469006.440          45.050          41.000
 134811210.248 6 105047694.87644                  25653721.060
  25653720.520          40.650          27.500
 130923991.101 7 102018699.52045                  24914002.260
  24914000.420          46.100          32.050
 106580432.467 8  83049755.67047                  20281555.800
  20281551.420          50.400          46.750
 129554092.374 7 100951295.883 6                  24653300.840    24653299.640
  24653299.320          47.050          40.850
 111547596.538 8  86920234.364 7                  21226783.860    21226780.720
  21226780.080          50.800          47.750
 116160115.812 8  90514510.19047                  22104466.680
  22104462.160          50.750          43.200
 120982310.683 8  94272007.606 7  90344022.806 8  23022142.340    23022143.360
  23022142.640          48.050          45.250
 118063611.515 8  91997633.440 7                  22466745.380    22466743.560
  22466742.880          50.300          46.350
 125488575.330 6  97602316.604 5                  23541297.880    23541306.220
  23541305.580          39.250          33.500
 103957932.215 8  80856218.758 7                  19447464.520    19447467.360
  19447466.840          49.050          47.300
 108270944.070 7  84210790.079 7                  20268533.920    20268537.740
  20268536.960          47.000          46.250
 128672659.505 6 100078747.746 5                  24062434.140    24062437.480
  24062435.640          41.950          32.050
 109361576.247 8  85059060.687 7                  20494299.420    20494301.200
  20494301.440          49.400          44.100
 128643923.611 6 100056384.260 4                  24090861.680    24090873.460
  24090870.540          41.250          28.650
 121935649.267 7  94838871.780 6                  22770617.360    22770621.320
  22770619.680          44.700          39.400
 107087703.045 7  83290589.563 7                  20039945.680    20039951.420
  20039949.400          46.800          45.700
 146778891.391 7                 109607633.502 6  27931092.760
                        44.200
 118294923.365 8                                  22510773.800
                        49.750
 15  1 27 17  1 15.0000000  0 19G30G21G18G13G17G15G28G24G05R14R05R16
                                R24R06R09R04R15E19E20
 128600820.010 7 100208520.564 6  96033179.044 8  24471889.060    24471889.520
  24471888.860          44.250          41.150
 134815265.761 6 105050854.95944                  25654492.760
  25654491.980          38.250          24.500
 130909298.931 7 102007251.08645                  24911206.420
  24911204.540          44.650          33.750
 106581440.955 8  83050541.50348                  20281747.700
  20281743.320          49.400          48.000
 129542360.263 7 100942153.988 6                  24651068.280    24651067.060
  24651066.760          45.900          40.850
 111537976.670 8  86912738.363 7                  21224953.220    21224950.120
  21224949.480          50.050          47.700
 116169220.079 8  90521604.42247                  22106199.120
  22106194.700          49.400          43.800
 120969615.014 7  94262114.898 7  90334542.307 8  23019726.400    23019727.500
  23019726.700          46.800          44.950
 118079345.041 8  92009893.327 7                  22469739.340    22469737.520
  22469736.880          49.400          46.350
 125506908.015 6  97616575.387 5                  23544737.040    23544745.400
  23544744.760          40.000          33.800
 103966199.181 8  80862648.606 7                  19449011.040    19449013.880
  19449013.360          49.750          47.550
 108262330.683 8  84204090.776 7                  20266921.480    20266925.300
  20266924.480          48.000          46.300
 128665835.349 6 100073440.042 5                  24061157.960    24061161.500
  24061159.540          41.100          32.550
 109347935.626 8  85048451.327 7                  20491743.180    20491744.940
  20491745.200          50.000          44.400
 128626310.795 7 100042685.522 4                  24087563.280    24087575.080
  24087572.120          42.050          29.300
 121956970.308 7  94855454.791 6                  22774598.820    22774602.900
  22774601.200          45.450          39.450
 107098746.872 7  83299179.207 7                  20042012.400    20042018.060
  20042016.040          47.550          45.900
 146764920.035 7                 109597200.389 7  27928434.060
                        42.650
 118288058.008 8                                  22509467.380
                        48.650
 15  1 27 17  1 20.0000000  0 19G30G21G18G13G17G15G28G24G05R14R05R16
                                R24R06R09R04R15E19E20
 128615969.415 7 100220325.288 6  96044491.943 8  24474771.880    24474772.360
  24474771.680          44.050          40.500
 134819333.340 6 105054024.58944                  25655266.780
  25655266.040          38.050          27.550
 130894615.792 7 101995809.69745                  24908412.300
  24908410.240          44.550          34.150
 106582462.271 8  83051337.33847                  20281942.060
  20281937.660          49.350          47.950
 129530634.926 7 100933017.384 6                  24648837.000    24648835.860
  24648835.500          45.600          40.850
 111528366.857 8  86905250.200 7                  21223124.520    21223121.460
  21223120.780          49.950          47.600
 116178338.635 8  90528709.78447                  22107934.200
  22107929.940          48.950          44.400
 120956927.233 7  94252228.331 7  90325067.685 8  23017312.040    23017313.040
  23017312.260          47.150          45.150
 118095088.662 8  92022161.075 7                  22472735.220    22472733.400
  22472732.800          49.350          46.150
 125525241.795 6  97630834.984 5                  23548176.440    23548184.640
  23548184.120          40.000          33.300
 103974488.799 8  80869096.091 7                  19450561.820    19450564.620
  19450564.080          49.600          47.600
 108253732.988 8  84197403.680 7                  20265311.960    20265315.780
  20265314.960          48.000          46.200
 128659031.135 6 100068147.879 5                  24059885.580    24059889.100
  24059887.160          40.800          33.500
 109334312.580 8  85037855.633 7                  20489190.280    20489191.980
  20489192.220          49.900          44.400
 128608705.979 7 100028993.012 4                  24084266.380    24084278.080
  24084275.300          43.150          29.950
 121978300.166 7  94872044.658 6                  22778581.940    22778586.060
  22778584.360          45.750          39.850
 107109802.521 7  83307778.056 7                  20044081.340    20044086.960
  20044084.900          47.700          45.850
 146750953.399 7                 109586770.783 6  27925776.320
                        42.650
 118281204.146 8                                  22508163.160
                        48.700
 15  1 27 17  1 25.0000000  0 19G30G21G18G13G17G15G28G24G05R14R05R16
                                R24R06R09R04R15E19E20
 128631115.694 7 100232127.601 6  96055802.452 8  24477654.100    24477654.560
  24477653.880          44.800          40.700
 134823407.419 6 105057199.18043                  25656041.980
  25656041.340          37.900          23.150
 130879936.165 7 101984371.04645                  24905618.860
  24905616.800          44.850          32.250
 106583490.929 8  83052138.88747                  20282137.800
  20282133.420          49.350          47.900
 129518910.903 7 100923881.806 6                  24646605.980    24646604.840
  24646604.480          45.900          40.750
 111518761.598 8  86897765.589 7                  21221296.680    21221293.660
  21221292.960          49.800          47.700
 116187465.962 8  90535821.97747                  22109670.960
  22109666.860          48.450          44.300
 120944241.821 7  94242343.599 7  90315594.824 8  23014898.080    23014899.060
  23014898.280          47.300          45.450
 118110836.819 8  92034432.358 7                  22475731.980    22475730.200
  22475729.580          49.300          46.200
 125543570.869 6  97645090.932 5                  23551614.900    23551622.980
  23551622.580          39.650          33.550
 103982795.585 8  80875556.922 7                  19452115.780    19452118.540
  19452118.040          49.300          47.500
 108245145.328 7  84190724.397 7                  20263704.320    20263708.160
  20263707.320          47.900          46.300
 128652241.163 6 100062866.806 5                  24058615.740    24058619.380
  24058617.520          40.300          34.150
 109320701.668 8  85027269.366 7                  20486639.640    20486641.300
  20486641.500          49.850          44.300
 128591103.430 7 100015302.248 4                  24080969.940    24080981.520
  24080978.980          43.800          29.300
 121999633.290 7  94888637.061 6                  22782565.740    22782569.920
  22782568.160          45.950          39.700
 107120864.398 7  83316381.742 7                  20046151.440    20046157.040
  20046154.960          47.750          46.000
 146736986.022 7                 109576340.611 6  27923118.480
                        42.850
 118274356.286 8                                  22506860.060
                        48.800
 15  1 27 17  1 30.0000000  0 19G30G21G18G13G17G15G28G24G05R14R05R16
                                R24R06R09R04R15E19E20
 128646262.119 7 100243930.031 6  96067113.103 8  24480536.380    24480536.860
  24480536.180          44.650          40.950
 134827491.452 6 105060381.57144                  25656819.100
  25656818.360          38.350          25.250
 130865263.384 7 101972937.68945                  24902826.740
  24902824.680          44.550          33.850
 106584530.235 8  83052948.73747                  20282335.560
  20282331.200          49.550          47.750
 129507191.530 7 100914749.840 6                  24644375.860    24644374.660
  24644374.360          46.050          40.200
 111509164.235 8  86890287.128 7                  21219470.320    21219467.340
  21219466.640          49.800          47.750
 116196605.417 8  90542943.62047                  22111410.020
  22111406.080          48.600          44.600
 120931561.980 7  94232463.208 7  90306126.122 8  23012485.220    23012486.200
  23012485.380          47.150          45.600
 118126592.836 8  92046709.764 7                  22478730.260    22478728.460
  22478727.860          49.650          46.150
 125561898.719 6  97659345.930 5                  23555053.180    23555061.320
  23555060.820          39.100          33.050
 103991122.881 8  80882033.710 7                  19453673.600    19453676.320
  19453675.840          49.450          47.450
 108236571.097 7  84184055.557 7                  20262099.220    20262103.040
  20262102.200          47.450          46.200
 128645468.832 6 100057599.465 5                  24057349.280    24057352.960
  24057351.140          40.500          32.100
 109307106.485 8  85016695.335 7                  20484091.900    20484093.500
  20484093.720          49.800          44.250
 128573506.562 7 100001615.908 4                  24077674.520    24077686.480
  24077683.540          42.450          29.000
 122020972.940 7  94905234.545 6                  22786550.800    22786554.940
  22786553.180          46.800          39.900
 107131935.717 7  83324992.765 7                  20048223.320    20048228.920
  20048226.820          47.550          45.950
 146723021.178 7                 109565912.355 7  27920461.060
                        43.100
 118267517.777 8                                  22505558.740
                        48.850
 15  1 27 17  1 35.0000000  0 19G30G21G18G13G17G15G28G24G05R14R05R16
                                R24R06R09R04R15E19E20
 128661409.891 7 100255733.477 6  96078424.768 8  24483418.920    24483419.380
  24483418.800          45.000          40.750
 134831586.385 6 105063572.35343                  25657598.360
  25657597.700          38.500          22.350
 130850598.605 7 101961510.63245                  24900036.140
  24900034.160          44.500          32.650
 106585581.363 8  83053767.81047                  20282535.600
  20282531.200          49.600          47.850
 129495477.964 7 100905622.412 6                  24642146.860    24642145.600
  24642145.340          46.150          40.750
 111499575.955 8  86882815.759 7                  21217645.680    21217642.760
  21217642.060          49.750          47.750
 116205758.125 8  90550075.60547                  22113151.620
  22113147.780          49.000          44.250
 120918888.953 7  94222588.138 7  90296662.503 8  23010073.660    23010074.600
  23010073.840          46.650          45.700
 118142357.911 8  92058994.240 7                  22481730.260    22481728.480
  22481727.840          50.050          46.300
 125580226.664 6  97673601.024 5                  23558491.420    23558499.480
  23558499.060          38.900          33.050
 103999471.821 8  80888527.331 7                  19455235.460    19455238.160
  19455237.680          49.500          47.600
 108228011.436 7  84177398.064 7                  20260496.820    20260500.680
  20260499.820          47.050          46.250
 128638715.327 6 100052346.756 5                  24056086.300    24056090.160
  24056088.280          41.150          32.950
 109293528.107 8  85006134.385 7                  20481547.320    20481548.960
  20481549.120          49.550          44.650
 128555916.732 6  99987935.018 4                  24074380.400    24074392.280
  24074389.480          41.100          29.250
 122042320.434 7  94921838.143 6                  22790537.300    22790541.400
  22790539.660          46.300          40.200
 107143017.791 7  83333612.155 7                  20050297.180    20050302.780
  20050300.680          47.200          46.200
 146709060.083 7                 109555486.876 7  27917804.400
                        43.100
 118260689.738 8                                  22504259.400
                        48.750
 15  1 27 17  1 40.0000000  0 19G30G21G18G13G17G15G28G24G05R14R05R16
                                R24R06R09R04R15E19E20
 128676557.265 7 100267536.659 6  96089736.119 8  24486301.380    24486301.820
  24486301.260          45.300          40.750
 134835690.568 6 105066770.52444                  25658379.400
  25658378.460          38.100          26.900
 130835940.167 7 101950088.46445                  24897246.740
  24897244.720          44.150          34.050
 106586642.647 8  83054594.78047                  20282737.540
  20282733.180          49.650          47.500
 129483768.523 7 100896498.195 6                  24639918.660    24639917.380
  24639917.140          46.400          40.650
 111489995.032 8  86875350.109 7                  21215822.440    21215819.580
  21215818.860          49.800          47.800
 116214922.374 8  90557216.57547                  22114895.440
  22114891.680          49.250          44.000
 120906221.004 7  94212717.023 7  90287202.695 8  23007663.060    23007663.980
  23007663.240          46.450          45.850
 118158130.270 8  92071284.389 7                  22484731.660    22484729.880
  22484729.260          50.000          46.450
 125598552.761 6  97687854.684 5                  23561929.380    23561937.360
  23561936.960          39.000          33.350
 104007840.720 8  80895036.468 7                  19456801.040    19456803.760
  19456803.240          49.600          47.350
 108219464.681 7  84170750.588 7                  20258896.840    20258900.700
  20258899.840          47.200          46.250
 128631978.990 6 100047107.426 5                  24054826.560    24054830.540
  24054828.560          41.550          31.700
 109279964.746 8  84995585.110 7                  20479005.500    20479007.200
  20479007.340          49.400          44.250
 128538331.930 6  99974258.041 4                  24071087.240    24071099.000
  24071096.240          41.800          28.350
 122063673.894 7  94938446.371 6                  22794524.960    22794528.980
  22794527.240          46.000          40.400
 107154108.909 7  83342238.574 7                  20052372.780    20052378.380
  20052376.260          47.150          45.850
 146695101.011 7                 109545062.945 7  27915148.060
                        43.250
 118253870.463 8                                  22502961.740
                        48.600
 15  1 27 17  1 45.0000000  0 19G30G21G18G13G17G15G28G24G05R14R05R16
                                R24R06R09R04R15E19E20
 128691704.022 7 100279339.327 6  96101047.011 8  24489183.720    24489184.240
  24489183.640          44.900          41.000
 134839803.797 6                                  25659162.120
                        37.850
 130821287.838 7 101938671.09845                  24894458.500
  24894456.600          44.200          32.000
 106587713.852 8  83055429.48747                  20282941.380
  20282937.020          49.650          47.750
 129472062.987 7 100887377.012 6                  24637691.180    24637689.880
  24637689.620          46.300          40.250
 111480421.222 8  86867890.001 7                  21214000.560    21213997.740
  21213997.020          49.750          47.600
 116224097.978 8  90564366.39547                  22116641.480
  22116637.700          49.400          44.050
 120893557.848 7  94202849.655 7  90277746.457 8  23005253.320    23005254.280
  23005253.560          46.900          45.700
 118173909.667 8  92083580.014 7                  22487734.440    22487732.620
  22487732.000          49.900          46.300
 125616876.948 6  97702106.857 5                  23565366.920    23565375.020
  23565374.460          39.200          32.950
 104016229.274 8  80901560.899 7                  19458370.300    19458373.000
  19458372.500          49.550          47.450
 108210930.578 7  84164112.952 7                  20257299.220    20257303.100
  20257302.240          47.400          46.450
 128625259.572 7 100041881.198 5                  24053570.040    24053573.920
  24053572.040          42.100          32.150
 109266416.313 8  84985047.444 7                  20476466.520    20476468.220
  20476468.380          49.400          44.600
 128520752.129 6  99960561.96414                  24067795.080    24067804.400
  24067803.980          41.300          29.100
 122085033.158 7  94955059.103 6                  22798513.580    22798517.720
  22798515.940          45.550          40.800
 107165208.737 7  83350871.770 7                  20054450.020    20054455.600
  20054453.460          47.200          45.950
 146681143.742 7                 109534640.305 7  27912492.120
                        43.100
 118247059.787 8                                  22501665.720
                        48.650
 15  1 27 17  1 50.0000000  0 20G30G21G18G13G17G15G28G24G05R14R05R16
                                R17R24R06R09R04R15E19E20
 128706850.400 7 100291141.695 6  96112357.626 8  24492065.980    24492066.500
  24492065.860          44.500          39.350
 134843926.317 6 105073162.66045                  25659946.640
  25659960.500          36.700          31.000
 130806641.868 7 101927258.68445                  24891671.440
  24891669.520          44.300          34.650
 106588795.193 8  83056272.08947                  20283147.140
  20283142.820          49.750          46.550
 129460361.604 7 100878259.083 6                  24635464.480    24635463.160
  24635462.860          46.250          39.300
 111470854.795 8  86860435.645 7                  21212180.080    21212177.300
  21212176.600          49.750          47.800
 116233285.139 8  90571525.21747                  22118389.740
  22118385.920          49.900          42.750
 120880899.891 7  94192986.321 7  90268294.103 8  23002844.560    23002845.600
  23002844.900          47.600          44.800
 118189696.353 8  92095881.313 7                  22490738.580    22490736.760
  22490736.140          50.000          45.300
 125635199.313 6  97716357.601 5                  23568804.140    23568812.180
  23568811.640          38.300          33.700
 104024637.775 8  80908100.842 7                  19459943.280    19459945.980
  19459945.480          49.250          47.800
 108202409.330 7  84157485.329 7                  20255704.000    20255707.920
  20255707.040          47.150          46.650
 132010433.426 6                                  24669306.080
                        40.700
 128618557.381 6 100036668.320 5                  24052316.680    24052320.400
  24052318.680          41.550          31.750
 109252882.984 8  84974521.522 7                  20473930.360    20473932.100
  20473932.260          49.150          44.900
 128503177.486 6  99946909.676 4                  24064503.820
  24064512.700          39.650          28.300
 122106398.418 7  94971676.490 6                  22802503.340    22802507.480
  22802505.800          45.350          41.050
 107176317.543 7  83359511.945 7                  20056528.900    20056534.480
  20056532.320          47.350          46.000
 146667188.533 7                 109524219.223 7  27909836.500
                        42.750
 118240257.929 8                                  22500371.380
                        48.600
 15  1 27 17  1 55.0000000  0 20G30G21G18G13G17G15G28G24G05R14R05R16
                                R17R24R06R09R04R15E19E20
 128721997.764 7 100302944.844 6  96123668.983 8  24494948.420    24494948.920
  24494948.180          44.150          39.550
 134848059.482 6 105076442.72454                  25660733.100
  25660740.640          37.600          29.550
 130792003.683 7 101915852.32245                  24888885.900
  24888883.920          45.100          32.150
 106589888.025 8  83057123.64847                  20283355.100
  20283350.760          49.900          46.600
 129448665.758 7 100869145.445 6                  24633238.840    24633237.480
  24633237.220          46.750          40.250
 111461297.116 8  86852988.112 7                  21210361.280    21210358.540
  21210357.860          49.800          47.250
 116242485.174 8  90578694.07847                  22120140.500
  22120136.560          50.550          42.150
 120868248.554 7  94183128.144 7  90258846.688 8  23000437.100    23000438.140
  23000437.480          47.900          44.850
 118205491.676 8  92108189.355 7                  22493744.360    22493742.520
  22493741.920          50.250          45.550
 125653521.225 6  97730607.971 5                  23572241.240    23572249.300
  23572248.780          38.400          34.000
 104033067.476 8  80914657.276 7                  19461520.220    19461522.920
  19461522.440          48.950          47.850
 108193902.318 7  84150868.774 7                  20254111.460    20254115.420
  20254114.500          46.600          46.800
 131994349.174 6 102662281.581 5                  24666300.140    24666303.420
  24666301.100          39.850          35.350
 128611873.652 6 100031469.875 5                  24051066.760    24051070.400
  24051068.820          40.250          31.650
 109239366.059 8  84964008.364 7                  20471397.240    20471399.040
  20471399.240          48.800          45.000
 128485609.417 6  99933274.948 4                  24061213.760    24061222.720
  24061222.580          38.700          27.700
 122127770.922 7  94988299.534 6                  22806494.540    22806498.620
  22806497.000          45.700          41.550
 107187436.541 7  83368160.060 7                  20058609.700    20058615.220
  20058613.060          47.050          46.200
 146653236.716 7                 109513800.702 6  27907181.500
                        43.150
 118233466.253 8                                  22499078.940
                        48.750
 15  1 27 17  2  0.0000000  0 20G30G21G18G13G17G15G28G24G05R14R05R16
                                R17R24R06R09R04R15E19E20
 128737142.698 7 100314746.091 6  96134978.497 8  24497830.400    24497830.960
  24497830.160          44.900          39.850
 134852199.953 6 105079623.80354                  25661520.980
  25661517.440          37.500          28.800
 130777369.865 7 101904449.34745                  24886101.200
  24886099.140          45.300          32.850
 106590989.013 8  83057981.55447                  20283564.600
  20283560.280          49.950          46.450
 129436972.098 7 100860033.524 6                  24631013.620    24631012.300
  24631012.040          46.300          40.150
