     2.11           OBSERVATION DATA    M (MIXED)           RINEX VERSION / TYPE
teqc  2011Oct11     IGN-E (SPG)         20150127 20:00:50UTCPGM / RUN BY / DATE
Linux 2.4.21-27.ELsmp|Opteron|gcc -static|Linux x86_64|=+   COMMENT
BIT 2 OF LLI FLAGS DATA COLLECTED UNDER A/S CONDITION       COMMENT
VALE                                                        MARKER NAME
13439M001                                                   MARKER NUMBER
Programas GeodesicosInstituto Geografico Nacional           OBSERVER / AGENCY
1700071             LEICA GR10          3.03/6.214          REC # / TYPE / VERS
10190012            LEIAR25.R3      LEIT                    ANT # / TYPE
  4929534.0457   -29050.6755  4033709.9250                  APPROX POSITION XYZ
        3.0390        0.0000        0.0000                  ANTENNA: DELTA H/E/N
     1     1                                                WAVELENGTH FACT L1/2
     8    L1    L2    L5    C1    C2    P2    S1    S2      # / TYPES OF OBSERV
     5.0000                                                 INTERVAL
Forced Modulo Decimation to 5 seconds                       COMMENT
DefaultJobName                                              COMMENT
DefaultUserDiscription                                      COMMENT
Project creator:                                            COMMENT
 SNR is mapped to RINEX snr flag value [0-9]                COMMENT
  L1 & L2: min(max(int(snr_dBHz/6), 0), 9)                  COMMENT
  2015     1    27    19     0    0.0000000     GPS         TIME OF FIRST OBS
    15                                                      LEAP SECONDS
                                                            END OF HEADER
 15  1 27 19  0  0.0000000  0 22G22G18G13G17G15G28G24G12G25R18R05R16
                                R17R08R06R09R07R19R10R15E19E20
 127759965.447 7  99553230.53146                  24311908.280
  24311902.340          46.950          36.800
 120801419.209 7  94130992.07346                  22987732.120
  22987727.900          47.850          38.150
 119122193.629 8  92822554.49846                  22668175.060
  22668171.300          49.650          39.400
 122662461.401 8  95581203.925 7                  23341859.960    23341855.960
  23341855.420          48.750          44.250
 108738213.169 8  84731106.750 8                  20692173.700    20692170.340
  20692169.660          50.100          48.700
 136210084.215 6 106137864.50644                  25919846.340
  25919841.820          41.350          27.550
 108672956.541 8  84680312.740 8  81151983.760 8  20679743.360    20679741.620
  20679741.040          50.200          49.950
 110437657.403 8  86055425.630 7                  21015523.080    21015519.380
  21015518.620          49.900          47.200
 127404565.903 7  99276380.115 6  95139890.150 8  24244248.720    24244250.760
  24244249.820          45.100          41.650
 116411498.727 8  90542351.301 7                  21807779.220    21807783.240
  21807782.520          48.450          43.650
 129951463.216 7 101073331.398 6                  24310141.200    24310151.760
  24310152.020          42.400          39.050
 107499672.551 7  83610916.548 7                  20124146.860    20124149.880
  20124148.880          46.800          46.100
 121393139.719 7  94416903.514 6                  22685205.160    22685206.500
  22685205.400          45.300          40.950
 128396620.271 7  99864057.547 6                  23977163.860    23977165.940
  23977164.820          42.700          37.900
 110394622.901 8  85862541.920 7                  20687891.020    20687893.100
  20687893.260          48.950          43.650
 110579505.412 7  86006225.783 6                  20707955.040    20707958.780
  20707956.660          47.000          36.250
 110776013.548 8  86159137.630 7                  20693887.400    20693888.900
  20693887.880          48.100          46.100
 128830321.870 7 100201340.029 6                  24083431.100    24083438.460
  24083436.860          43.550          36.650
 130557430.056 6 101544687.428 5                  24492240.380    24492250.800
  24492249.840          41.600          31.950
 127000159.404 6  98777924.971 6                  23766348.520    23766353.980
  23766352.180          41.000          36.400
 132673439.717 8                  99074358.807 7  25246903.620
                        49.350
 119440126.047 8                                  22728698.000
                        48.850
 15  1 27 19  0  5.0000000  0 22G22G18G13G17G15G28G24G12G25R18R05R16
                                R17R08R06R09R07R19R10R15E19E20
 127754110.042 7  99548667.88046                  24310794.000
  24310788.120          47.100          37.850
 120803730.153 7  94132792.81546                  22988171.940
  22988167.700          47.900          38.500
 119138213.190 8  92835037.27646                  22671223.540
  22671219.680          49.350          39.750
 122667138.233 8  95584848.208 7                  23342749.940    23342745.940
  23342745.440          48.700          44.700
 108745437.148 8  84736735.818 8                  20693548.380    20693545.040
  20693544.340          49.950          49.000
 136225824.003 6 106150129.28645                  25922841.540
  25922836.960          41.700          31.650
 108668670.321 8  84676972.830 8  81148783.005 8  20678927.760    20678925.960
  20678925.420          50.200          50.200
 110426733.482 8  86046913.501 7                  21013444.280    21013440.640
  21013439.880          49.900          47.600
 127387330.730 7  99262950.143 7  95127019.761 8  24240968.940    24240970.980
  24240970.020          44.700          42.000
 116400247.500 8  90533600.336 7                  21805671.500    21805675.480
  21805674.800          48.250          44.150
 129974013.565 6 101090870.157 6                  24314360.000    24314370.660
  24314370.900          41.300          38.300
 107505378.534 7  83615354.543 7                  20125215.080    20125218.060
  20125217.080          47.000          46.550
 121398675.529 7  94421209.155 6                  22686239.660    22686241.000
  22686239.860          45.300          41.550
 128378079.621 6  99849637.046 6                  23973701.560    23973703.560
  23973702.440          41.800          38.500
 110409913.214 8  85874434.373 7                  20690756.420    20690758.540
  20690758.640          48.800          44.150
 110572101.371 7  86000467.103 6                  20706568.520    20706572.320
  20706570.120          46.950          37.250
 110771594.499 7  86155700.586 7                  20693061.860    20693063.360
  20693062.380          47.800          46.300
 128809678.504 7 100185284.157 6                  24079572.060    24079579.340
  24079577.700          43.550          36.200
 130543455.463 6 101533818.296 5                  24489618.760    24489629.820
  24489628.580          40.100          31.650
 127014588.807 6  98789147.855 6                  23769048.720    23769054.180
  23769052.340          40.550          36.600
 132669992.009 8                  99071784.204 8  25246247.520
                        49.200
 119448814.499 8                                  22730351.340
                        48.750
 15  1 27 19  0 10.0000000  0 22G22G18G13G17G15G28G24G12G25R18R05R16
                                R17R08R06R09R07R19R10R15E19E20
 127748266.821 7  99544114.72646                  24309682.060
  24309676.240          46.750          36.350
 120806053.322 7  94134603.07146                  22988614.060
  22988609.740          47.800          38.550
 119154239.393 8  92847525.21446                  22674273.280
  22674269.360          49.300          39.200
 122671828.428 8  95588502.906 7                  23343642.460    23343638.460
  23343637.980          48.700          44.250
 108752673.272 8  84742374.354 8                  20694925.400    20694922.020
  20694921.320          50.050          49.000
 136241561.168 6 106162391.98045                  25925836.220
  25925831.400          41.700          32.800
 108664389.637 8  84673637.231 8  81145586.395 8  20678113.180    20678111.380
  20678110.840          50.200          50.150
 110415820.537 8  86038409.915 7                  21011367.600    21011363.980
  21011363.220          50.000          47.750
 127370099.001 7  99249522.864 6  95114151.962 8  24237689.800    24237691.840
  24237690.880          44.250          41.950
 116389011.838 8  90524861.504 7                  21803566.660    21803570.620
  21803570.000          48.350          44.150
 129996560.307 6 101108406.123 6                  24318578.140    24318588.900
  24318589.080          39.850          37.800
 107511089.427 7  83619796.346 7                  20126284.240    20126287.140
  20126286.180          46.950          46.400
 121404230.714 7  94425529.854 6                  22687277.760    22687279.100
  22687277.940          45.500          41.350
 128359547.508 7  99835223.224 6                  23970240.840    23970242.780
  23970241.620          42.150          37.800
 110425218.297 8  85886338.326 7                  20693624.620    20693626.740
  20693626.800          48.950          44.450
 110564703.164 7  85994712.944 6                  20705183.080    20705186.820
  20705184.660          46.700          37.050
 110767196.469 7  86152279.887 7                  20692240.240    20692241.780
  20692240.780          47.850          46.550
 128789031.893 7 100169225.753 6                  24075712.300    24075719.380
  24075717.860          42.950          36.800
 130529481.718 6 101522949.828 5                  24486997.400    24487008.540
  24487007.380          38.800          32.700
 127029015.685 6  98800368.774 6                  23771748.500    23771753.960
  23771752.080          40.750          38.050
 132666554.740 8                  99069217.426 7  25245593.440
                        49.300
 119457511.441 8                                  22732006.300
                        48.750
 15  1 27 19  0 15.0000000  0 22G22G18G13G17G15G28G24G12G25R18R05R16
                                R17R08R06R09R07R19R10R15E19E20
 127742437.652 7  99539572.53346                  24308572.760
  24308567.020          46.200          37.500
 120808390.597 7  94136424.31746                  22989058.860
  22989054.520          47.800          39.350
 119170274.119 8  92860019.80646                  22677324.620
  22677320.700          49.300          39.450
 122676533.847 8  95592169.468 7                  23344537.860    23344533.840
  23344533.420          48.350          44.200
 108759923.410 8  84748023.816 8                  20696305.080    20696301.680
  20696300.980          50.100          49.000
 136257297.467 6 106174654.07145                  25928830.720
  25928825.960          41.150          32.950
 108660116.374 8  84670307.417 8  81142395.325 8  20677300.000    20677298.200
  20677297.680          49.950          50.200
 110404920.403 8  86029916.308 7                  21009293.340    21009289.740
  21009289.000          49.900          47.850
 127352872.676 7  99236099.800 6  95101288.190 8  24234411.680    24234413.760
  24234412.820          44.100          41.650
 116377793.707 8  90516136.304 7                  21801465.120    21801469.080
  21801468.440          48.250          43.850
 130019105.575 6 101125940.918 6                  24322796.020    24322806.760
  24322807.020          41.400          38.400
 107516807.199 7  83624243.511 7                  20127354.660    20127357.500
  20127356.580          47.350          46.450
 121409807.348 7  94429867.249 6                  22688319.820    22688321.240
  22688320.020          45.450          41.500
 128341025.968 7  99820817.588 6                  23966782.040    23966783.940
  23966782.740          42.650          37.750
 110440539.680 8  85898254.955 7                  20696495.860    20696498.000
  20696498.000          48.950          44.600
 110557312.532 7  85988964.679 6                  20703799.060    20703802.760
  20703800.640          46.950          37.100
 110762821.671 8  86148877.281 7                  20691422.960    20691424.540
  20691423.560          48.100          46.600
 128768384.092 7 100153166.467 6                  24071852.380    24071859.340
  24071857.880          43.250          36.900
 130515510.823 6 101512083.567 5                  24484376.480    24484387.400
  24484386.440          41.200          31.250
 127043442.159 6  98811589.328 6                  23774448.280    23774453.760
  23774451.880          40.550          37.900
 132663129.800 8                  99066659.845 7  25244941.680
                        49.100
 119466218.717 8                                  22733663.240
                        48.550
 15  1 27 19  0 20.0000000  0 22G22G18G13G17G15G28G24G12G25R18R05R16
                                R17R08R06R09R07R19R10R15E19E20
 127736620.735 7  99535039.88346                  24307465.800
  24307460.160          46.400          36.250
 120810740.210 7  94138255.18846                  22989505.980
  22989501.660          47.650          38.900
 119186315.588 8  92872519.64846                  22680377.240
  22680373.280          49.150          39.400
 122681252.704 8  95595846.509 7                  23345435.840    23345431.800
  23345431.360          48.300          44.050
 108767185.775 8  84753682.808 8                  20697687.060    20697683.660
  20697682.960          49.950          48.900
 136273031.130 6 106186914.10743                  25931824.720
  25931820.000          41.250          23.650
 108655848.576 8  84666981.864 8  81139208.333 8  20676487.880    20676486.080
  20676485.540          50.000          50.150
 110394031.394 8  86021431.374 7                  21007221.200    21007217.620
  21007216.900          49.850          47.850
 127335649.876 7  99222679.470 6  95088427.057 8  24231134.240    24231136.360
  24231135.480          44.150          41.500
 116366591.350 7  90507423.361 7                  21799366.520    21799370.460
  21799369.820          47.800          43.450
 130041647.480 6 101143473.080 6                  24327013.240    24327024.000
  24327024.360          41.750          38.400
 107522529.969 7  83628694.558 7                  20128426.020    20128428.800
  20128427.900          47.650          46.150
 121415403.478 7  94434219.805 6                  22689365.600    22689367.080
  22689365.720          46.200          40.950
 128322513.078 7  99806418.661 6                  23963324.880    23963326.860
  23963325.500          42.650          36.800
 110455875.556 8  85910182.863 7                  20699369.820    20699371.940
  20699371.960          49.200          44.400
 110549927.701 7  85983220.932 6                  20702416.120    20702419.920
  20702417.700          47.200          37.550
 110758467.980 8  86145491.079 7                  20690609.640    20690611.240
  20690610.280          48.050          46.300
 128747733.184 7 100137104.755 6                  24067991.840    24067998.800
  24067997.340          43.450          37.150
 130501540.852 7 101501218.119 5                  24481755.740    24481766.760
  24481765.300          42.950          31.600
 127057866.430 6  98822808.186 6                  23777147.540    23777153.160
  23777151.240          41.000          37.750
 132659715.388 8                  99064110.114 7  25244291.920
                        49.050
 119474934.601 8                                  22735321.800
                        48.450
 15  1 27 19  0 25.0000000  0 22G22G18G13G17G15G28G24G12G25R18R05R16
                                R17R08R06R09R07R19R10R15E19E20
 127730817.457 7  99530517.86146                  24306361.420
  24306355.860          46.450          36.400
 120813103.496 7  94140096.69846                  22989955.720
  22989951.400          47.400          38.750
 119202365.144 8  92885025.79646                  22683431.400
  22683427.420          49.150          39.200
 122685986.285 8  95599535.016 7                  23346336.580    23346332.540
  23346332.140          48.100          44.050
 108774461.765 8  84759352.413 8                  20699071.660    20699068.220
  20699067.540          49.850          49.000
 136288763.450 6 106199173.04845                  25934818.500
  25934813.740          41.100          30.700
 108651587.759 8  84663661.753 8  81136026.558 8  20675677.080    20675675.280
  20675674.740          50.100          50.150
 110383154.784 8  86012956.096 7                  21005151.380    21005147.860
  21005147.160          49.750          47.850
 127318432.017 7  99209262.998 6  95075569.610 8  24227857.720    24227859.920
  24227858.980          44.200          40.900
 116355406.082 8  90498723.732 7                  21797271.140    21797275.120
  21797274.380          48.250          43.600
 130064187.209 6 101161003.565 6                  24331230.020    24331240.980
  24331241.240          41.700          39.550
 107528259.167 7  83633150.599 7                  20129498.600    20129501.320
  20129500.420          47.700          46.300
 121421020.452 7  94438588.557 6                  22690415.240    22690416.680
  22690415.360          45.650          41.200
 128304010.465 7  99792027.771 6                  23959869.640    23959871.580
  23959870.220          42.550          37.800
 110471227.261 8  85922123.074 7                  20702246.760    20702248.900
  20702248.880          49.200          44.450
 110542550.112 7  85977482.805 6                  20701034.560    20701038.440
  20701036.160          47.050          37.550
 110754137.115 8  86142122.629 7                  20689800.580    20689802.200
  20689801.240          48.250          46.550
 128727080.630 7 100121041.757 6                  24064130.980    24064137.940
  24064136.460          42.900          37.300
 130487573.144 6 101490354.427 5                  24479135.500    24479146.180
  24479144.740          40.650          31.400
 127072289.799 6  98834026.352 6                  23779846.660    23779852.340
  23779850.380          40.950          36.750
 132656312.884 8                  99061569.283 7  25243644.420
                        49.150
 119483660.432 8                                  22736982.260
                        48.450
 15  1 27 19  0 30.0000000  0 22G22G18G13G17G15G28G24G12G25R18R05R16
                                R17R08R06R09R07R19R10R15E19E20
 127725027.838 7  99526006.46546                  24305259.640
  24305254.140          46.350          37.450
 120815480.496 7  94141948.89446                  22990408.060
  22990403.760          47.450          38.850
 119218422.754 8  92897538.21046                  22686487.100
  22686483.080          48.950          39.400
 122690734.666 8  95603235.058 7                  23347240.140    23347236.080
  23347235.720          48.250          43.900
 108781751.424 8  84765032.665 8                  20700458.820    20700455.380
  20700454.720          49.850          48.850
 136304494.506 6 106211431.09045                  25937812.000
  25937807.300          39.800          30.700
 108647333.821 8  84660346.996 8  81132849.918 8  20674867.600    20674865.780
  20674865.240          50.050          49.950
 110372290.571 8  86004490.480 7                  21003083.940    21003080.480
  21003079.800          49.750          47.650
 127301219.109 7  99195850.367 6  95062715.862 8  24224582.160    24224584.340
  24224583.360          44.550          40.700
 116344237.974 8  90490037.425 7                  21795178.940    21795182.980
  21795182.160          48.000          43.300
 130086725.003 6 101178532.532 6                  24335446.500    24335457.500
  24335457.760          41.650          39.950
 107533994.742 7  83637611.597 7                  20130572.340    20130575.060
  20130574.120          47.400          45.750
 121426658.532 7  94442973.736 6                  22691468.860    22691470.320
  22691468.980          45.800          41.050
 128285517.951 7  99777644.736 6                  23956416.300    23956418.240
  23956416.880          43.200          37.200
 110486594.727 8  85934075.542 7                  20705126.640    20705128.760
  20705128.760          48.900          43.950
 110535179.763 7  85971750.316 6                  20699654.360    20699658.180
  20699655.960          46.800          36.700
 110749828.759 8  86138771.685 7                  20688995.720    20688997.320
  20688996.400          48.300          46.200
 128706426.330 7 100104977.393 6                  24060269.780    24060276.740
  24060275.260          42.700          37.400
 130473607.866 6 101479492.574 5                  24476515.600    24476526.140
  24476524.860          39.900          32.850
 127086712.303 6  98845243.878 6                  23782545.560    23782551.200
  23782549.260          40.750          36.500
 132652922.293 8                  99059037.360 7  25242999.220
                        49.300
 119492396.180 8                                  22738644.640
                        48.350
 15  1 27 19  0 35.0000000  0 22G22G18G13G17G15G28G24G12G25R18R05R16
                                R17R08R06R09R07R19R10R15E19E20
 127719252.604 7  99521506.30146                  24304160.660
  24304155.160          46.850          37.500
 120817871.892 7  94143812.32146                  22990863.120
  22990858.820          47.550          38.900
 119234489.173 8  92910057.49446                  22689544.440
  22689540.360          48.950          38.800
 122695498.611 8  95606947.220 7                  23348146.660    23348142.620
  23348142.260          48.250          44.100
 108789055.414 8  84770724.079 8                  20701848.720    20701845.280
  20701844.620          49.900          49.000
 136320225.008 6 106223688.56445                  25940805.420
  25940800.980          39.050          35.900
 108643087.602 8  84657038.261 8  81129679.037 8  20674059.560    20674057.760
  20674057.200          50.000          49.950
 110361439.506 8  85996035.110 7                  21001019.020    21001015.580
  21001014.920          49.750          47.650
 127284011.921 7  99182442.208 6  95049866.382 8  24221307.700    24221309.860
  24221308.880          44.650          40.200
 116333087.813 8  90481365.080 7                  21793090.120    21793094.160
  21793093.300          48.150          43.800
 130109261.383 6 101196060.404 6                  24339662.680    24339673.760
  24339674.040          40.300          40.350
 107539737.415 7  83642078.121 7                  20131647.380    20131650.080
  20131649.160          47.550          46.000
 121432318.180 7  94447375.678 6                  22692526.480    22692527.960
  22692526.600          45.350          41.300
 128267036.426 7  99763270.225 6                  23952965.060    23952966.900
  23952965.580          43.650          37.900
 110501978.792 8  85946040.913 7                  20708009.640    20708011.680
  20708011.740          48.850          44.200
 110527817.329 7  85966023.984 6                  20698275.640    20698279.320
  20698277.240          47.000          36.950
 110745543.890 8  86135439.012 7                  20688195.260    20688196.880
  20688195.980          48.050          46.400
 128685771.291 7 100088912.492 6                  24056408.460    24056415.400
  24056413.960          42.600          37.300
 130459645.816 6 101468633.195 5                  24473896.320    24473906.820
  24473905.840          41.350          34.300
 127101134.733 6  98856461.334 6                  23785244.560    23785250.240
  23785248.260          41.900          38.050
 132649544.374 8                  99056514.880 7  25242356.420
                        49.300
 119501142.592 8                                  22740309.020
                        48.400
 15  1 27 19  0 40.0000000  0 22G22G18G13G17G15G28G24G12G25R18R05R16
                                R17R08R06R09R07R19R10R15E19E20
 127713489.511 7  99517015.58846                  24303063.980
  24303058.440          46.700          37.000
 120820275.458 7  94145685.22246                  22991320.520
  22991316.220          47.900          37.550
 119250562.148 8  92922581.88546                  22692603.040
  22692598.960          48.850          39.000
 122700275.803 8  95610669.720 7                  23349055.720    23349051.680
  23349051.280          48.050          43.750
 108796371.488 8  84776424.907 8                  20703240.920    20703237.460
  20703236.820          50.000          48.700
 136335952.693 6 106235943.93045                  25943798.340
  25943793.820          37.700          33.050
 108638846.739 8  84653733.687 8  81126512.156 8  20673252.540    20673250.760
  20673250.180          50.000          49.750
 110350599.364 8  85987588.252 7                  20998956.160    20998952.780
  20998952.120          49.800          47.400
 127266808.165 7  99169036.714 6  95037019.464 8  24218033.860    24218035.980
  24218035.080          44.150          40.100
 116321953.281 8  90472704.903 7                  21791004.260    21791008.280
  21791007.400          48.450          43.600
 130131794.155 6 101213585.475 6                  24343878.160    24343889.360
  24343889.660          38.800          39.600
 107545485.021 7  83646548.480 7                  20132723.380    20132726.040
  20132725.120          47.600          45.900
 121437997.200 7  94451792.683 6                  22693587.760    22693589.200
  22693587.860          45.100          41.150
 128248563.528 7  99748902.427 6                  23949515.400    23949517.240
  23949515.960          43.250          37.850
 110517377.208 8  85958017.463 7                  20710895.300    20710897.340
  20710897.440          48.750          43.850
 110520460.546 7  85960302.038 6                  20696897.940    20696901.680
  20696899.580          47.100          36.850
 110741280.212 8  86132122.819 7                  20687398.700    20687400.440
  20687399.540          48.350          46.400
 128665113.035 7 100072845.051 6                  24052546.520    24052553.440
  24052551.960          43.200          36.450
 130445684.473 7 101457774.427 5                  24471277.160    24471287.860
  24471286.880          42.100          33.350
 127115554.779 6  98867676.915 6                  23787943.120    23787948.760
  23787946.800          41.750          37.300
 132646176.861 8                  99054000.191 7  25241715.620
                        49.250
 119509897.437 8                                  22741975.020
                        48.350
 15  1 27 19  0 45.0000000  0 22G22G18G13G17G15G28G24G12G25R18R05R16
                                R17R08R06R09R07R19R10R15E19E20
 127707740.636 7  99512535.94546                  24301970.020
  24301964.440          46.450          38.350
 120822693.232 7  94147569.19546                  22991780.640
  22991776.260          47.850          38.300
 119266643.708 8  92935112.96246                  22695663.240
  22695659.180          48.750          39.800
 122705068.338 7  95614404.171 7                  23349967.700    23349963.660
  23349963.240          47.800          44.400
 108803701.729 8  84782136.777 8                  20704635.800    20704632.380
  20704631.720          50.000          49.100
 136351679.703 6 106248198.73745                  25946791.140
  25946786.680          36.850          32.650
 108634613.453 8  84650435.021 8  81123350.938 8  20672446.960    20672445.180
  20672444.600          49.900          50.100
 110339772.186 8  85979151.490 7                  20996895.760    20996892.440
  20996891.780          49.700          47.800
 127249609.908 7  99155635.507 6  95024176.657 8  24214761.040    24214763.200
  24214762.220          43.900          40.400
 116310836.488 8  90464058.504 7                  21788921.740    21788925.740
  21788924.860          48.850          44.150
 130154325.393 6 101231109.331 6                  24348093.380    24348104.680
  24348104.960          38.900          39.350
 107551239.503 7  83651024.175 7                  20133800.680    20133803.300
  20133802.360          47.650          45.950
 121443697.760 7  94456226.463 6                  22694653.020    22694654.500
  22694653.160          45.250          41.000
 128230101.326 7  99734542.956 6                  23946067.680    23946069.540
  23946068.320          43.000          37.800
 110532791.995 8  85970006.723 7                  20713784.080    20713786.060
  20713786.180          48.800          44.600
 110513111.627 7  85954586.216 6                  20695521.720    20695525.440
  20695523.380          46.900          37.050
 110737039.704 8  86128824.651 7                  20686606.540    20686608.280
  20686607.440          48.050          46.700
 128644453.798 7 100056776.837 5                  24048684.420    24048691.340
  24048689.780          42.750          35.850
 130431726.037 6 101446917.942 5                  24468658.620    24468669.360
  24468668.380          40.350          33.400
 127129974.517 6  98878892.298 6                  23790641.600    23790647.180
  23790645.300          40.600          37.800
 132642821.812 8                  99051494.789 8  25241077.180
                        49.150
 119518662.741 8                                  22743642.980
                        48.300
 15  1 27 19  0 50.0000000  0 22G22G18G13G17G15G28G24G12G25R18R05R16
                                R17R08R06R09R07R19R10R15E19E20
 127702004.453 7  99508066.19746                  24300878.480
  24300872.860          46.350          38.900
 120825123.694 7  94149463.05946                  22992243.140
  22992238.780          47.900          38.300
 119282732.348 8  92947649.55946                  22698724.800
  22698720.700          48.650          40.250
 122709874.696 8  95618149.395 7                  23350882.340    23350878.280
  23350877.820          48.150          44.200
 108811044.626 8  84787858.516 8                  20706033.100    20706029.700
  20706029.000          49.950          48.900
 136367404.401 6 106260451.74445                  25949783.400
  25949778.740          37.150          33.100
 108630386.232 8  84647141.091 8  81120194.253 8  20671642.520    20671640.760
  20671640.180          49.750          49.950
 110328956.490 8  85970723.683 7                  20994837.540    20994834.300
  20994833.640          49.550          47.600
 127232415.679 7  99142237.440 6  95011336.856 8  24211489.020    24211491.200
  24211490.180          44.100          40.350
 116299735.933 8  90455424.737 7                  21786842.260    21786846.180
  21786845.360          48.600          43.800
 130176853.525 6 101248630.799 6                  24352307.980    24352319.540
  24352319.700          38.350          38.750
 107556999.345 7  83655504.058 7                  20134878.940    20134881.580
  20134880.600          47.300          45.700
 121449418.077 7  94460675.609 6                  22695721.960    22695723.460
  22695722.120          45.400          40.800
 128211648.457 7  99720190.756 6                  23942621.700    23942623.660
  23942622.400          42.600          37.500
 110548221.561 8  85982007.484 7                  20716675.560    20716677.600
  20716677.720          48.950          44.100
 110505768.848 7  85948875.180 6                  20694146.660    20694150.340
  20694148.300          46.850          36.900
 110732821.120 8  86125543.532 7                  20685818.480    20685820.220
  20685819.400          48.000          46.150
 128623792.009 7 100040706.641 5                  24044821.880    24044828.640
  24044827.060          43.550          35.250
 130417769.246 6 101436062.681 5                  24466040.380    24466051.020
  24466050.080          40.550          32.850
 127144392.453 6  98890106.252 6                  23793339.600    23793345.240
  23793343.400          39.950          37.800
 132639477.736 8                  99048997.592 7  25240440.820
                        49.050
 119527437.000 8                                  22745312.640
                        48.250
 15  1 27 19  0 55.0000000  0 22G22G18G13G17G15G28G24G12G25R18R05R16
                                R17R08R06R09R07R19R10R15E19E20
 127696282.809 7  99503607.78446                  24299789.720
  24299784.080          46.650          37.850
 120827568.767 7  94151368.31146                  22992708.420
  22992704.060          47.700          37.850
 119298829.925 8  92960193.11746                  22701788.040
  22701783.960          48.700          39.950
 122714696.745 8  95621906.832 7                  23351799.960    23351795.880
  23351795.420          48.450          44.250
 108818402.036 8  84793591.556 8                  20707433.160    20707429.760
  20707429.060          49.650          49.000
 136383128.718 6 106272704.43245                  25952775.640
  25952770.940          37.550          32.000
 108626166.793 8  84643853.218 8  81117043.373 8  20670839.580    20670837.820
  20670837.220          49.600          50.050
 110318154.110 8  85962306.253 7                  20992781.840    20992778.680
  20992778.000          49.450          47.700
 127215227.335 7  99128843.948 6  94998501.438 8  24208218.080    24208220.280
  24208219.280          44.150          41.000
 116288653.514 8  90446805.088 7                  21784766.180    21784770.120
  21784769.280          48.100          44.250
 130199380.449 6 101266151.285 6                  24356522.360    24356534.080
  24356534.240          40.200          40.100
 107562766.473 7  83659989.600 7                  20135958.560    20135961.200
  20135960.200          47.250          46.250
 121455160.327 7  94465141.809 6                  22696795.020    22696796.540
  22696795.180          45.600          41.750
 128193206.794 7  99705847.251 6                  23939177.800    23939179.740
  23939178.560          42.650          38.200
 110563667.830 8  85994021.253 7                  20719570.180    20719572.280
  20719572.360          49.000          44.950
 110498434.147 7  85943170.412 6                  20692773.120    20692776.820
  20692774.760          46.700          37.250
 110728625.952 8  86122280.617 7                  20685034.740    20685036.540
  20685035.720          48.050          46.750
 128603129.569 7 100024635.928 5                  24040959.240    24040965.820
  24040964.220          43.400          35.900
 130403815.552 7 101425209.837 5                  24463422.620    24463433.260
  24463432.380          42.800          34.000
 127158810.358 6  98901320.145 6                  23796037.580    23796043.340
  23796041.540          40.900          39.050
 132636146.477 8                  99046509.965 7  25239806.900
                        49.150
 119536222.048 8                                  22746984.360
                        48.300
 15  1 27 19  1  0.0000000  0 22G22G18G13G17G15G28G24G12G25R18R05R16
                                R17R08R06R09R07R19R10R15E19E20
 127690573.008 7  99499158.59746                  24298703.220
  24298697.640          46.600          37.700
 120830025.675 7  94153282.77746                  22993175.980
  22993171.600          47.650          38.350
 119314933.698 8  92972741.51346                  22704852.480
  22704848.380          48.650          38.950
 122719531.751 8  95625674.371 7                  23352720.060    23352715.920
  23352715.480          48.300          43.700
 108825771.220 8  84799333.775 8                  20708835.480    20708832.100
  20708831.360          49.600          48.800
 136398849.837 6 106284954.67745                  25955767.320
  25955762.580          37.850          31.500
 108621952.543 8  84640569.394 8  81113896.381 8  20670037.620    20670035.880
  20670035.280          49.600          49.900
 110307362.364 8  85953897.114 7                  20990728.160    20990725.080
  20990724.400          49.350          47.350
 127198042.176 7  99115452.946 6  94985668.406 8  24204947.800    24204950.040
  24204949.000          43.950          41.200
 116277586.501 7  90438197.409 7                  21782692.940    21782696.960
  21782696.080          47.850          43.800
 130221903.369 6 101283668.656 6                  24360736.040    24360747.860
  24360748.040          40.850          39.050
 107568538.147 7  83664478.680 7                  20137039.060    20137041.680
  20137040.640          47.100          45.900
 121460921.503 7  94469622.732 6                  22697871.620    22697873.100
  22697871.800          45.600          41.250
 128174773.530 7  99691510.301 6                  23935735.500    23935737.480
  23935736.300          42.000          37.600
 110579128.009 8  86006045.831 7                  20722467.380    20722469.480
  20722469.620          48.850          44.500
 110491104.849 7  85937469.854 6                  20691400.580    20691404.240
  20691402.180          46.450          36.750
 110724451.831 7  86119034.080 7                  20684254.980    20684256.800
  20684255.980          47.950          46.350
 128582463.717 7 100008562.573 6                  24037095.940    24037102.500
  24037100.760          42.050          36.800
 130389862.220 7 101414357.283 5                  24460805.000    24460815.560
  24460814.740          43.050          33.700
 127173225.499 6  98912531.913 6                  23798735.280    23798740.980
  23798739.220          40.050          38.700
 132632825.332 8                  99044029.893 7  25239174.940
                        49.200
 119545015.183 8                                  22748657.620
                        48.300
 15  1 27 19  1  5.0000000  0 22G22G18G13G17G15G28G24G12G25R18R05R16
                                R17R08R06R09R07R19R10R15E19E20
 127684876.387 7  99494719.67746                  24297619.200
  24297613.580          46.250          38.550
 120832495.736 7  94155207.50246                  22993646.000
  22993641.640          47.600          37.850
 119331045.003 8  92985295.76546                  22707918.340
  22707914.240          48.400          40.000
 122724381.003 8  95629453.013 7                  23353642.860    23353638.700
  23353638.240          48.100          44.150
 108833153.470 8  84805086.180 8                  20710240.280    20710236.880
  20710236.160          49.700          49.100
 136414569.188 6 106297203.53045                  25958758.660
  25958753.960          38.600          32.650
 108617744.713 8  84637290.571 8  81110754.174 8  20669236.880    20669235.160
  20669234.540          49.700          50.150
 110296582.563 8  85945497.277 7                  20988676.800    20988673.720
  20988673.060          49.400          47.750
 127180861.503 7  99102065.440 6  94972838.714 8  24201678.400    24201680.600
  24201679.620          44.250          41.500
 116266536.217 7  90429602.761 7                  21780622.820    21780626.880
  21780626.000          47.700          43.900
 130244423.611 7 101301183.970 6                  24364949.200    24364961.100
  24364961.320          42.150          38.100
 107574315.596 7  83668972.262 7                  20138120.640    20138123.200
  20138122.180          47.200          46.100
 121466703.118 7  94474119.542 6                  22698952.040    22698953.520
  22698952.260          45.750          41.700
 128156350.055 7  99677180.959 6                  23932295.120    23932297.000
  23932295.840          42.500          37.250
 110594603.250 8  86018082.127 7                  20725367.460    20725369.600
  20725369.680          48.650          44.550
 110483782.151 7  85931774.431 6                  20690029.300    20690032.920
  20690030.820          46.850          36.750
 110720299.761 7  86115804.691 7                  20683479.340    20683481.160
  20683480.360          47.650          46.550
 128561795.883 7  99992487.718 6                  24033232.300    24033238.900
  24033237.000          42.250          37.800
 130375910.813 7 101403506.234 5                  24458187.780    24458198.380
  24458197.460          42.400          33.750
 127187639.338 6  98923742.669 6                  23801432.600    23801438.300
  23801436.620          40.400          38.950
 132629515.605 8                  99041558.342 7  25238545.140
                        49.300
 119553817.725 8                                  22750332.660
                        48.300
 15  1 27 19  1 10.0000000  0 22G22G18G13G17G15G28G24G12G25R18R05R16
                                R17R08R06R09R07R19R10R15E19E20
 127679195.707 7  99490293.16746                  24296538.220
  24296532.540          46.450          37.250
 120834981.691 7  94157144.60146                  22994119.060
  22994114.680          47.550          38.200
 119347166.587 8  92997858.02846                  22710986.180
  22710982.060          48.600          38.800
 122729247.263 7  95633244.904 7                  23354568.900    23354564.680
  23354564.220          47.900          43.850
 108840551.559 8  84810850.920 8                  20711648.100    20711644.720
  20711643.960          49.950          48.800
 136430289.482 6 106309453.08344                  25961750.160
  25961745.340          38.850          29.350
 108613546.089 8  84634018.908 8  81107618.842 8  20668437.880    20668436.180
  20668435.560          50.000          49.900
 110285817.457 8  85937108.875 7                  20986628.220    20986625.200
  20986624.520          49.400          47.350
 127163688.084 7  99088683.586 6  94960014.458 8  24198410.380    24198412.600
  24198411.640          44.500          41.200
 116255505.540 7  90421023.345 7                  21778556.360    21778560.480
  21778559.560          47.700          43.450
 130266943.936 6 101318699.360 6                  24369162.360    24369174.360
  24369174.580          41.150          36.950
 107580101.765 7  83673472.607 7                  20139203.840    20139206.340
  20139205.340          47.250          45.950
 121472507.936 7  94478634.385 6                  22700036.800    22700038.320
  22700037.060          45.800          41.500
 128137939.106 7  99662861.352 6                  23928856.960    23928858.940
  23928857.660          42.600          36.850
 110610096.648 8  86030132.548 7                  20728270.880    20728273.060
  20728273.160          48.400          44.050
 110476468.962 7  85926086.396 6                  20688659.780    20688663.440
  20688661.240          46.850          36.350
 110716172.768 7  86112594.805 7                  20682708.380    20682710.220
  20682709.420          47.900          46.350
 128541128.865 7  99976413.470 6                  24029368.740    24029375.320
  24029373.400          42.150          37.850
 130361964.163 7 101392658.831 5                  24455571.440    24455582.040
  24455581.140          42.200          32.650
 127202054.690 6  98934954.577 6                  23804130.240    23804135.820
  23804134.180          41.250          37.600
 132626220.088 8                  99039097.404 7  25237918.040
                        49.350
 119562632.369 8                                  22752009.980
                        48.250
 15  1 27 19  1 15.0000000  0 22G22G18G13G17G15G28G24G12G25R18R05R16
                                R17R08R06R09R07R19R10R15E19E20
 127673525.910 7  99485875.14746                  24295459.300
  24295453.560          46.300          38.500
 120837478.508 7  94159090.16946                  22994594.180
  22994589.820          47.700          38.600
 119363293.387 8  93010424.36546                  22714055.000
  22714050.880          48.600          39.700
 122734125.536 8  95637046.160 7                  23355497.220    23355492.980
  23355492.500          48.100          44.050
 108847960.444 8  84816624.076 8                  20713057.980    20713054.580
  20713053.820          50.100          49.000
 136446005.567 6 106321699.38145                  25964740.840
  25964735.920          40.100          33.400
 108609351.586 8  84630750.455 8  81104486.571 8  20667639.700    20667637.980
  20667637.360          50.100          50.100
 110275062.010 8  85928728.005 7                  20984581.480    20984578.500
  20984577.800          49.300          47.650
 127146516.887 7  99075303.478 6  94947191.857 8  24195142.740    24195145.040
  24195144.140          44.850          41.100
 116244489.316 7  90412455.175 7                  21776492.620    21776496.760
  21776495.820          47.900          43.950
 130289459.287 7 101336210.851 6                  24373374.580    24373386.680
  24373386.920          42.400          38.500
 107585891.433 7  83677975.678 7                  20140287.680    20140290.180
  20140289.180          47.500          46.250
 121478330.734 7  94483163.233 6                  22701124.940    22701126.520
  22701125.240          46.100          41.550
 128119535.685 7  99648547.580 6                  23925420.240    23925422.180
  23925420.860          42.800          36.800
 110625602.876 8  86042192.931 7                  20731176.720    20731178.900
  20731179.020          49.100          44.300
 110469160.231 7  85920401.828 6                  20687291.100    20687294.760
  20687292.500          47.150          36.750
 110712065.632 8  86109400.364 7                  20681941.120    20681943.000
  20681942.220          48.050          46.650
 128520457.573 7  99960335.900 6                  24025504.360    24025511.000
  24025509.040          43.000          37.850
 130348017.082 7 101381811.124 5                  24452955.000    24452965.660
  24452964.780          43.350          34.300
 127216466.258 6  98946163.608 6                  23806827.220    23806832.740
  23806831.040          40.900          38.200
 132622933.729 8                  99036643.298 7  25237292.700
                        49.450
 119571454.105 8                                  22753688.660
                        48.300
 15  1 27 19  1 20.0000000  0 22G22G18G13G17G15G28G24G12G25R18R05R16
                                R17R08R06R09R07R19R10R15E19E20
 127667870.935 7  99481468.68246                  24294383.140
  24294377.380          45.800          38.500
 120839990.116 7  94161047.26346                  22995072.080
  22995067.760          47.700          37.950
 119379429.313 8  93022997.81446                  22717125.560
  22717121.400          48.750          39.400
 122739019.677 8  95640859.788 7                  23356428.560    23356424.320
  23356423.800          48.300          43.950
 108855384.038 8  84822408.703 8                  20714470.640    20714467.260
  20714466.500          49.950          48.950
 136461721.470 6 106333945.56644                  25967731.480
  25967726.600          39.400          26.600
 108605165.269 8  84627488.397 8  81101360.435 8  20666843.060    20666841.340
  20666840.720          50.000          50.000
 110264320.190 8  85920357.764 7                  20982537.340    20982534.380
  20982533.700          49.100          47.500
 127129351.850 7  99061928.165 6  94934373.856 8  24191876.300    24191878.600
  24191877.720          44.450          40.950
 116233491.634 7  90403901.435 7                  21774432.340    21774436.520
  21774435.540          47.950          43.550
 130311973.451 7 101353721.431 6                  24377586.660    24377598.760
  24377599.040          43.550          38.850
 107591688.628 7  83682484.622 7                  20141372.940    20141375.420
  20141374.440          47.550          46.050
 121484175.539 7  94487709.213 6                  22702217.200    22702218.780
  22702217.500          45.850          41.150
 128101143.855 7  99634242.863 6                  23921985.680    23921987.620
  23921986.300          42.450          36.950
 110641125.906 8  86054266.392 7                  20734085.700    20734087.920
  20734088.040          49.250          43.900
 110461859.862 7  85914723.780 6                  20685924.020    20685927.760
  20685925.320          47.050          36.350
 110707982.480 8  86106224.584 7                  20681178.340    20681180.240
  20681179.480          48.000          46.300
 128499785.992 7  99944258.096 6                  24021640.000    24021646.580
  24021644.620          43.600          36.900
 130334073.420 7 101370966.072 5                  24450339.280    24450349.980
  24450348.920          44.100          32.600
 127230878.029 6  98957372.776 6                  23809524.140    23809529.780
  23809528.040          40.700          39.050
 132619660.451 8                  99034198.977 7  25236669.840
                        49.300
 119580286.887 8                                  22755369.480
                        48.050
 15  1 27 19  1 25.0000000  0 22G22G18G13G17G15G28G24G12G25R18R05R16
                                R17R08R06R09R07R19R10R15E19E20
 127662228.826 7  99477072.23146                  24293309.400
  24293303.680          45.700          38.050
 120842514.514 7  94163014.32346                  22995552.420
  22995548.120          47.850          37.600
 119395572.435 8  93035576.86446                  22720197.500
  22720193.360          48.850          40.100
 122743927.751 8  95644684.258 7                  23357362.540    23357358.300
  23357357.780          48.500          44.050
 108862820.386 8  84828203.256 8                  20715885.760    20715882.320
  20715881.580          49.850          48.950
 136477435.233 6 106346190.04844                  25970721.720
  25970716.640          39.650          29.300
 108600985.088 8  84624231.107 8  81098238.862 8  20666047.580    20666045.880
  20666045.260          49.950          50.000
 110253590.014 8  85911996.596 7                  20980495.420    20980492.460
  20980491.800          49.400          47.450
 127112191.030 7  99048556.130 6  94921558.990 8  24188610.660    24188613.000
  24188612.040          44.350          40.950
 116222510.457 8  90395360.531 7                  21772375.200    21772379.380
  21772378.360          48.050          43.800
 130334484.589 7 101371229.643 6                  24381798.180    24381810.320
  24381810.620          43.050          39.450
 107597491.338 7  83686997.841 7                  20142459.260    20142461.660
  20142460.740          47.600          46.250
 121490040.363 7  94492270.747 6                  22703313.140    22703314.720
  22703313.480          45.700          41.750
 128082761.538 7  99619945.533 6                  23918552.900    23918554.660
  23918553.500          42.200          37.250
 110656663.799 8  86066351.408 7                  20736997.460    20736999.720
  20736999.820          49.150          43.850
 110454565.803 7  85909050.618 6                  20684558.100    20684561.720
  20684559.320          47.000          36.800
 110703921.140 8  86103065.759 7                  20680419.660    20680421.600
  20680420.820          48.050          46.550
 128479112.161 7  99928178.510 6                  24017775.260    24017781.700
  24017779.700          42.750          37.000
 130320131.267 7 101360122.227 5                  24447723.800    24447734.500
  24447733.240          42.050          32.300
 127245288.002 6  98968580.527 6                  23812220.760    23812226.600
  23812224.820          41.650          40.250
 132616398.301 8                  99031762.943 7  25236049.100
                        49.400
 119589128.715 8                                  22757052.000
                        48.100
 15  1 27 19  1 30.0000000  0 22G22G18G13G17G15G28G24G12G25R18R05R16
                                R17R08R06R09R07R19R10R15E19E20
 127656599.638 7  99472685.86146                  24292238.160
  24292232.500          45.950          37.550
 120845051.774 7  94164991.40246                  22996035.220
  22996030.920          47.850          38.100
 119411722.793 8  93048161.54646                  22723270.820
  22723266.720          48.850          39.350
 122748849.828 8  95648519.640 7                  23358299.180    23358294.940
  23358294.400          48.450          44.000
 108870269.546 8  84834007.790 8                  20717303.300    20717299.860
  20717299.100          49.900          49.000
 136493146.885 6 106358432.91045                  25973711.540
  25973706.360          39.950          31.050
 108596811.053 8  84620978.612 8  81095121.885 8  20665253.280    20665251.580
  20665250.960          49.950          49.950
 110242871.565 8  85903644.564 7                  20978455.740    20978452.780
  20978452.120          49.650          47.350
 127095034.464 7  99035187.408 6  94908747.307 8  24185345.840    24185348.160
  24185347.200          44.100          41.400
 116211545.790 8  90386832.464 7                  21770321.160    21770325.280
  21770324.280          48.050          43.950
 130356992.705 7 101388735.502 6                  24386009.120    24386021.380
  24386021.620          42.350          39.100
 107603299.598 7  83691515.377 7                  20143546.580    20143548.960
  20143548.040          47.500          46.300
 121495925.229 7  94496847.878 6                  22704412.880    22704414.380
  22704413.180          45.150          40.700
 128064388.756 7  99605655.606 6                  23915121.920    23915123.600
  23915122.480          42.600          37.550
 110672216.565 8  86078447.980 7                  20739912.060    20739914.260
  20739914.400          49.150          44.050
 110447278.093 7  85903382.397 6                  20683193.380    20683196.940
  20683194.520          47.000          37.050
 110699881.862 7  86099924.093 7                  20679665.080    20679667.040
  20679666.240          47.850          46.600
 128458436.038 6  99912097.158 6                  24013909.960    24013916.340
  24013914.320          41.500          37.100
 130306190.779 6 101349279.667 5                  24445108.540    24445119.160
  24445117.940          39.250          31.700
 127259696.426 6  98979787.080 6                  23814917.200    23814923.040
  23814921.320          41.300          39.750
 132613147.329 8                  99029335.270 7  25235430.480
                        49.400
 119597979.603 8                                  22758736.260
                        48.250
 15  1 27 19  1 35.0000000  0 22G22G18G13G17G15G28G24G12G25R18R05R16
                                R17R08R06R09R07R19R10R15E19E20
 127650985.058 7  99468310.88246                  24291169.660
  24291164.140          46.100          38.000
 120847603.553 7  94166979.80046                  22996520.820
  22996516.480          47.700          38.650
 119427882.025 8  93060753.15546                  22726345.860
  22726341.760          49.050          39.650
 122753787.548 8  95652367.208 7                  23359238.800    23359234.600
  23359234.060          48.650          44.200
 108877733.189 8  84839823.615 8                  20718723.620    20718720.140
  20718719.400          50.000          49.050
 136508858.077 6 106370675.37945                  25976701.240
  25976696.240          40.750          33.400
 108592644.916 8  84617732.280 8  81092010.823 8  20664460.480    20664458.780
  20664458.180          49.850          50.050
 110232166.491 8  85895302.956 7                  20976418.620    20976415.660
  20976415.000          49.750          47.600
 127077883.851 7  99021823.342 6  94895940.075 8  24182082.140    24182084.520
  24182083.500          43.750          41.800
 116200599.439 8  90378318.633 7                  21768270.580    21768274.600
  21768273.680          48.050          44.000
 130379499.444 7 101406240.292 6                  24390219.860    24390232.120
  24390232.380          42.350          39.700
 107609115.073 7  83696038.522 7                  20144635.260    20144637.620
  20144636.700          47.550          46.400
 121501831.953 7  94501442.002 6                  22705516.680    22705518.080
  22705516.920          44.850          40.800
 128046027.318 7  99591374.514 6                  23911693.040    23911694.600
  23911693.620          42.300          37.700
 110687785.851 8  86090557.415 7                  20742829.720    20742831.940
  20742832.060          49.000          44.300
 110439998.603 7  85897720.576 6                  20681830.160    20681833.920
  20681831.300          47.200          37.150
 110695866.269 8  86096800.870 7                  20678914.940    20678916.900
  20678916.100          48.000          46.650
 128437759.466 6  99896015.471 6                  24010044.580    24010051.020
  24010048.940          41.150          38.100
 130292253.586 6 101338439.597 5                  24442493.820    24442504.600
  24442503.340          40.850          33.500
 127274104.897 6  98990993.651 6                  23817613.560    23817619.460
  23817617.760          40.350          38.300
 132609909.220 8                  99026917.220 7  25234814.320
                        49.450
 119606841.254 8                                  22760422.580
                        48.250
 15  1 27 19  1 40.0000000  0 22G22G18G13G17G15G28G24G12G25R18R05R16
                                R17R08R06R09R07R19R10R15E19E20
 127645381.924 7  99463944.81246                  24290103.400
  24290097.840          46.150          38.350
 120850166.699 7  94168977.06746                  22997008.560
  22997004.220          47.250          39.250
 119444047.002 8  93073349.24446                  22729421.960
  22729417.880          49.100          40.000
 122758737.705 8  95656224.486 7                  23360180.780    23360176.600
  23360176.040          48.600          44.100
 108885208.149 8  84845648.259 8                  20720146.060    20720142.560
  20720141.860          50.100          49.200
 136524565.628 6 106382915.07644                  25979690.260
  25979685.200          40.600          29.150
 108588483.601 8  84614489.706 8  81088903.347 8  20663668.580    20663666.900
  20663666.300          50.000          50.100
 110221471.671 8  85886969.336 7                  20974383.460    20974380.480
  20974379.820          49.800          47.650
 127060736.037 7  99008461.458 7  94883134.932 8  24178819.000    24178821.400
  24178820.440          43.750          42.050
 116189668.231 8  90369816.599 7                  21766222.880    21766226.820
  21766225.900          48.350          43.950
 130402001.690 7 101423741.584 6                  24394429.720    24394442.000
  24394442.320          42.450          39.900
 107614934.652 7  83700564.863 7                  20145724.740    20145727.020
  20145726.140          47.600          46.150
 121507757.235 7  94506050.552 6                  22706623.960    22706625.320
  22706624.160          45.200          40.250
 128027674.063 7  99577099.769 6                  23908265.680    23908267.200
  23908266.300          42.200          37.350
 110703368.419 8  86102677.196 7                  20745749.900    20745752.100
  20745752.240          48.750          44.350
 110432723.933 7  85892062.504 6                  20680467.900    20680471.620
  20680468.940          47.100          36.550
 110691871.096 7  86093693.511 7                  20678168.640    20678170.600
  20678169.760          47.950          46.400
 128417079.206 7  99879930.939 6                  24006178.540    24006184.920
  24006182.860          42.650          37.650
 130278316.387 7 101327599.572 5                  24439879.200    24439890.000
  24439888.900          42.700          33.200
 127288510.200 6  99002197.754 6                  23820309.220    23820315.220
  23820313.420          40.100          37.150
 132606680.834 8                  99024506.414 7  25234200.000
                        49.550
 119615710.521 8                                  22762110.340
                        48.250
