     2.11           OBSERVATION DATA    M (MIXED)           RINEX VERSION / TYPE
teqc  2011Oct11     IGN-E (SPG)         20150127 14:00:49UTCPGM / RUN BY / DATE
Linux 2.4.21-27.ELsmp|Opteron|gcc -static|Linux x86_64|=+   COMMENT
BIT 2 OF LLI FLAGS DATA COLLECTED UNDER A/S CONDITION       COMMENT
VALE                                                        MARKER NAME
13439M001                                                   MARKER NUMBER
Programas GeodesicosInstituto Geografico Nacional           OBSERVER / AGENCY
1700071             LEICA GR10          3.03/6.214          REC # / TYPE / VERS
10190012            LEIAR25.R3      LEIT                    ANT # / TYPE
  4929534.0457   -29050.6755  4033709.9250                  APPROX POSITION XYZ
        3.0390        0.0000        0.0000                  ANTENNA: DELTA H/E/N
     1     1                                                WAVELENGTH FACT L1/2
     8    L1    L2    L5    C1    C2    P2    S1    S2      # / TYPES OF OBSERV
     5.0000                                                 INTERVAL
Forced Modulo Decimation to 5 seconds                       COMMENT
DefaultJobName                                              COMMENT
DefaultUserDiscription                                      COMMENT
Project creator:                                            COMMENT
 SNR is mapped to RINEX snr flag value [0-9]                COMMENT
  L1 & L2: min(max(int(snr_dBHz/6), 0), 9)                  COMMENT
  2015     1    27    13     0    0.0000000     GPS         TIME OF FIRST OBS
    15                                                      LEAP SECONDS
                                                            END OF HEADER
 15  1 27 13  0  0.0000000  0 21G30G06G07G13G02G03G23G09G10G20G16G05
                                R14R02R12R13R19R03R18R20R04
 112346567.798 8  87542868.630 8  83895262.497 8  21378808.600    21378809.480
  21378808.840          50.100          48.150
 112047426.517 8  87309684.300 8  83671778.100 8  21321916.580    21321918.280
  21321917.480          49.300          48.700
 108669763.424 8  84677810.238 7                  20679142.560    20679139.560
  20679138.800          49.700          47.800
 132037805.595 7 102886641.78245                  25125954.000
  25125957.500          43.400          32.350
 112427669.627 8  87605979.16247                  21394266.820
  21394261.380          49.050          44.650
                                 100717441.374 6

 124278587.652 8  96840417.39446                  23649429.760
  23649426.060          48.000          37.200
 112547879.790 8  87699672.107 8  84045528.452 8  21417136.600    21417135.840
  21417135.620          50.000          48.550
 105861118.529 8  82489202.63647                  20144693.940
  20144690.720          49.750          46.350
 113108502.537 8  88136454.38647                  21523837.240
  21523834.220          49.600          43.600
 131616600.343 6 102558391.70245                  25045802.600
  25045802.840          41.800          31.550
 123491956.931 7  96227506.200 7                  23499729.960    23499730.260
  23499729.420          46.900          42.950
 115141803.627 6  89554821.651 6                  21600274.360    21600283.800
  21600282.880          40.700          38.150
 121617408.192 7  94591322.385 6                  22791060.740    22791067.800
  22791067.580          45.700          41.150
 119942145.010 6  93288359.783 6                  22453422.100    22453428.320
  22453427.200          41.650          38.550
 107095351.189 7  83296485.808 7                  20055488.820    20055493.860
  20055492.280          42.650          46.450
 118063196.011 7  91826934.060 6                  22070664.460    22070667.920
  22070665.800          46.250          41.700
 106739636.656 7  83019745.461 7                  19939853.600    19939855.760
  19939854.420          47.250          46.350
 124591014.710 7  96904116.163 6                  23340110.600    23340119.340
  23340118.680          45.050          38.750
 126819994.185 6  98637811.719 6                  23715978.040    23715986.140
  23715983.920          38.800          36.900
 113184502.961 7  88032429.899 7                  21136398.460    21136401.020
  21136399.980          47.850          44.650
 15  1 27 13  0  5.0000000  0 21G30G06G07G13G02G03G23G09G10G20G16G05
                                R14R02R12R13R19R03R18R20R04
 112334261.753 8  87533279.508 8  83886072.918 8  21376466.820    21376467.740
  21376467.080          50.050          49.850
 112058820.154 8  87318562.447 8  83680286.335 8  21324084.740    21324086.440
  21324085.640          49.400          50.150
 108667761.865 8  84676250.579 8                  20678761.680    20678758.660
  20678757.920          49.650          49.650
 132022553.641 7 102874757.15445                  25123051.640
  25123055.220          42.700          35.750
 112423321.201 8  87602590.78447                  21393439.320
  21393433.920          49.100          47.250
 134889492.005 5 105108761.34645 100729203.800 6  25668616.960
  25668630.020          35.300          31.250
 124292138.442 7  96850976.44346                  23652008.400
  23652004.660          47.700          38.950
 112557736.466 8  87707352.631 8  84052888.954 8  21419012.300    21419011.540
  21419011.300          49.800          49.900
 105859932.271 8  82488278.28148                  20144468.180
  20144464.980          49.750          48.400
 113119774.625 8  88145237.82047                  21525982.260
  21525979.240          49.850          45.750
 131618409.699 7 102559801.57345                  25046146.860
  25046147.180          42.400          31.300
 123476980.968 7  96215836.639 7                  23496880.120    23496880.420
  23496879.620          47.200          44.700
 115121507.512 6  89539035.788 6                  21596466.880    21596476.200
  21596475.340          40.900          38.850
 121630386.592 7  94601416.675 6                  22793492.900    22793499.920
  22793499.780          45.850          41.350
 119958071.221 6  93300746.812 6                  22456403.560    22456409.820
  22456408.640          41.600          38.800
 107092703.300 7  83294426.333 7                  20054992.860    20054998.000
  20054996.460          42.600          46.400
 118069584.221 7  91831902.652 6                  22071858.700    22071862.160
  22071860.080          46.150          41.700
 106741553.826 7  83021236.585 7                  19940211.720    19940213.880
  19940212.580          47.700          46.300
 124610256.638 7  96919082.082 6                  23343715.280    23343723.940
  23343723.340          44.600          39.550
 126810059.715 6  98630084.915 6                  23714120.220    23714128.400
  23714126.140          38.550          37.400
 113172872.588 8  88023384.062 7                  21134226.560    21134229.160
  21134228.100          48.100          44.800
 15  1 27 13  0 10.0000000  0 21G30G06G07G13G02G03G23G09G10G20G16G05
                                R14R02R12R13R19R03R18R20R04
 112321965.135 8  87523697.729 8  83876890.385 8  21374126.860    21374127.760
  21374127.100          49.850          49.450
 112070224.088 8  87327448.627 8  83688802.246 8  21326254.900    21326256.560
  21326255.780          49.150          50.000
 108665773.294 8  84674701.046 8                  20678383.280    20678380.280
  20678379.500          49.650          49.200
 132007301.783 6 102862872.66546                  25120149.300
  25120152.960          41.550          36.500
 112418985.883 8  87599212.61547                  21392614.320
  21392608.940          48.900          46.800
 134905243.443 5                 100740966.141 6  25671614.420
                        35.100
 124305688.075 7  96861534.58246                  23654586.840
  23654583.100          47.550          39.750
 112567595.798 8  87715035.224 8  84060251.435 8  21420888.460    21420887.700
  21420887.440          49.450          49.700
 105858754.531 8  82487360.56148                  20144244.040
  20144240.840          49.700          48.250
 113131052.774 8  88154025.98347                  21528128.440
  21528125.400          49.750          45.550
 131620231.775 7 102561221.37345                  25046493.580
  25046493.840          42.800          35.800
 123462004.333 7  96204166.538 7                  23494030.160    23494030.500
  23494029.680          46.750          44.350
 115101218.388 6  89523255.364 6                  21592660.700    21592670.000
  21592669.100          40.700          40.350
 121643367.100 7  94611512.604 7                  22795925.440    22795932.500
  22795932.320          45.650          42.750
 119974009.076 7  93313142.904 6                  22459387.140    22459393.380
  22459392.240          42.200          40.000
 107090076.184 7  83292383.010 7                  20054500.840    20054506.040
  20054504.520          42.400          47.800
 118075989.672 7  91836884.665 7                  22073056.100    22073059.600
  22073057.580          45.950          43.400
 106743476.587 7  83022732.060 7                  19940570.880    19940573.060
  19940571.780          47.700          47.800
 124629498.793 7  96934048.173 6                  23347319.960    23347328.660
  23347328.120          45.000          41.550
 126800140.710 6  98622370.127 6                  23712265.320    23712273.500
  23712271.220          38.750          39.450
 113161242.773 7  88014338.650 7                  21132054.800    21132057.440
  21132056.340          47.900          46.250
 15  1 27 13  0 15.0000000  0 21G30G06G07G13G02G03G23G09G10G20G16G05
                                R14R02R12R13R19R03R18R20R04
 112309682.141 8  87514126.565 8  83867718.018 8  21371789.500    21371790.400
  21371789.720          50.050          49.400
 112081642.447 8  87336346.039 8  83697328.939 8  21328427.780    21328429.440
  21328428.640          49.150          49.800
 108663801.864 8  84673164.865 8                  20678008.140    20678005.140
  20678004.360          49.800          49.000
 131992054.348 7 102850991.54945                  25117247.780
  25117251.480          42.200          32.100
 112414667.800 8  87595847.87247                  21391792.580
  21391787.260          48.950          46.750
 134920998.788 6                 100752731.359 6  25674612.780
                        37.400
 124319240.575 7  96872094.95246                  23657165.800
  23657162.060          47.800          39.200
 112577461.891 8  87722723.082 8  84067618.970 8  21422765.900    21422765.160
  21422764.880          49.250          49.400
 105857589.437 8  82486452.69447                  20144022.320
  20144019.120          49.700          47.950
 113142341.137 8  88162822.09347                  21530276.560
  21530273.520          49.700          44.950
 131622070.698 6 102562654.28445                  25046843.480
  25046843.760          41.900          34.200
 123447031.215 7  96192499.190 7                  23491180.880    23491181.220
  23491180.400          47.550          44.400
 115080940.389 6  89507483.600 6                  21588856.660    21588865.940
  21588864.960          41.250          40.050
 121656354.061 7  94621613.564 7                  22798359.220    22798366.240
  22798366.100          45.850          42.450
 119989962.872 7  93325551.391 6                  22462373.740    22462380.040
  22462378.820          42.100          39.700
 107087474.034 7  83290359.111 7                  20054013.520    20054018.720
  20054017.240          42.350          47.450
 118082416.387 7  91841883.208 7                  22074257.480    22074261.020
  22074258.980          46.050          42.700
 106745409.217 7  83024235.216 7                  19940931.880    19940934.100
  19940932.800          47.700          47.650
 124648745.295 7  96949017.644 6                  23350925.520    23350934.280
  23350933.720          44.500          41.250
 126790241.431 6  98614670.713 6                  23710414.140    23710422.300
  23710419.980          39.250          38.350
 113149617.841 7  88005297.047 7                  21129883.920    21129886.560
  21129885.460          47.850          45.600
 15  1 27 13  0 20.0000000  0 21G30G06G07G13G02G03G23G09G10G20G16G05
                                R14R02R12R13R19R03R18R20R04
 112297410.898 8  87504564.559 8  83858554.419 8  21369454.380    21369455.260
  21369454.600          50.100          49.150
 112093073.360 8  87345253.234 8  83705864.979 8  21330603.040    21330604.700
  21330603.920          49.450          49.600
 108661845.688 8  84671640.580 8                  20677635.900    20677632.880
  20677632.100          49.850          48.850
 131976809.392 7 102839112.38746                  25114346.780
  25114350.380          42.000          36.600
 112410365.116 8  87592495.13847                  21390973.800
  21390968.520          49.050          46.100
 134936756.062 6 105145547.25644 100764498.056 6  25677611.680
  25677619.320          38.250          25.600
 124332794.223 7  96882656.23446                  23659745.020
  23659741.200          47.750          38.950
 112587332.873 8  87730414.761 8  84074990.152 8  21424644.220    21424643.540
  21424643.240          49.050          49.050
 105856435.142 8  82485553.24747                  20143802.660
  20143799.440          49.750          47.250
 113153637.816 8  88171624.70047                  21532426.260
  21532423.220          49.850          44.600
 131623924.638 7 102564098.91045                  25047196.240
  25047196.560          42.000          35.100
 123432059.730 7  96180833.116 7                  23488331.940    23488332.260
  23488331.460          47.600          44.450
 115060671.625 6  89491719.004 6                  21585054.280    21585063.460
  21585062.600          41.400          39.850
 121669345.505 7  94631718.000 7                  22800793.800    22800800.800
  22800800.720          45.950          42.300
 120005930.813 6  93337970.890 6                  22465362.960    22465369.340
  22465368.080          41.950          39.600
 107084894.758 7  83288353.023 7                  20053530.480    20053535.680
  20053534.220          42.600          47.300
 118088862.543 7  91846896.875 7                  22075462.500    22075466.080
  22075464.000          45.550          42.100
 106747349.735 7  83025744.518 7                  19941294.400    19941296.600
  19941295.320          47.000          47.350
 124667994.293 7  96963989.049 6                  23354531.460    23354540.320
  23354539.780          43.400          40.950
 126780360.104 6  98606985.253 6                  23708566.280    23708574.500
  23708572.100          38.250          37.850
 113137995.822 7  87996257.709 7                  21127713.600    21127716.220
  21127715.100          47.850          45.300
 15  1 27 13  0 25.0000000  0 21G30G06G07G13G02G03G23G09G10G20G16G05
                                R14R02R12R13R19R03R18R20R04
 112285150.721 8  87495011.177 8  83849399.106 8  21367121.360    21367122.220
  21367121.580          50.200          48.900
 112104516.129 8  87354169.661 8  83714409.894 8  21332780.540    21332782.200
  21332781.440          49.350          49.250
 108659904.113 8  84670127.664 8                  20677266.460    20677263.400
  20677262.640          49.800          48.550
 131961566.132 7 102827234.54345                  25111446.060
  25111449.580          43.100          33.800
 112406077.136 8  87589153.85347                  21390157.780
  21390152.580          49.100          45.800
 134952514.775 5 105157833.60545 100776265.813 6  25680610.600
  25680615.660          35.350          31.400
 124346348.347 7  96893217.86646                  23662324.320
  23662320.500          47.600          37.800
 112597208.096 8  87738109.727 8  84082364.499 8  21426523.360    21426522.720
  21426522.380          49.050          48.800
 105855290.953 8  82484661.67547                  20143584.920
  20143581.700          49.800          47.300
 113164942.199 8  88180433.30447                  21534577.440
  21534574.380          49.900          44.350
 131625792.892 6 102565554.68445                  25047551.740
  25047552.220          41.900          34.150
 123417089.158 7  96169167.756 7                  23485483.140    23485483.480
  23485482.720          47.600          44.000
 115040411.396 6  89475961.062 6                  21581253.500    21581262.760
  21581261.840          41.400          39.400
 121682340.626 7  94641825.295 7                  22803229.120    22803236.100
  22803236.080          45.750          42.200
 120021912.004 6  93350400.695 6                  22468354.640    22468361.120
  22468359.820          41.500          39.550
 107082338.017 7  83286364.442 7                  20053051.600    20053056.880
  20053055.420          42.850          47.200
 118095327.441 7  91851925.130 7                  22076671.000    22076674.660
  22076672.520          45.950          42.450
 106749297.482 7  83027259.424 7                  19941658.200    19941660.480
  19941659.160          46.950          47.350
 124687245.058 7  96978961.813 6                  23358137.700    23358146.700
  23358146.180          43.600          41.250
 126770496.004 6  98599313.173 6                  23706721.600    23706729.920
  23706727.460          38.650          38.350
 113126375.967 7  87987220.048 7                  21125543.680    21125546.300
  21125545.140          47.600          45.400
 15  1 27 13  0 30.0000000  0 21G30G06G07G13G02G03G23G09G10G20G16G05
                                R14R02R12R13R19R03R18R20R04
 112272902.532 8  87485467.139 8  83840252.731 8  21364790.640    21364791.460
  21364790.820          50.200          48.900
 112115971.620 8  87363096.010 8  83722964.315 8  21334960.480    21334962.140
  21334961.380          49.350          49.150
 108657978.034 8  84668626.828 8                  20676899.960    20676896.880
  20676896.120          49.700          48.600
 131946325.568 7 102815358.79445                  25108545.940
  25108549.300          43.200          35.000
 112401804.750 8  87585824.72947                  21389344.760
  21389339.600          49.100          46.050
 134968275.741 5 105170119.85444                  25683610.000
  25683617.160          33.750          29.250
 124359903.800 7  96903780.53946                  23664903.880
  23664899.980          47.800          37.850
 112607088.417 8  87745808.668 8  84089742.649 8  21428403.440    21428402.880
  21428402.480          49.000          48.650
 105854157.775 8  82483778.68047                  20143369.280
  20143366.060          49.850          46.950
 113176255.129 8  88189248.56447                  21536730.240
  21536727.160          49.900          44.200
 131627676.355 6 102567022.31645                  25047910.200
  25047910.680          40.900          34.650
 123402120.442 7  96157503.835 7                  23482634.740    23482635.040
  23482634.300          47.800          43.850
 115020160.719 6  89460210.542 6                  21577454.520    21577463.780
  21577462.820          41.300          39.100
 121695340.477 7  94651936.255 6                  22805665.340    22805672.260
  22805672.260          46.050          41.850
 120037907.436 6  93362841.568 6                  22471349.020    22471355.540
  22471354.220          41.400          39.650
 107079804.449 7  83284393.889 7                  20052577.080    20052582.400
  20052580.960          42.850          47.150
 118101811.932 7  91856968.611 7                  22077883.240    22077886.900
  22077884.780          46.100          42.750
 106751253.457 7  83028780.740 7                  19942023.540    19942025.900
  19942024.560          46.700          47.400
 124706498.501 7  96993936.673 6                  23361744.520    23361753.620
  23361753.140          43.600          41.200
 126760649.906 6  98591655.105 6                  23704880.220    23704888.680
  23704886.180          39.300          37.950
 113114759.317 7  87978184.893 7                  21123374.360    21123376.920
  21123375.760          47.800          45.050
 15  1 27 13  0 35.0000000  0 21G30G06G07G13G02G03G23G09G10G20G16G05
                                R14R02R12R13R19R03R18R20R04
 112260667.509 8  87475933.354 8  83831116.195 8  21362462.400    21362463.220
  21362462.560          50.250          48.800
 112127441.045 8  87372033.202 8  83731529.124 8  21337143.060    21337144.720
  21337143.960          49.550          48.900
 108656068.638 8  84667138.979 8                  20676536.620    20676533.520
  20676532.780          49.600          48.450
 131931088.860 7 102803486.00745                  25105646.540
  25105649.580          43.900          30.650
 112397549.193 8  87582508.70747                  21388534.960
  21388529.820          49.050          45.550
 134984040.183 5 105182397.61345 100799811.315 6  25686609.940
  25686614.220          34.950          33.200
 124373461.781 7  96914345.18146                  23667483.900
  23667479.960          47.800          37.800
 112616975.025 8  87753512.513 8  84097125.494 8  21430284.760    21430284.240
  21430283.800          49.000          48.600
 105853036.802 8  82482905.19347                  20143155.960
  20143152.740          49.750          46.850
 113187577.796 8  88198071.41347                  21538884.900
  21538881.820          49.850          44.750
 131629576.255 6 102568502.77245                  25048271.780
  25048272.260          41.400          35.400
 123387154.732 7  96145842.247 7                  23479786.900    23479787.160
  23479786.420          47.850          43.650
 114999920.753 6  89444468.344 6                  21573657.520    21573666.780
  21573665.840          41.700          39.200
 121708346.212 7  94662051.827 7                  22808102.680    22808109.620
  22808109.560          46.300          42.000
 120053918.291 6  93375294.432 6                  22474346.280    22474352.800
  22474351.520          41.850          39.250
 107077295.711 7  83282442.646 7                  20052107.260    20052112.580
  20052111.160          43.000          46.900
 118108317.212 7  91862028.261 7                  22079099.320    22079103.020
  22079100.960          45.500          42.900
 106753218.751 7  83030309.302 7                  19942390.640    19942393.020
  19942391.700          47.050          47.250
 124725755.743 7  97008914.483 6                  23365352.040    23365361.280
  23365360.760          43.800          40.950
 126750823.149 6  98584012.082 6                  23703042.500    23703051.040
  23703048.520          38.650          37.900
 113103146.978 7  87969153.077 7                  21121205.820    21121208.400
  21121207.180          47.850          44.600
 15  1 27 13  0 40.0000000  0 21G30G06G07G13G02G03G23G09G10G20G16G05
                                R14R02R12R13R19R03R18R20R04
 112248444.096 8  87466408.620 8  83821988.332 8  21360136.400    21360137.180
  21360136.500          50.300          48.750
 112138922.772 8  87380979.994 8  83740103.143 8  21339328.000    21339329.660
  21339328.880          49.550          49.000
 108654174.345 8  84665662.908 8                  20676176.160    20676173.020
  20676172.300          49.750          48.600
 131915854.415 7 102791615.03345                  25102747.560
  25102750.440          42.900          33.300
 112393308.871 8  87579204.55947                  21387728.040
  21387722.940          49.250          45.750
 134999806.487 5                 100811584.741 6  25689609.960
                        35.550
 124387020.653 8  96924910.52546                  23670064.080
  23670060.160          48.300          37.700
 112626866.316 8  87761220.006 8  84104511.849 8  21432166.980    21432166.500
  21432166.020          49.350          48.700
 105851926.463 8  82482039.99847                  20142944.660
  20142941.440          49.850          47.000
 113198908.609 8  88206900.60647                  21541041.120
  21541038.000          50.050          44.000
 131631490.967 6 102569994.75945                  25048636.160
  25048636.560          41.950          33.700
 123372190.498 7  96134181.823 7                  23476939.340    23476939.540
  23476938.800          47.800          43.550
 114979689.933 6  89428733.261 6                  21569862.280    21569871.460
  21569870.580          41.850          39.300
 121721356.202 7  94672170.701 7                  22810540.840    22810547.760
  22810547.720          46.350          42.200
 120069942.895 6  93387758.011 6                  22477346.180    22477352.720
  22477351.420          41.700          39.250
 107074809.716 7  83280509.086 7                  20051641.720    20051647.020
  20051645.600          43.100          46.850
 118114841.712 7  91867102.860 7                  22080319.000    22080322.780
  22080320.740          45.650          42.450
 106755191.775 7  83031843.873 7                  19942759.160    19942761.640
  19942760.280          47.300          46.900
 124745015.164 7  97023893.978 6                  23368959.960    23368969.260
  23368968.780          44.500          40.650
 126741014.226 6  98576382.941 6                  23701208.060    23701216.680
  23701214.220          37.950          38.150
 113091537.361 8  87960123.384 7                  21119037.800    21119040.360
  21119039.080          48.000          44.450
 15  1 27 13  0 45.0000000  0 21G30G06G07G13G02G03G23G09G10G20G16G05
                                R14R02R12R13R19R03R18R20R04
 112236232.684 8  87456893.238 8  83812869.421 8  21357812.680    21357813.400
  21357812.740          50.300          48.650
 112150417.209 8  87389936.685 8  83748686.631 8  21341515.340    21341517.000
  21341516.220          49.650          49.000
 108652295.523 8  84664198.889 8                  20675818.660    20675815.500
  20675814.800          49.800          48.450
 131900622.603 7 102779746.08245                  25099849.020
  25099851.960          42.000          34.050
 112389084.174 8  87575912.58847                  21386924.120
  21386919.020          49.000          45.500
 135015575.114 5                 100823359.836 6  25692610.520
                        32.750
 124400580.854 7  96935476.89546                  23672644.500
  23672640.520          47.850          38.000
 112636762.675 8  87768931.454 8  84111901.983 8  21434050.240    21434049.720
  21434049.220          49.550          48.650
 105850827.136 8  82481183.37747                  20142735.480
  20142732.220          49.800          47.000
 113210247.959 8  88215736.45347                  21543198.980
  21543195.780          49.900          44.050
 131633420.900 7 102571498.60345                  25049003.420
  25049003.800          42.600          33.200
 123357228.143 7  96122522.856 7                  23474092.140    23474092.260
  23474091.540          47.900          43.350
 114959468.579 6  89413005.554 6                  21566068.760    21566077.960
  21566077.120          41.550          39.800
 121734370.962 7  94682293.270 6                  22812979.900    22812986.820
  22812986.740          46.250          41.800
 120085987.67816  93400238.60316                  22480348.720    22480355.260
  22480353.940          41.500          39.400
 107072347.086 7  83278593.705 7                  20051180.540    20051185.840
  20051184.420          43.050          46.900
 118121385.737 7  91872192.641 7                  22081542.340    22081546.140
  22081544.140          45.650          42.650
 106757172.979 7  83033384.803 7                  19943129.220    19943131.740
  19943130.400          47.400          47.150
 124764277.126 7  97038875.475 6                  23372568.380    23372577.700
  23372577.280          44.250          40.400
 126731223.381 6  98568767.839 6                  23699377.120    23699385.720
  23699383.300          38.850          38.100
 113079930.920 7  87951096.156 7                  21116870.400    21116872.920
  21116871.600          47.900          44.600
 15  1 27 13  0 50.0000000  0 20G30G06G07G13G02G23G09G10G20G16G05R14
                                R02R12R13R19R03R18R20R04
 112224033.553 8  87447387.421 8  83803759.674 8  21355491.300    21355491.980
  21355491.320          50.450          48.500
 112161924.585 8  87398903.460 8  83757279.784 8  21343705.140    21343706.820
  21343706.020          49.800          48.850
 108650432.460 8  84662747.152 8                  20675464.140    20675460.960
  20675460.280          49.750          48.400
 131885393.736 6 102767879.48045                  25096950.960
  25096953.860          41.650          32.800
 112384875.430 8  87572633.04347                  21386123.220
  21386118.120          49.000          45.950
 124414142.621 7  96946044.49646                  23675225.240
  23675221.300          47.800          36.700
 112646664.376 8  87776647.059 8  84119296.097 8  21435934.520    21435933.980
  21435933.480          49.900          48.650
 105849739.089 8  82480335.54647                  20142528.420
  20142525.180          49.750          46.800
 113221596.074 8  88224579.12947                  21545358.500
  21545355.260          50.100          43.950
 131635366.277 7 102573014.48345                  25049373.660
  25049374.120          43.100          32.550
 123342267.905 7  96110865.526 7                  23471245.320    23471245.440
  23471244.720          47.600          43.300
 114939257.121 6  89397285.550 6                  21562277.180    21562286.320
  21562285.540          41.500          40.150
 121747390.699 7  94692419.717 7                  22815419.860    22815426.840
  22815426.680          45.400          42.100
 120102040.810 6  93412724.358 6                  22483353.920    22483360.420
  22483359.180          41.050          39.450
 107069908.018 7  83276696.650 7                  20050723.780    20050729.080
  20050727.660          42.750          46.900
 118127949.622 7  91877297.887 7                  22082769.400    22082773.200
  22082771.220          46.000          42.650
 106759162.576 7  83034932.273 7                  19943500.880    19943503.400
  19943502.080          47.550          47.200
 124783541.887 7  97053859.147 6                  23376177.340    23376186.740
  23376186.260          44.300          41.450
 126721450.930 6  98561167.067 6                  23697549.480    23697558.380
  23697555.780          38.950          37.700
 113068327.919 8  87942071.600 7                  21114703.620    21114706.160
  21114704.760          48.250          44.800
 15  1 27 13  0 55.0000000  0 20G30G06G07G13G02G23G09G10G20G16G05R14
                                R02R12R13R19R03R18R20R04
 112211846.103 8  87437890.709 8  83794658.656 8  21353172.160    21353172.800
  21353172.100          50.550          48.450
 112173444.309 8  87407879.860 8  83765882.162 8  21345897.280    21345898.980
  21345898.140          49.800          48.900
 108648584.561 8  84661307.232 8                  20675112.500    20675109.320
  20675108.640          49.650          48.300
 131870167.213 7 102756014.67945                  25094053.360
  25094056.240          43.000          34.800
 112380681.985 8  87569365.42747                  21385325.240
  21385320.140          49.050          45.900
 124427705.374 7  96956612.85846                  23677806.140
  23677802.220          47.200          37.550
 112656570.798 8  87784366.351 8  84126693.752 8  21437819.720    21437819.100
  21437818.640          50.150          48.650
 105848661.731 8  82479496.05047                  20142323.420
  20142320.160          49.800          46.900
 113232952.395 8  88233428.20047                  21547519.600
  21547516.280          50.150          43.950
 131637326.552 7 102574541.96445                  25049746.680
  25049747.180          42.650          33.750
 123327309.187 7  96099209.394 7                  23468398.800    23468398.880
  23468398.180          47.800          43.450
 114919054.939 6  89381572.760 6                  21558487.300    21558496.480
  21558495.720          41.350          40.000
 121760414.720 7  94702549.485 6                  22817860.540    22817867.560
  22817867.400          45.250          41.900
 120118107.799 6  93425220.884 6                  22486361.640    22486368.120
  22486366.980          40.950          39.100
 107067491.846 7  83274817.411 7                  20050271.280    20050276.600
  20050275.180          43.000          46.850
 118134532.735 7  91882418.082 7                  22084000.020    22084003.880
  22084001.880          45.900          42.450
 106761159.944 7  83036485.779 7                  19943874.020    19943876.540
  19943875.200          47.450          47.050
 124802808.904 7  97068844.561 6                  23379786.700    23379796.040
  23379795.640          44.400          41.400
 126711696.324 6  98553580.155 6                  23695725.260    23695734.200
  23695731.580          38.300          37.150
 113056727.701 8  87933049.208 7                  21112537.440    21112539.900
  21112538.480          48.050          44.850
 15  1 27 13  1  0.0000000  0 20G30G06G07G13G02G23G09G10G20G16G05R14
                                R02R12R13R19R03R18R20R04
 112199672.680 8  87428404.927 8  83785568.125 8  21350855.680    21350856.260
  21350855.580          50.200          48.500
 112184978.691 8  87416867.670 8  83774495.491 8  21348092.220    21348093.880
  21348093.080          49.850          49.000
 108646754.182 8  84659880.965 8                  20674764.180    20674761.020
  20674760.360          49.400          48.350
 131854945.396 7 102744153.52545                  25091156.720
  25091159.600          43.300          34.050
 112376506.158 8  87566111.53447                  21384530.620
  21384525.500          49.150          45.250
 124441271.398 7  96967183.76546                  23680387.660
  23680383.760          47.200          37.650
 112666484.275 8  87792091.139 8  84134096.683 8  21439706.260    21439705.580
  21439705.160          49.900          48.750
 105847597.363 8  82478666.66847                  20142120.860
  20142117.620          49.650          46.850
 113244319.239 8  88242285.47547                  21549682.680
  21549679.300          50.150          44.350
 131639304.046 7 102576082.87445                  25050122.980
  25050123.500          42.950          30.500
 123312354.320 7  96087556.261 7                  23465553.020    23465553.080
  23465552.380          47.200          43.600
 114898864.324 6  89365868.957 6                  21554699.620    21554708.860
  21554708.060          41.400          40.200
 121773445.434 7  94712684.453 6                  22820302.440    22820309.520
  22820309.360          45.050          41.550
 120134190.933 6  93437729.976 6                  22489372.460    22489378.900
  22489377.760          41.150          39.050
 107065101.102 7  83272957.931 7                  20049823.540    20049828.900
  20049827.460          42.950          46.900
 118141137.419 7  91887555.035 7                  22085234.720    22085238.600
  22085236.600          45.850          42.700
 106763167.549 7  83038047.246 7                  19944249.060    19944251.560
  19944250.240          47.200          47.000
 124822080.488 7  97083833.520 6                  23383396.940    23383406.340
  23383405.900          44.300          41.300
 126701961.878 6  98546008.911 6                  23693904.860    23693913.860
  23693911.120          38.400          36.650
 113045132.650 8  87924030.835 7                  21110372.220    21110374.620
  21110373.160          48.250          45.000
 15  1 27 13  1  5.0000000  0 20G30G06G07G13G02G23G09G10G20G16G05R14
                                R02R12R13R19R03R18R20R04
 112187510.510 8  87418927.917 8  83776485.977 8  21348541.320    21348541.860
  21348541.180          50.150          48.500
 112196524.958 8  87425864.746 8  83783117.672 8  21350289.440    21350291.080
  21350290.260          49.800          49.000
 108644938.534 8  84658466.172 8                  20674418.660    20674415.520
  20674414.840          49.600          48.150
 131839725.442 7 102732293.86345                  25088260.520
  25088263.240          43.550          33.850
 112372345.207 8  87562869.22947                  21383738.840
  21383733.680          49.400          45.400
 124454837.921 7  96977755.07246                  23682969.280
  23682965.420          47.400          37.400
 112676402.014 8  87799819.249 8  84141502.777 8  21441593.600    21441592.900
  21441592.520          50.000          48.900
 105846543.242 8  82477845.27347                  20141920.280
  20141917.020          49.650          46.900
 113255693.829 8  88251148.78447                  21551847.260
  21551843.820          50.150          44.000
 131641295.941 7 102577634.98045                  25050502.020
  25050502.560          42.700          34.200
 123297400.597 7  96075904.025 7                  23462707.440    23462707.460
  23462706.760          47.200          42.850
 114878682.592 6  89350172.065 6                  21550913.560    21550922.860
  21550922.040          41.700          39.600
 121786480.077 7  94722822.492 6                  22822745.100    22822752.280
  22822751.940          46.350          40.700
 120150287.347 6  93450249.391 6                  22492385.720    22492392.120
  22492391.060          41.100          38.750
 107062732.847 7  83271115.951 7                  20049380.040    20049385.400
  20049383.960          43.050          46.800
 118147760.762 7  91892706.505 7                  22086472.860    22086476.880
  22086474.800          46.000          42.650
 106765182.549 7  83039614.470 7                  19944625.420    19944627.960
  19944626.660          47.300          46.850
 124841353.761 7  97098823.798 6                  23387007.520    23387016.940
  23387016.440          44.550          40.300
 126692244.787 6  98538451.195 6                  23692087.660    23692096.600
  23692093.940          39.100          36.300
 113033540.041 8  87915014.373 7                  21108207.400    21108209.800
  21108208.340          48.150          44.850
 15  1 27 13  1 10.0000000  0 20G30G06G07G13G02G23G09G10G20G16G05R14
                                R02R12R13R19R03R18R20R04
 112175360.613 8  87409460.467 8  83767413.006 8  21346229.280    21346229.800
  21346229.120          50.100          48.450
 112208084.066 8  87434871.829 8  83791749.473 8  21352489.100    21352490.700
  21352489.880          49.750          48.900
 108643138.608 8  84657063.634 8                  20674076.140    20674073.000
  20674072.340          49.550          48.100
 131824508.351 7 102720436.38045                  25085364.800
  25085367.500          43.150          30.550
 112368200.091 8  87559639.26447                  21382950.060
  21382944.880          49.200          44.700
 124468405.936 7  96988327.53946                  23685551.200
  23685547.340          47.450          38.000
 112686325.024 8  87807551.467 8  84148912.825 8  21443481.940    21443481.200
  21443480.860          50.050          48.850
 105845500.375 8  82477032.65247                  20141721.820
  20141718.580          49.600          46.550
 113267077.129 8  88260018.87647                  21554013.480
  21554010.000          50.050          43.800
 131643303.283 7 102579199.14945                  25050883.980
  25050884.400          42.100          31.800
 123282448.985 7  96064253.427 7                  23459862.280    23459862.260
  23459861.540          47.200          43.350
 114858510.682 6  89334482.802 6                  21547129.440    21547138.720
  21547137.880          41.700          39.650
 121799519.616 7  94732964.341 6                  22825188.720    22825195.900
  22825195.500          45.900          41.150
 120166398.088 6  93462779.949 6                  22495401.700    22495408.040
  22495407.040          41.200          38.600
 107060388.225 7  83269292.354 7                  20048940.960    20048946.340
  20048944.860          42.850          46.750
 118154403.886 7  91897873.363 7                  22087714.740    22087718.780
  22087716.700          45.800          42.700
 106767205.873 7  83041188.159 7                  19945003.400    19945005.920
  19945004.620          47.300          46.750
 124860629.708 7  97113816.175 6                  23390618.560    23390628.000
  23390627.460          44.250          40.000
 126682546.225 6  98530907.871 5                  23690273.940    23690282.760
  23690280.220          38.500          35.900
 113021950.891 8  87906000.594 7                  21106043.200    21106045.620
  21106044.160          48.150          44.950
 15  1 27 13  1 15.0000000  0 20G30G06G07G13G02G23G09G10G20G16G05R14
                                R02R12R13R19R03R18R20R04
 112163221.928 8  87400001.755 8  83758348.411 8  21343919.360    21343919.860
  21343919.180          50.200          48.550
 112219654.949 8  87443888.094 8  83800390.060 8  21354690.980    21354692.580
  21354691.780          49.900          48.900
 108641353.307 8  84655672.495 8                  20673736.420    20673733.300
  20673732.620          49.500          48.300
 131809293.066 7 102708580.35145                  25082469.420
  25082472.260          43.900          32.150
 112364069.735 8  87556420.81147                  21382164.080
  21382158.860          49.350          45.100
 124481974.370 7  96998900.33446                  23688133.200
  23688129.320          47.350          38.250
 112696252.207 8  87815286.938 8  84156325.992 8  21445371.080    21445370.300
  21445370.000          49.800          48.900
 105844467.679 8  82476227.95647                  20141525.320
  20141522.060          49.750          46.850
 113278468.099 8  88268894.95647                  21556181.180
  21556177.640          50.050          44.200
 131645324.979 6 102580774.48445                  25051268.640
  25051269.160          41.200          31.350
 123267498.399 7  96052603.644 7                  23457017.300    23457017.240
  23457016.480          47.500          42.900
 114838347.527 7  89318800.369 6                  21543346.860    21543356.220
  21543355.340          42.350          39.350
 121812562.896 7  94743109.100 6                  22827633.040    22827640.120
  22827639.720          46.500          40.750
 120182521.880 6  93475320.667 6                  22498420.100    22498426.420
  22498425.460          41.400          38.850
 107058065.928 7  83267486.132 7                  20048506.080    20048511.440
  20048509.960          42.950          46.700
 118161065.580 7  91903054.681 7                  22088960.120    22088964.140
  22088962.080          46.300          42.650
 106769236.574 7  83042767.593 7                  19945382.740    19945385.260
  19945383.960          47.200          46.750
 124879907.235 7  97128809.772 6                  23394229.920    23394239.380
  23394238.780          44.600          40.000
 126672864.829 6  98523377.929 5                  23688463.520    23688472.260
  23688469.720          38.700          35.700
 113010363.891 8  87896988.494 7                  21103879.400    21103881.920
  21103880.360          48.250          45.100
 15  1 27 13  1 20.0000000  0 20G30G06G07G13G02G23G09G10G20G16G05R14
                                R02R12R13R19R03R18R20R04
 112151095.978 8  87390552.968 8  83749293.326 8  21341611.880    21341612.380
  21341611.660          50.050          48.400
 112231239.150 8  87452914.739 8  83809040.580 8  21356895.420    21356896.980
  21356896.180          49.650          48.850
 108639584.162 8  84654293.942 8                  20673399.760    20673396.660
  20673395.980          49.450          48.300
 131794081.152 7 102696726.90745                  25079574.700
  25079577.520          43.100          31.400
 112359955.718 8  87553215.08547                  21381381.220
  21381375.980          49.050          45.300
 124495544.768 7  97009474.65846                  23690715.560
  23690711.660          47.350          37.750
 112706185.114 8  87823026.868 8  84163743.427 8  21447261.260    21447260.480
  21447260.200          49.600          48.850
 105843446.710 8  82475432.39547                  20141331.040
  20141327.800          49.700          46.550
 113289868.249 8  88277778.19047                  21558350.620
  21558347.040          49.950          43.800
 131647362.585 6 102582362.23745                  25051656.360
  25051656.820          40.900          34.700
 123252550.440 7  96040955.882 7                  23454172.820    23454172.720
  23454171.940          47.150          42.800
 114818194.818 6  89303126.039 6                  21539566.220    21539575.640
  21539574.740          41.200          39.350
 121825611.627 7  94753258.109 6                  22830078.440    22830085.360
  22830084.880          46.400          40.650
 120198660.516 6  93487872.918 6                  22501441.340    22501447.680
  22501446.700          41.750          39.100
 107055767.833 7  83265698.720 7                  20048075.720    20048081.060
  20048079.580          42.800          46.750
 118167747.463 7  91908251.703 7                  22090209.280    22090213.260
  22090211.240          46.300          42.800
 106771276.049 7  83044353.853 7                  19945763.780    19945766.240
  19945764.920          47.250          46.900
 124899187.923 7  97143805.823 6                  23397841.880    23397851.300
  23397850.700          44.550          39.800
 126663202.466 6  98515862.772 6                  23686656.580    23686665.320
  23686662.760          39.100          36.750
 112998780.851 8  87887979.469 7                  21101716.340    21101718.880
  21101717.340          48.100          45.250
 15  1 27 13  1 25.0000000  0 20G30G06G07G13G02G23G09G10G20G16G05R14
                                R02R12R13R19R03R18R20R04
 112138982.262 8  87381113.700 8  83740247.366 8  21339306.700    21339307.200
  21339306.460          50.150          48.500
 112242836.104 8  87461951.312 8  83817700.629 8  21359102.280    21359103.800
  21359103.020          49.700          48.950
 108637830.657 8  84652927.570 8                  20673066.080    20673063.000
  20673062.300          49.600          48.450
 131778872.052 7 102684875.67145                  25076680.480
  25076683.280          43.300          33.700
 112355857.507 8  87550021.67147                  21380601.380
  21380596.100          49.050          45.950
 124509116.581 7  97020050.06246                  23693298.180
  23693294.260          47.550          36.750
 112716123.217 8  87830770.840 8  84171164.726 8  21449152.400    21449151.660
  21449151.400          49.350          48.850
 105842436.960 8  82474645.56747                  20141138.900
  20141135.620          49.700          46.600
 113301277.071 8  88286668.16247                  21560521.680
  21560518.080          49.950          44.350
 131649415.559 6 102583961.98246                  25052047.020
  25052047.460          40.100          36.550
 123237604.507 7  96029309.707 7                  23451328.720    23451328.560
  23451327.760          47.000          43.150
 114798052.058 6  89287459.463 6                  21535787.480    21535797.000
  21535796.060          41.300          39.700
 121838665.195 7  94763410.851 6                  22832524.700    22832531.560
  22832531.020          45.950          40.350
 120214813.203 7  93500436.087 6                  22504465.180    22504471.600
  22504470.580          42.100          39.100
 107053493.144 7  83263929.514 7                  20047649.720    20047655.060
  20047653.580          42.650          46.650
 118174448.962 7  91913463.959 7                  22091462.060    22091466.060
  22091464.040          46.000          42.900
 106773323.901 7  83045946.623 7                  19946146.360    19946148.780
  19946147.460          47.100          46.900
 124918471.144 7  97158803.840 6                  23401454.300    23401463.700
  23401463.120          43.750          39.450
 126653558.464 6  98508361.878 6                  23684853.120    23684861.780
  23684859.260          38.900          36.650
 112987201.099 7  87878972.999 7                  21099553.880    21099556.440
  21099554.920          47.950          45.350
 15  1 27 13  1 30.0000000  0 20G30G06G07G13G02G23G09G10G20G16G05R14
                                R02R12R13R19R03R18R20R04
 112126881.187 8  87371684.293 8  83731210.847 8  21337003.920    21337004.440
  21337003.680          50.150          48.350
 112254446.209 8  87470998.137 8  83826370.495 8  21361311.640    21361313.140
  21361312.360          49.750          48.850
 108636093.187 8  84651573.702 8                  20672735.440    20672732.380
  20672731.700          49.550          48.500
 131763666.218 7 102673026.99745                  25073786.880
  25073789.740          43.000          32.900
 112351775.517 8  87546840.90547                  21379824.620
  21379819.280          49.100          45.400
 124522690.198 7  97030626.91746                  23695881.160
  23695877.220          47.150          38.000
 112726066.884 8  87838519.148 8  84178590.184 8  21451044.560    21451043.900
  21451043.640          48.950          48.800
 105841438.803 8  82473867.78647                  20140948.940
  20140945.680          49.650          46.600
 113312694.938 8  88295565.20047                  21562694.480
  21562690.840          49.850          43.800
 131651484.272 6 102585573.98246                  25052440.700
  25052441.100          40.400          36.000
 123222661.031 7  96017665.458 7                  23448485.120    23448484.900
  23448484.100          47.300          43.050
 114777919.557 6  89271800.873 6                  21532010.640    21532020.200
  21532019.300          41.350          40.050
 121851723.960 7  94773567.670 6                  22834971.940    22834978.700
  22834978.060          46.050          40.150
 120230980.530 7  93513010.664 6                  22507491.800    22507498.180
  22507497.220          42.100          39.450
 107051242.294 7  83262178.861 7                  20047228.260    20047233.540
  20047232.040          42.950          46.650
 118181170.564 7  91918691.861 7                  22092718.580    22092722.640
  22092720.600          46.050          42.850
 106775380.573 7  83047546.260 7                  19946530.600    19946532.960
  19946531.640          47.500          46.800
 124937757.351 7  97173804.192 6                  23405067.300    23405076.640
  23405076.120          43.700          39.400
 126643933.256 6  98500875.636 6                  23683053.120    23683061.760
  23683059.280          38.850          36.950
 112975625.176 8  87869969.514 7                  21097392.140    21097394.680
  21097393.200          48.050          45.350
 15  1 27 13  1 35.0000000  0 20G30G06G07G13G02G23G09G10G20G16G05R14
                                R02R12R13R19R03R18R20R04
 112114793.100 8  87362265.000 8  83722184.032 8  21334703.620    21334704.140
  21334703.380          49.850          48.350
 112266069.777 8  87480055.449 8  83835050.423 8  21363523.560    21363525.060
  21363524.280          49.600          49.050
 108634372.118 8  84650232.601 8                  20672407.940    20672404.880
  20672404.200          49.350          48.650
 131748463.939 7 102661181.08845                  25070893.960
  25070896.700          43.200          32.600
 112347710.111 8  87543673.05047                  21379051.020
  21379045.620          49.250          45.250
 124536265.946 7  97041205.38546                  23698464.540
  23698460.640          47.700          37.450
 112736016.456 8  87846272.046 8  84186020.055 8  21452937.820    21452937.240
  21452936.960          48.700          48.800
 105840452.574 8  82473099.29747                  20140761.260
  20140758.000          49.450          46.850
 113324122.186 8  88304469.53347                  21564869.040
  21564865.400          49.800          44.200
 131653569.055 6 102587198.51545                  25052837.440
  25052837.840          40.600          33.250
 123207720.408 7  96006023.418 7                  23445642.060    23445641.780
  23445641.000          47.100          43.350
 114757797.722 7  89256150.578 6                  21528235.840    21528245.340
  21528244.540          42.100          40.100
 121864788.377 7  94783728.869 6                  22837420.200    22837426.940
  22837426.260          45.900          40.550
 120247162.643 6  93525596.729 6                  22510521.160    22510527.520
  22510526.600          41.950          39.400
 107049015.748 7  83260447.094 7                  20046811.300    20046816.540
  20046815.060          43.050          46.600
 118187912.453 7  91923935.529 7                  22093978.880    22093982.980
  22093980.940          45.750          42.900
 106777446.251 7  83049152.892 7                  19946916.500    19946918.840
  19946917.500          47.300          46.900
 124957046.798 7  97188807.052 6                  23408680.880    23408690.240
  23408689.740          43.300          39.800
 126634327.146 6  98493404.211 6                  23681256.740    23681265.240
  23681262.820          38.500          37.300
 112964053.253 8  87860969.125 7                  21095231.180    21095233.700
  21095232.220          48.100          45.200
 15  1 27 13  1 40.0000000  0 20G30G06G07G13G02G23G09G10G20G16G05R14
                                R02R12R13R19R03R18R20R04
 112102715.202 8  87352853.664 8  83713164.841 8  21332405.240    21332405.800
  21332405.020          49.850          48.650
 112277704.026 8  87489121.089 8  83843738.332 8  21365737.520    21365739.000
  21365738.240          49.750          49.100
 108632664.649 8  84648902.108 8                  20672083.000    20672079.980
  20672079.300          49.350          48.750
 131733262.527 7 102649335.83645                  25068001.220
  25068003.720          42.850          34.200
 112343658.518 8  87540515.96747                  21378280.040
  21378274.620          49.400          45.350
 124549841.069 7  97051783.40546                  23701047.820
  23701043.920          47.550          38.850
 112745969.151 8  87854027.385 8  84193452.266 8  21454831.660    21454831.160
  21454830.860          48.650          48.750
 105839475.513 8  82472337.95247                  20140575.340
  20140572.080          49.600          47.000
 113335556.048 8  88313379.02947                  21567044.840
  21567041.200          49.850          44.550
 131655667.154 6 102588833.41845                  25053236.700
  25053237.240          41.300          34.200
 123192779.832 7  95994381.434 7                  23442798.960    23442798.660
  23442797.880          47.200          43.400
 114737683.710 7  89240506.346 6                  21524462.460    21524471.960
  21524471.220          42.150          40.400
 121877855.530 7  94793892.179 6                  22839868.920    22839875.760
  22839875.000          46.050          40.900
 120263356.765 7  93538192.147 6                  22513552.780    22513559.180
  22513558.260          42.000          39.550
 107046810.562 7  83258731.950 7                  20046398.340    20046403.580
  20046402.100          43.150          46.650
 118194671.895 7  91929192.870 7                  22095242.520    22095246.600
  22095244.560          46.250          42.700
 106779518.194 7  83050764.404 7                  19947303.560    19947305.880
  19947304.540          47.250          46.900
 124976336.667 7  97203810.235 6                  23412294.480    23412303.920
  23412303.420          43.650          39.800
 126624737.311 6  98485945.456 6                  23679463.360    23679471.820
  23679469.440          39.000          37.600
 112952482.709 8  87851969.822 7                  21093070.460    21093072.960
  21093071.500          48.700          45.350
 15  1 27 13  1 45.0000000  0 20G30G06G07G13G02G23G09G10G20G16G05R14
                                R02R12R13R19R03R18R20R04
 112090650.613 8  87343452.691 8  83704155.570 8  21330109.400    21330109.980
  21330109.200          50.150          48.350
 112289352.041 8  87498197.446 8  83852436.503 8  21367954.080    21367955.540
  21367954.800          49.850          49.100
 108630973.852 8  84647584.600 8                  20671761.260    20671758.240
  20671757.540          49.600          48.450
 131718064.988 7 102637493.60945                  25065109.240
  25065111.660          43.550          33.600
 112339623.773 8  87537372.00547                  21377512.260
  21377506.780          49.550          45.300
 124563418.649 7  97062363.31646                  23703631.560
  23703627.700          47.800          37.850
 112755928.048 8  87861787.554 8  84200889.081 8  21456726.680    21456726.280
  21456725.940          48.850          48.600
 105838510.694 8  82471586.14347                  20140391.740
  20140388.460          49.650          47.050
 113346999.571 8  88322296.05047                  21569222.460
  21569218.840          49.650          44.200
 131657781.610 7 102590481.01945                  25053639.060
  25053639.500          42.200          33.700
 123177842.354 7  95982741.847 7                  23439956.480    23439956.120
  23439955.360          47.450          43.400
 114717580.641 7  89224870.639 6                  21520691.200    21520700.600
  21520699.940          42.100          40.050
 121890928.562 7  94804060.070 6                  22842318.780    22842325.620
  22842324.940          45.950          41.400
 120279566.121 6  93550799.409 6                  22516587.260    22516593.620
  22516592.720          41.700          39.550
 107044630.033 7  83257035.975 7                  20045990.020    20045995.220
  20045993.740          42.650          46.700
 118201451.941 7  91934466.228 7                  22096509.980    22096514.020
  22096512.020          46.150          42.350
 106781599.573 7  83052383.250 7                  19947692.440    19947694.680
  19947693.340          47.650          46.750
 124995630.099 7  97218816.197 6                  23415908.860    23415918.200
  23415917.740          43.100          39.800
 126615167.037 6  98478501.904 6                  23677673.720    23677682.100
  23677679.740          39.100          37.600
 112940916.473 8  87842973.862 7                  21090910.580    21090913.020
  21090911.620          48.400          45.100
 15  1 27 13  1 50.0000000  0 20G30G06G07G13G02G23G09G10G20G16G05R14
                                R02R12R13R19R03R18R20R04
 112078597.934 8  87334060.996 8  83695155.193 8  21327815.820    21327816.420
  21327815.640          50.350          48.400
 112301012.371 8  87507283.405 8  83861143.885 8  21370173.000    21370174.460
  21370173.720          49.650          49.000
 108629298.295 8  84646278.971 8                  20671442.420    20671439.400
  20671438.700          49.750          48.350
 131702869.919 7 102625653.33445                  25062217.720
  25062220.160          43.800          30.950
 112335604.501 8  87534240.10547                  21376747.440
  21376741.920          49.600          45.050
 124576997.232 7  97072944.00646                  23706215.480
  23706211.620          47.750          37.550
 112765891.711 8  87869551.437 8  84208329.469 8  21458622.660    21458622.300
  21458621.900          49.200          48.350
 105837556.706 8  82470842.77547                  20140210.220
  20140206.920          49.550          47.300
 113358451.347 8  88331219.50347                  21571401.660
  21571398.060          49.700          44.250
