     2.11           OBSERVATION DATA    M (MIXED)           RINEX VERSION / TYPE
teqc  2011Oct11     IGN-E (SPG)         20150127 03:01:10UTCPGM / RUN BY / DATE
Linux 2.4.21-27.ELsmp|Opteron|gcc -static|Linux x86_64|=+   COMMENT
BIT 2 OF LLI FLAGS DATA COLLECTED UNDER A/S CONDITION       COMMENT
VALE                                                        MARKER NAME
13439M001                                                   MARKER NUMBER
Programas GeodesicosInstituto Geografico Nacional           OBSERVER / AGENCY
1700071             LEICA GR10          3.03/6.214          REC # / TYPE / VERS
10190012            LEIAR25.R3      LEIT                    ANT # / TYPE
  4929534.0457   -29050.6755  4033709.9250                  APPROX POSITION XYZ
        3.0390        0.0000        0.0000                  ANTENNA: DELTA H/E/N
     1     1                                                WAVELENGTH FACT L1/2
     8    L1    L2    L5    C1    C2    P2    S1    S2      # / TYPES OF OBSERV
     5.0000                                                 INTERVAL
Forced Modulo Decimation to 5 seconds                       COMMENT
DefaultJobName                                              COMMENT
DefaultUserDiscription                                      COMMENT
Project creator:                                            COMMENT
 SNR is mapped to RINEX snr flag value [0-9]                COMMENT
  L1 & L2: min(max(int(snr_dBHz/6), 0), 9)                  COMMENT
  2015     1    27     1     0    0.0000000     GPS         TIME OF FIRST OBS
    15                                                      LEAP SECONDS
                                                            END OF HEADER
 15  1 27  1  0  0.0000000  0 21G31G08G21G25G05G16G18G23G27G29R11R21
                                R10R04R22R19R09R20E12E18E11
 110942821.233 8  86448962.074 8                  21111711.540    21111706.860
  21111705.960          50.200          48.150
 110305991.877 8  85952702.07847                  20990530.020
  20990525.480          49.700          46.300
 111660445.516 8  87008196.45947                  21248245.720
  21248240.540          48.650          46.350
 121890800.684 7  94980016.397 7  91022509.330 8  23194967.300    23194966.140
  23194965.380          47.700          43.850
 131942866.488 7 102812630.800 6                  25107888.520    25107885.940
  25107885.700          43.800          39.350
 122103167.217 7  95145324.35746                  23235459.300
  23235454.220          47.200          39.000
 131867684.771 6 102754030.80745                  25093579.820
  25093575.720          41.750          30.000
 134044935.808 7 104450573.82044                  25507904.340
  25507897.980          42.650          28.900
 128562816.103 7 100178823.709 7  96004699.626 8  24464688.600    24464687.720
  24464687.220          44.100          42.400
 115497686.619 8  89998336.498 7                  21978416.580    21978412.720
  21978411.980          49.250          45.650
 109207079.847 7  84938853.782 6                  20436614.180    20436618.220
  20436616.440          47.200          41.000
 107529665.044 8  83634233.861 7                  20094469.020    20094470.680
  20094469.760          49.000          46.850
 103157212.855 8  80233423.857 7                  19352024.300    19352030.960
  19352029.660          48.950          42.050
 128971266.087 7 100310998.566 6                  24084473.740    24084475.760
  24084474.820          42.750          37.300
 127370842.005 7  99066235.399 6                  23860846.820    23860851.020
  23860849.720          44.700          40.550
 125005003.811 7  97226236.967 6                  23368317.360    23368318.680
  23368317.000          45.450          38.650
 121164405.114 7  94238971.104 5                  22690185.920    22690189.780
  22690187.180          45.300          32.500
 105840829.049 7  82320795.455 7                  19792720.960    19792725.440
  19792723.260          43.600          46.600
 129711595.562 8                  96862687.379 8  24683244.220
                        50.150


 122144607.665 8                  91211991.040 8  23243291.920
                        50.300
 15  1 27  1  0  5.0000000  0 21G31G08G21G25G05G16G18G23G27G29R11R21
                                R10R04R22R19R09R20E12E18E11
 110951130.369 8  86455436.722 8                  21113292.720    21113288.000
  21113287.120          50.200          48.200
 110299780.065 8  85947861.70447                  20989347.920
  20989343.400          49.550          46.750
 111655470.174 8  87004319.57647                  21247298.980
  21247293.780          48.500          46.250
 121904489.542 7  94990683.034 7  91032731.532 8  23197572.200    23197571.020
  23197570.200          47.550          43.750
 131944840.755 7 102814169.180 6                  25108264.280    25108261.640
  25108261.420          42.750          39.450
 122088968.487 7  95134260.41746                  23232757.360
  23232752.320          47.050          39.550
 131855183.417 6 102744289.46745                  25091200.880
  25091196.800          41.000          32.150
 134046006.496 7 104451408.15544                  25508108.120
  25508101.540          42.650          29.850
 128548493.225 7 100167663.039 7  95994004.006 8  24461963.020    24461962.180
  24461961.700          44.000          42.350
 115509931.603 8  90007878.040 7                  21980746.740    21980742.860
  21980742.120          49.200          45.650
 109193767.347 7  84928499.617 6                  20434123.020    20434127.000
  20434125.200          47.050          41.200
 107521859.029 8  83628162.529 7                  20093010.240    20093011.940
  20093011.020          49.050          46.800
 103164745.823 8  80239282.829 7                  19353437.480    19353444.140
  19353442.820          49.000          42.000
 128963110.609 7 100304655.400 6                  24082950.720    24082952.840
  24082951.860          43.600          38.300
 127353207.306 7  99052519.536 6                  23857543.300    23857547.420
  23857546.120          44.350          39.600
 125023536.577 7  97240651.330 6                  23371781.900    23371783.260
  23371781.580          46.100          38.550
 121185256.990 7  94255189.221 5                  22694090.860    22694094.800
  22694092.140          45.300          33.250
 105849901.272 7  82327851.621 7                  19794417.520    19794422.000
  19794419.820          43.750          46.500
 129720930.783 8                  96869658.484 8  24685020.600
                        50.100


 122143346.582 8                  91211049.322 8  23243051.940
                        50.250
 15  1 27  1  0 10.0000000  0 21G31G08G21G25G05G16G18G23G27G29R11R21
                                R10R04R22R19R09R20E12E18E11
 110959452.960 8  86461921.848 8                  21114876.440    21114871.740
  21114870.860          50.200          48.100
 110293584.376 8  85943033.88947                  20988168.920
  20988164.380          49.400          46.600
 111650507.177 8  87000452.30347                  21246354.600
  21246349.320          48.150          46.100
 121918183.741 7  95001353.834 7  91042957.722 8  23200178.120    23200176.880
  23200176.100          47.550          43.450
 131946828.926 7 102815718.409 6                  25108642.600    25108639.960
  25108639.840          42.700          39.650
 122074771.370 7  95123197.73546                  23230055.720
  23230050.680          46.900          39.550
 131842678.606 7 102734545.50645                  25088821.300
  25088817.060          42.000          33.750
 134047089.795 6 104452252.27644                  25508314.260
  25508307.760          41.900          29.300
 128534173.401 7 100156504.746 6  95983310.633 8  24459238.000    24459237.180
  24459236.720          43.750          41.800
 115522179.643 8  90017421.959 7                  21983077.480    21983073.560
  21983072.840          49.000          45.650
 109180469.611 7  84918156.933 6                  20431634.580    20431638.540
  20431636.740          47.150          41.550
 107514066.250 8  83622101.480 7                  20091553.960    20091555.680
  20091554.760          48.900          46.850
 103172299.217 8  80245157.691 6                  19354854.520    19354861.140
  19354859.800          49.050          41.900
 128954970.542 7 100298324.250 6                  24081430.620    24081432.740
  24081431.900          43.300          38.200
 127335578.027 7  99038807.893 6                  23854240.720    23854244.900
  23854243.560          44.700          39.800
 125042068.019 7  97255064.688 6                  23375246.180    23375247.480
  23375245.840          45.950          38.400
 121206115.201 7  94271412.263 5                  22697996.920    22698000.760
  22697998.280          45.050          32.250
 105858984.174 7  82334916.088 7                  19796116.060    19796120.540
  19796118.380          43.050          46.700
 129730269.409 8                  96876632.124 8  24686797.640
                        50.100


 122142092.681 8                  91210112.971 8  23242813.340
                        50.150
 15  1 27  1  0 15.0000000  0 21G31G08G21G25G05G16G18G23G27G29R11R21
                                R10R04R22R19R09R20E12E18E11
 110967789.283 8  86468417.680 8                  21116462.780    21116458.080
  21116457.200          50.150          48.100
 110287405.106 8  85938218.87647                  20986993.020
  20986988.500          49.400          46.600
 111645556.815 8  86996594.87647                  21245412.600
  21245407.280          48.050          46.700
 121931883.598 7  95012029.043 7  91053188.121 8  23202785.120    23202783.920
  23202783.080          47.400          43.700
 131948831.260 7 102817278.667 6                  25109023.620    25109020.980
  25109021.000          42.700          39.750
 122060576.137 7  95112136.51146                  23227354.420
  23227349.460          46.550          40.100
 131830170.726 7 102724799.12845                  25086441.100
  25086436.820          42.700          33.050
 134048186.024 7 104453106.47245                  25508522.920
  25508516.360          42.950          32.350
 128519856.918 7 100145349.054 6  95972619.755 8  24456513.620    24456512.880
  24456512.400          43.850          41.550
 115534431.054 8  90026968.507 7                  21985408.840    21985404.920
  21985404.220          48.850          45.600
 109167187.000 7  84907826.016 6                  20429148.980    20429152.940
  20429151.100          47.350          41.200
 107506286.996 8  83616050.941 7                  20090100.220    20090102.000
  20090101.020          49.000          46.850
 103179873.301 8  80251048.642 7                  19356275.420    19356282.000
  19356280.660          49.150          42.050
 128946846.193 7 100292005.332 6                  24079913.340    24079915.500
  24079914.840          42.800          37.050
 127317954.302 7  99025100.591 6                  23850939.220    23850943.400
  23850942.080          45.250          39.800
 125060598.465 7  97269477.255 6                  23378710.320    23378711.640
  23378709.980          45.250          38.150
 121226980.094 7  94287640.514 5                  22701904.200    22701908.280
  22701905.620          45.350          32.650
 105868078.031 7  82341989.089 7                  19797816.680    19797821.120
  19797819.000          44.000          46.750
 129739611.698 8                  96883608.504 8  24688575.380
                        50.200


 122140846.281 8                  91209182.220 8  23242576.200
                        50.150
 15  1 27  1  0 20.0000000  0 21G31G08G21G25G05G16G18G23G27G29R11R21
                                R10R04R22R19R09R20E12E18E11
 110976139.986 8  86474924.719 8                  21118051.860    21118047.180
  21118046.300          49.950          48.300
 110281242.946 8  85933417.19147                  20985820.400
  20985815.880          49.450          46.600
 111640619.809 8  86992747.85347                  21244473.140
  21244467.780          48.150          46.400
 121945589.718 7  95022709.127 7  91063423.199 8  23205393.300    23205392.100
  23205391.300          47.700          43.700
 131950848.450 7 102818850.507 6                  25109407.500    25109404.920
  25109404.840          42.900          39.350
 122046383.484 7  95101077.31746                  23224653.600
  23224648.700          46.950          38.950
 131817660.423 7 102715050.84645                  25084060.500
  25084056.260          42.350          31.650
 134049295.861 7 104453971.23644                  25508734.120
  25508727.460          42.800          29.550
 128505544.443 7 100134196.453 6  95961931.862 8  24453789.980    24453789.320
  24453788.840          44.050          41.900
 115546686.506 8  90036518.202 7                  21987740.960    21987737.080
  21987736.360          48.900          45.550
 109153920.134 7  84897507.340 6                  20426666.340    20426670.220
  20426668.380          46.950          41.200
 107498521.974 8  83610011.476 7                  20088649.140    20088650.900
  20088649.940          48.700          47.000
 103187468.743 8  80256956.199 7                  19357700.320    19357706.860
  19357705.540          49.150          42.200
 128938738.310 7 100285699.205 6                  24078399.240    24078401.420
  24078400.800          42.550          37.550
 127300336.852 7  99011398.141 6                  23847638.900    23847642.980
  23847641.780          45.700          39.350
 125079128.567 7  97283889.559 6                  23382174.320    23382175.680
  23382174.040          44.200          39.100
 121247852.312 7  94303874.464 5                  22705812.920    22705816.960
  22705814.360          45.400          32.050
 105877183.521 7  82349071.128 7                  19799519.520    19799523.880
  19799521.800          43.350          46.750
 129748958.344 8                  96890588.136 8  24690353.940
                        50.300


 122139608.047 8                  91208257.558 8  23242340.560
                        50.250
 15  1 27  1  0 25.0000000  0 21G31G08G21G25G05G16G18G23G27G29R11R21
                                R10R04R22R19R09R20E12E18E11
 110984503.672 8  86481441.871 8                  21119643.420    21119638.760
  21119637.860          49.950          48.100
 110275096.499 8  85928627.74547                  20984650.720
  20984646.240          49.650          46.200
 111635694.761 8  86988910.14747                  21243535.960
  21243530.560          48.450          46.550
 121959300.726 7  95033393.025 7  91073661.934 8  23208002.420    23208001.240
  23208000.420          47.550          43.650
 131952879.083 7 102820432.814 6                  25109793.900    25109791.340
  25109791.260          43.350          39.250
 122032192.124 7  95090019.10846                  23221953.040
  23221948.180          46.900          39.350
 131805146.220 7 102705299.54245                  25081679.080
  25081674.960          42.500          31.000
 134050417.822 7 104454845.48744                  25508947.640
  25508940.860          42.450          29.950
 128491234.561 7 100123045.898 7  95951245.917 8  24451066.860    24451066.240
  24451065.780          44.050          42.050
 115558944.471 8  90046069.862 7                  21990073.580    21990069.700
  21990068.980          48.900          45.700
 109140667.697 7  84887199.897 6                  20424186.380    20424190.240
  20424188.380          47.250          41.200
 107490769.776 8  83603981.992 7                  20087200.480    20087202.220
  20087201.280          48.850          47.050
 103195084.219 8  80262879.348 7                  19359128.960    19359135.540
  19359134.200          49.100          42.000
 128930645.463 7 100279404.762 6                  24076887.920    24076890.120
  24076889.540          42.100          38.550
 127282724.378 7  98997699.566 6                  23844339.500    23844343.520
  23844342.420          45.350          38.900
 125097656.780 7  97298300.366 6                  23385638.060    23385639.320
  23385637.740          44.250          39.100
 121268730.359 7  94320112.926 5                  22709722.760    22709726.800
  22709724.180          45.600          32.000
 105886299.184 7  82356161.089 7                  19801224.220    19801228.560
  19801226.480          44.550          46.700
 129758307.922 8                  96897569.956 8  24692133.100
                        50.650


 122138376.561 8                  91207337.947 8  23242106.220
                        50.250
 15  1 27  1  0 30.0000000  0 21G31G08G21G25G05G16G18G23G27G29R11R21
                                R10R04R22R19R09R20E12E18E11
 110992881.886 8  86487970.351 8                  21121237.720    21121233.060
  21121232.180          49.950          48.000
 110268967.309 8  85923851.75447                  20983484.340
  20983479.880          49.750          46.150
 111630783.161 8  86985082.93047                  21242601.340
  21242595.920          48.750          45.350
 121973018.184 7  95044081.953 7  91083905.487 8  23210612.740    23210611.580
  23210610.760          47.750          43.650
 131954924.684 7 102822026.816 6                  25110183.140    25110180.580
  25110180.440          42.800          38.950
 122018003.481 7  95078963.03546                  23219253.020
  23219248.200          47.150          39.050
 131792629.745 7 102695546.44545                  25079297.260
  25079292.960          42.450          31.550
 134051553.543 7 104455730.43545                  25509163.800
  25509157.080          43.650          30.150
 128476928.838 7 100111898.588 7  95940563.080 8  24448344.540    24448343.960
  24448343.440          44.650          42.250
 115571206.578 8  90055624.741 7                  21992406.980    21992403.120
  21992402.380          49.250          45.800
 109127431.248 7  84876904.883 6                  20421709.400    20421713.220
  20421711.360          47.300          41.550
 107483031.908 8  83597963.657 7                  20085754.460    20085756.220
  20085755.300          48.800          47.250
 103202721.162 8  80268819.194 7                  19360561.640    19360568.240
  19360566.860          48.900          42.400
 128922569.220 7 100273123.260 6                  24075379.660    24075381.960
  24075381.380          42.450          38.300
 127265118.234 7  98984005.922 6                  23841041.240    23841045.320
  23841044.260          45.200          38.800
 125116184.825 7  97312711.051 6                  23389101.700    23389102.960
  23389101.420          44.150          39.600
 121289615.853 7  94336357.195 5                  22713633.960    22713638.060
  22713635.400          45.700          32.400
 105895426.606 7  82363260.208 7                  19802931.100    19802935.440
  19802933.340          43.900          46.500
 129767661.971 8                  96904555.125 8  24693913.120
                        50.800


 122137153.376 8                  91206424.529 8  23241873.440
                        50.400
 15  1 27  1  0 35.0000000  0 21G31G08G21G25G05G16G18G23G27G29R11R21
                                R10R04R22R19R09R20E12E18E11
 111001273.728 8  86494509.447 8                  21122834.640    21122830.000
  21122829.100          50.050          48.100
 110262854.479 8  85919088.50947                  20982321.100
  20982316.640          49.650          46.000
 111625884.141 8  86981265.51847                  21241669.100
  21241663.640          48.750          45.900
 121986741.168 7  95054775.181 7  91094153.162 8  23213224.120    23213222.960
  23213222.160          47.850          43.800
 131956984.416 7 102823631.808 6                  25110575.080    25110572.580
  25110572.340          43.450          39.500
 122003816.672 7  95067908.37746                  23216553.340
  23216548.540          47.450          38.850
 131780110.086 7 102685790.85845                  25076914.840
  25076910.300          42.400          30.200
 134052702.089 7 104456625.42444                  25509382.360
  25509375.440          43.850          28.600
 128462626.369 7 100100753.812 7  95929882.678 8  24445622.860    24445622.340
  24445621.760          44.750          42.100
 115583471.957 8  90065182.175 7                  21994741.000    21994737.160
  21994736.440          49.700          45.850
 109114209.796 7  84866621.532 6                  20419235.220    20419239.000
  20419237.140          47.550          41.150
 107475307.478 8  83591955.763 7                  20084310.960    20084312.720
  20084311.840          48.500          47.100
 103210378.558 8  80274774.940 6                  19361998.180    19362004.760
  19362003.360          48.950          41.900
 128914508.554 7 100266853.872 6                  24073874.400    24073876.620
  24073876.060          42.800          37.850
 127247517.685 7  98970316.612 6                  23837744.040    23837748.120
  23837747.120          45.300          39.700
 125134711.707 7  97327120.833 6                  23392565.160    23392566.300
  23392564.860          44.700          39.400
 121310507.843 7  94352606.523 5                  22717546.380    22717550.440
  22717547.760          45.850          32.250
 105904564.820 7  82370367.705 7                  19804639.980    19804644.300
  19804642.180          44.300          46.300
 129777019.579 8                  96911542.951 8  24695693.840
                        50.900


 122135937.573 8                  91205516.621 8  23241642.080
                        50.400
 15  1 27  1  0 40.0000000  0 21G31G08G21G25G05G16G18G23G27G29R11R21
                                R10R04R22R19R09R20E12E18E11
 111009679.328 8  86501059.269 8                  21124434.140    21124429.540
  21124428.620          50.250          48.050
 110256758.159 8  85914338.13847                  20981160.960
  20981156.540          49.600          46.250
 111620997.825 8  86977458.00747                  21240739.280
  21240733.800          48.650          46.050
 122000469.806 7  95065472.823 7  91104405.067 8  23215836.580    23215835.440
  23215834.600          47.900          43.900
 131959058.382 7 102825247.889 6                  25110969.720    25110967.200
  25110966.940          43.200          39.300
 121989631.821 7  95056855.25046                  23213854.040
  23213849.240          47.400          38.850
 131767587.426 7 102676032.94145                  25074531.840
  25074527.320          42.300          34.150
 134053863.562 7 104457530.49945                  25509603.400
  25509596.480          43.550          32.600
 128448327.283 7 100089611.666 6  95919204.789 8  24442901.800    24442901.320
  24442900.720          44.350          41.600
 115595740.712 8  90074742.252 7                  21997075.660    21997071.840
  21997071.120          49.650          45.950
 109101003.560 7  84856350.017 6                  20416763.860    20416767.580
  20416765.760          47.400          41.050
 107467596.644 8  83585958.452 7                  20082870.020    20082871.800
  20082870.920          48.650          47.050
 103218056.703 8  80280746.835 6                  19363438.580    19363445.160
  19363443.780          49.150          41.900
 128906463.891 7 100260596.939 6                  24072372.060    24072374.360
  24072373.780          42.700          38.050
 127229922.703 7  98956631.649 6                  23834447.900    23834451.960
  23834450.960          44.750          39.250
 125153237.574 7  97341529.835 6                  23396028.400    23396029.420
  23396028.100          44.800          38.850
 121331406.494 7  94368861.037 5                  22721460.060    22721464.080
  22721461.460          45.200          32.550
 105913714.129 7  82377483.839 7                  19806350.960    19806355.260
  19806353.120          44.000          46.300
 129786380.878 8                  96918533.531 8  24697475.260
                        50.950


 122134729.291 8                  91204614.338 8  23241412.140
                        50.400
 15  1 27  1  0 45.0000000  0 21G31G08G21G25G05G16G18G23G27G29R11R21
                                R10R04R22R19R09R20E12E18E11
 111018099.718 8  86507620.612 8                  21126036.460    21126031.900
  21126030.960          49.950          48.100
 110250679.408 8  85909601.45347                  20980004.180
  20979999.800          49.350          46.400
 111616125.232 8  86973661.19047                  21239812.060
  21239806.580          48.350          45.950
 122014205.171 7  95076175.711 7  91114661.997 8  23218450.340    23218449.200
  23218448.420          47.200          43.950
 131961147.616 7 102826875.886 6                  25111367.280    25111364.760
  25111364.500          43.000          39.750
 121975450.004 7  95045804.49846                  23211155.320
  23211150.540          47.150          39.250
 131755062.792 7 102666273.53745                  25072148.480
  25072143.920          42.250          30.650
 134055039.069 7 104458446.43145                  25509827.140
  25509820.200          44.150          30.300
 128434032.664 7 100078473.002 7  95908530.240 8  24440181.620    24440181.160
  24440180.520          44.250          42.050
 115608013.900 8  90084305.771 7                  21999411.180    21999407.360
  21999406.680          49.550          45.950
 109087813.654 7  84846091.206 6                  20414295.540    20414299.300
  20414297.420          47.350          40.900
 107459900.457 8  83579972.539 7                  20081431.800    20081433.600
  20081432.740          48.300          47.150
 103225756.656 8  80286735.683 6                  19364883.100    19364889.640
  19364888.280          49.000          41.850
 128898436.059 7 100254353.076 6                  24070872.860    24070875.260
  24070874.640          42.450          38.100
 127212334.586 7  98942952.048 6                  23831153.060    23831157.100
  23831156.120          43.850          39.000
 125171763.437 7  97355938.848 6                  23399491.660    23399492.580
  23399491.240          45.300          38.750
 121352312.792 7  94385121.483 5                  22725375.140    22725379.100
  22725376.640          44.900          33.050
 105922875.366 7  82384609.243 7                  19808064.240    19808068.460
  19808066.320          44.000          46.550
 129795746.917 8                  96925527.660 8  24699257.600
                        50.800


 122133529.585 8                  91203718.454 8  23241183.840
                        50.200
 15  1 27  1  0 50.0000000  0 21G31G08G21G25G05G16G18G23G27G29R11R21
                                R10R04R22R19R09R20E12E18E11
 111026533.593 8  86514192.460 8                  21127641.340    21127636.800
  21127635.880          49.800          48.250
 110244616.968 8  85904877.47147                  20978850.480
  20978846.140          49.400          46.450
 111611265.137 8  86969874.10247                  21238887.240
  21238881.720          48.250          46.300
 122027945.959 7  95086882.806 7  91124922.965 8  23221065.100    23221063.940
  23221063.160          47.350          43.950
 131963250.841 7 102828514.765 6                  25111767.460    25111764.980
  25111764.800          42.900          39.850
 121961269.908 7  95034755.07046                  23208456.940
  23208452.120          47.200          39.900
 131742534.895 7 102656511.56045                  25069764.520
  25069759.980          42.950          33.600
 134056227.277 7 104459372.32045                  25510053.300
  25510046.260          43.400          31.100
 128419741.199 7 100067336.801 7  95897858.038 8  24437462.000    24437461.560
  24437461.000          44.500          42.650
 115620290.225 8  90093871.738 7                  22001747.300    22001743.460
  22001742.820          49.400          46.000
 109074638.866 7  84835844.136 6                  20411830.080    20411833.700
  20411831.900          47.700          41.250
 107452217.606 8  83573996.988 7                  20079996.080    20079997.880
  20079997.060          48.600          47.100
 103233477.187 8  80292740.530 7                  19366331.440    19366338.000
  19366336.660          49.000          42.100
 128890423.947 7 100248121.404 6                  24069376.640    24069379.060
  24069378.400          43.450          38.100
 127194751.908 7  98929276.648 6                  23827859.240    23827863.280
  23827862.280          44.400          38.900
 125190288.031 7  97370346.868 6                  23402954.680    23402955.560
  23402954.200          45.550          38.500
 121373225.471 7  94401386.873 5                  22729291.400    22729295.600
  22729293.000          45.250          32.650
 105932047.250 7  82391742.941 7                  19809779.460    19809783.640
  19809781.500          43.950          46.650
 129805116.420 8                  96932524.366 8  24701040.600
                        50.800


 122132337.172 8                  91202828.016 8  23240956.940
                        50.300
 15  1 27  1  0 55.0000000  0 21G31G08G21G25G05G16G18G23G27G29R11R21
                                R10R04R22R19R09R20E12E18E11
 111034980.858 8  86520774.744 8                  21129248.780    21129244.260
  21129243.360          49.550          48.100
 110238570.723 8  85900166.11447                  20977699.880
  20977695.560          49.400          46.300
 111606417.421 8  86966096.66647                  21237964.760
  21237959.240          48.000          46.700
 122041692.054 7  95097594.052 7  91135187.903 8  23223680.920    23223679.740
  23223678.940          47.250          43.650
 131965367.974 7 102830164.496 6                  25112170.300    25112167.820
  25112167.580          43.300          39.700
 121947091.465 7  95023706.94546                  23205758.880
  23205753.960          47.450          38.650
 131730003.646 7 102646746.95645                  25067379.880
  25067375.420          42.000          31.200
 134057428.029 7 104460307.95345                  25510281.800
  25510274.640          43.150          32.950
 128405452.786 7 100056202.991 7  95887188.137 8  24434742.960    24434742.620
  24434742.100          44.550          42.650
 115632569.585 8  90103440.073 7                  22004084.000    22004080.160
  22004079.540          49.100          45.950
 109061478.941 7  84825608.634 6                  20409367.420    20409370.960
  20409369.180          47.550          41.150
 107444547.982 8  83568031.735 7                  20078562.800    20078564.660
  20078563.840          48.300          47.150
 103241217.990 8  80298761.161 7                  19367783.580    19367790.120
  19367788.820          48.800          42.150
 128882427.248 7 100241901.733 6                  24067883.320    24067885.820
  24067885.100          42.050          38.350
 127177174.641 7  98915605.430 6                  23824566.420    23824570.380
  23824569.460          44.200          38.900
 125208811.136 7  97384753.735 6                  23406417.380    23406418.180
  23406416.900          44.900          38.750
 121394144.401 7  94417657.146 5                  22733208.880    22733212.980
  22733210.420          45.000          31.650
 105941229.775 7  82398884.892 7                  19811496.660    19811500.840
  19811498.700          43.700          46.800
 129814489.280 8                  96939523.572 8  24702824.220
                        50.700


 122131151.923 8                  91201942.929 8  23240731.400
                        50.250
 15  1 27  1  1  0.0000000  0 21G31G08G21G25G05G16G18G23G27G29R11R21
                                R10R04R22R19R09R20E12E18E11
 111043443.301 8  86527368.858 8                  21130859.100    21130854.620
  21130853.700          49.450          48.150
 110232542.520 8  85895468.81747                  20976552.720
  20976548.440          49.550          46.400
 111601583.882 8  86962330.27447                  21237044.980
  21237039.420          48.000          46.550
 122055445.294 7  95108310.866 7  91145458.185 8  23226298.100    23226296.900
  23226296.100          47.350          43.700
 131967500.854 7 102831826.484 6                  25112576.120    25112573.640
  25112573.380          43.650          39.550
 121932916.509 7  95012661.52346                  23203061.520
  23203056.440          47.800          38.800
 131717470.912 6 102636981.19345                  25064994.960
  25064990.360          41.800          31.000
 134058643.224 7 104461254.85045                  25510513.040
  25510505.820          44.000          30.900
 128391169.276 7 100045072.992 7  95876521.878 8  24432024.900    24432024.620
  24432024.100          44.300          42.700
 115644853.775 8  90113012.168 7                  22006421.620    22006417.760
  22006417.180          49.000          46.100
 109048335.897 7  84815386.273 6                  20406907.920    20406911.420
  20406909.660          47.350          41.400
 107436893.483 8  83562078.253 7                  20077132.340    20077134.260
  20077133.460          48.250          47.400
 103248980.902 8  80304798.988 7                  19369239.900    19369246.460
  19369245.120          48.700          42.250
 128874447.943 7 100235695.619 6                  24066393.280    24066395.720
  24066395.020          42.400          38.500
 127159604.542 7  98901939.810 6                  23821274.940    23821278.860
  23821277.940          44.600          38.750
 125227334.781 7  97399161.033 6                  23409880.120    23409880.960
  23409879.700          44.500          39.100
 121415071.357 7  94433933.702 5                  22737127.840    22737131.840
  22737129.260          45.000          31.600
 105950424.693 7  82406036.497 7                  19813216.180    19813220.380
  19813218.200          43.800          46.600
 129823867.301 8                  96946526.649 8  24704608.820
                        50.600


 122129975.691 8                  91201064.584 8  23240507.560
                        50.300
 15  1 27  1  1  5.0000000  0 21G31G08G21G25G05G16G18G23G27G29R11R21
                                R10R04R22R19R09R20E12E18E11
 111051918.026 8  86533972.530 8                  21132471.760    21132467.300
  21132466.380          49.750          48.300
 110226529.427 8  85890783.28647                  20975408.420
  20975404.180          49.600          46.800
 111596761.662 8  86958572.68747                  21236127.340
  21236121.760          48.050          46.700
 122069202.795 7  95119030.987 7  91155731.636 8  23228916.100    23228914.900
  23228914.040          47.250          43.750
 131969646.514 7 102833498.431 6                  25112984.400    25112981.940
  25112981.660          43.200          39.300
 121918742.086 7  95001616.50846                  23200364.260
  23200359.060          47.600          40.000
 131704933.784 6 102627212.03045                  25062609.160
  25062604.460          41.550          30.400
 134059869.928 7 104462210.73145                  25510746.480
  25510739.220          43.800          30.900
 128376887.745 7 100033944.522 7  95865857.100 7  24429307.180    24429306.960
  24429306.460          44.250          42.650
 115657139.903 8  90122585.761 7                  22008759.600    22008755.760
  22008755.160          48.850          45.950
 109035206.821 7  84805174.770 6                  20404450.980    20404454.480
  20404452.720          47.400          41.350
 107429251.079 8  83556134.144 7                  20075704.180    20075706.100
  20075705.340          48.350          47.450
 103256763.166 8  80310851.858 7                  19370699.860    19370706.440
  19370705.060          48.650          42.300
 128866483.251 6 100229500.867 6                  24064905.980    24064908.400
  24064907.600          41.400          37.700
 127142038.762 7  98888277.560 6                  23817984.260    23817988.120
  23817987.160          44.200          37.600
 125245855.877 7  97413566.316 6                  23413342.400    23413343.380
  23413342.080          44.950          39.950
 121436003.407 7  94450214.179 5                  22741047.700    22741051.800
  22741049.120          44.550          32.300
 105959629.028 7  82413195.414 7                  19814937.460    19814941.640
  19814939.440          44.200          46.700
 129833247.576 8                  96953531.396 8  24706393.800
                        50.450


 122128805.539 8                  91200190.769 8  23240284.900
                        50.200
 15  1 27  1  1 10.0000000  0 21G31G08G21G25G05G16G18G23G27G29R11R21
                                R10R04R22R19R09R20E12E18E11
 111060407.762 8  86540587.904 8                  21134087.280    21134082.860
  21134081.920          50.000          48.300
 110220534.199 8  85886111.68847                  20974267.540
  20974263.340          49.850          46.400
 111591953.499 8  86954826.07547                  21235212.360
  21235206.800          48.300          46.400
 122082967.215 7  95129756.507 7  91166010.267 8  23231535.400    23231534.160
  23231533.300          47.300          43.600
 131971807.673 7 102835182.439 6                  25113395.640    25113393.180
  25113392.820          43.100          39.200
 121904570.984 7  94990574.09546                  23197667.620
  23197662.340          47.600          39.350
 131692394.994 6 102617441.55045                  25060223.140
  25060218.460          41.800          33.400
 134061110.831 7 104463177.67945                  25510982.660
  25510975.220          42.950          31.800
 128362610.931 7 100022819.717 7  95855195.835 7  24426590.380    24426590.160
  24426589.740          44.100          42.200
 115669430.666 8  90132162.971 7                  22011098.460    22011094.620
  22011094.040          48.900          45.950
 109022094.212 7  84794976.078 6                  20401997.160    20402000.660
  20401998.860          47.100          41.150
 107421623.620 8  83550201.682 7                  20074278.800    20074280.720
  20074280.000          48.750          47.450
 103264567.446 8  80316921.851 7                  19372163.960    19372170.560
  19372169.140          48.850          42.300
 128858535.768 7 100223319.518 6                  24063421.840    24063424.300
  24063423.440          42.950          37.600
 127124480.047 7  98874620.740 6                  23814694.900    23814698.780
  23814697.740          44.550          38.000
 125264377.270 7  97427971.827 6                  23416804.720    23416805.840
  23416804.500          44.600          39.800
 121456943.360 7  94466500.783 5                  22744969.040    22744973.060
  22744970.560          45.150          32.850
 105968845.621 7  82420363.884 7                  19816661.060    19816665.200
  19816662.980          44.550          46.850
 129842632.817 8                  96960539.857 8  24708179.720
                        50.350


 122127644.195 8                  91199323.529 8  23240063.880
                        50.300
 15  1 27  1  1 15.0000000  0 21G31G08G21G25G05G16G18G23G27G29R11R21
                                R10R04R22R19R09R20E12E18E11
 111068909.096 8  86547212.310 8                  21135705.000    21135700.600
  21135699.660          50.200          48.150
 110214553.456 8  85881451.35947                  20973129.400
  20973125.220          49.850          46.200
 111587155.964 8  86951087.73047                  21234299.420
  21234293.840          48.350          46.550
 122096735.182 7  95140484.788 7  91176291.536 8  23234155.360    23234154.100
  23234153.220          47.400          43.350
 131973981.012 7 102836875.966 6                  25113809.220    25113806.800
  25113806.400          43.150          39.200
 121890399.809 7  94979531.62046                  23194970.960
  23194965.660          47.950          39.750
 131679851.127 7 102607667.11044                  25057836.140
  25057831.500          42.700          29.950
 134062362.560 7 104464153.03745                  25511220.900
  25511213.540          42.950          34.950
 128348335.388 7 100011695.903 7  95844535.529 7  24423873.780    24423873.620
  24423873.200          44.150          42.450
 115681722.609 8  90141741.104 7                  22013437.520    22013433.680
  22013433.140          49.050          46.100
 109008994.829 7  84784787.671 6                  20399545.800    20399549.280
  20399547.460          46.800          41.150
 107414007.589 8  83544278.106 7                  20072855.540    20072857.520
  20072856.780          48.550          47.300
 103272390.311 8  80323006.289 7                  19373631.520    19373638.060
  19373636.700          48.900          42.200
 128850602.033 7 100217148.830 6                  24061940.200    24061942.680
  24061941.880          42.550          38.550
 127106924.858 7  98860966.706 6                  23811406.220    23811410.000
  23811409.040          44.700          38.650
 125282895.472 7  97442374.848 6                  23420266.440    23420267.620
  23420266.320          44.700          39.950
 121477887.724 7  94482790.829 5                  22748891.300    22748895.440
  22748892.820          45.400          32.700
 105978070.934 7  82427539.121 7                  19818386.220    19818390.400
  19818388.160          44.600          47.000
 129852019.616 8                  96967549.472 8  24709965.880
                        50.200


 122126488.258 8                  91198460.326 8  23239843.900
                        50.300
 15  1 27  1  1 20.0000000  0 21G31G08G21G25G05G16G18G23G27G29R11R21
                                R10R04R22R19R09R20E12E18E11
 111077425.390 8  86553848.388 8                  21137325.600    21137321.200
  21137320.260          50.150          48.300
 110208590.533 8  85876804.92747                  20971994.680
  20971990.500          49.800          46.150
 111582372.408 8  86947360.28947                  21233389.120
  21233383.560          48.300          46.650
 122110510.054 7  95151218.463 7  91186577.960 8  23236776.640    23236775.420
  23236774.500          47.600          43.600
 131976169.813 7 102838581.531 6                  25114225.700    25114223.260
  25114222.860          42.300          39.350
 121876231.942 7  94968491.72246                  23192274.940
  23192269.560          47.950          39.050
 131667305.597 7 102597891.37545                  25055448.860
  25055444.260          43.700          33.100
 134063628.435 7 104465139.41145                  25511461.780
  25511454.320          42.700          31.150
 128334064.509 7 100000575.754 7  95833878.697 7  24421158.140    24421157.920
  24421157.540          44.250          42.300
 115694019.174 8  90151322.837 7                  22015777.480    22015773.640
  22015773.100          49.300          46.150
 108995912.158 7  84774612.270 6                  20397097.560    20397101.040
  20397099.220          47.100          41.050
 107406406.372 8  83538366.060 7                  20071435.040    20071437.080
  20071436.300          48.650          47.250
 103280235.012 8  80329107.723 7                  19375103.180    19375109.720
  19375108.340          49.100          42.250
 128842685.536 7 100210991.562 6                  24060461.780    24060464.300
  24060463.520          43.250          38.950
 127089376.681 7  98847318.161 6                  23808118.840    23808122.640
  23808121.660          44.600          39.700
 125301413.778 7  97456777.984 6                  23423728.140    23423729.460
  23423728.180          44.800          39.900
 121498839.836 7  94499086.906 5                  22752814.960    22752818.840
  22752816.520          45.350          32.000
 105987308.356 7  82434723.780 7                  19820113.740    19820117.860
  19820115.640          45.000          47.100
 129861411.339 8                  96974562.762 8  24711753.000
                        50.200


 122125341.075 8                  91197603.669 8  23239625.580
                        50.400
 15  1 27  1  1 25.0000000  0 21G31G08G21G25G05G16G18G23G27G29R11R21
                                R10R04R22R19R09R20E12E18E11
 111085955.745 8  86560495.417 8                  21138948.860    21138944.480
  21138943.540          50.350          48.250
 110202644.574 8  85872171.71647                  20970863.180
  20970859.020          49.900          46.050
 111577601.957 8  86943643.06047                  21232481.320
  21232475.760          48.500          46.650
 122124290.951 8  95161956.818 7  91196868.890 8  23239399.060    23239397.840
  23239396.940          48.000          43.750
 131978373.244 7 102840298.495 6                  25114644.940    25114642.560
  25114642.060          42.700          39.350
 121862066.465 8  94957453.68446                  23189579.360
  23189573.960          48.300          39.450
 131654757.544 7 102588113.71045                  25053061.040
  25053056.440          44.000          31.100
 134064907.484 7 104466136.08545                  25511705.200
  25511697.780          42.250          34.400
 128319797.447 7  99989458.543 7  95823224.705 7  24418443.180    24418442.960
  24418442.620          44.600          42.800
 115706319.431 8  90160907.450 7                  22018118.120    22018114.300
  22018113.740          49.700          46.000
 108982845.200 7  84764449.073 6                  20394652.260    20394655.720
  20394653.900          46.350          41.300
 107398819.194 7  83532464.923 7                  20070017.200    20070019.260
  20070018.440          47.750          47.250
 103288100.809 8  80335225.570 7                  19376578.780    19376585.320
  19376583.940          48.350          42.400
 128834785.462 7 100204847.063 6                  24058986.500    24058988.960
  24058988.280          42.550          39.200
 127071834.591 7  98833674.349 6                  23804832.600    23804836.420
  23804835.420          42.550          39.650
 125319931.448 7  97471180.624 6                  23427189.860    23427191.240
  23427189.880          43.600          40.000
 121519798.909 7  94515388.409 5                  22756739.960    22756743.820
  22756741.420          44.050          32.050
 105996557.035 7  82441917.197 7                  19821843.340    19821847.400
  19821845.200          43.650          47.150
 129870807.082 8                  96981579.058 8  24713540.880
                        50.400


 122124201.763 8                  91196752.880 8  23239408.760
                        50.600
 15  1 27  1  1 30.0000000  0 21G31G08G21G25G05G16G18G23G27G29R11R21
                                R10R04R22R19R09R20E12E18E11
 111094500.049 8  86567153.315 8                  21140574.780    21140570.400
  21140569.460          50.000          48.300
 110196715.525 8  85867551.67447                  20969734.900
  20969730.760          49.750          46.300
 111572844.500 8  86939935.95047                  21231576.000
  21231570.460          48.300          46.200
 122138077.765 7  95172699.786 7  91207164.238 8  23242022.600    23242021.380
  23242020.460          47.550          43.650
 131980591.184 7 102842026.770 6                  25115067.000    25115064.700
  25115064.180          43.600          38.600
 121847903.315 8  94946417.45546                  23186884.240
  23186878.800          48.100          39.650
 131642206.888 7 102578333.97045                  25050672.740
  25050668.300          44.200          33.750
 134066199.747 7 104467143.03545                  25511951.120
  25511943.680          42.350          32.200
 128305534.086 7  99978344.231 7  95812573.499 7  24415728.960    24415728.800
  24415728.440          44.200          42.750
 115718623.290 8  90170494.867 7                  22020459.480    22020455.640
  22020455.080          49.650          45.850
 108969794.025 7  84754298.163 6                  20392209.920    20392213.340
  20392211.540          47.200          41.500
 107391245.831 8  83526574.525 7                  20068601.940    20068604.000
  20068603.160          48.650          47.350
 103295987.603 8  80341359.732 7                  19378058.320    19378064.840
  19378063.460          49.150          42.250
 128826901.542 7 100198715.129 6                  24057514.180    24057516.660
  24057516.060          43.200          38.750
 127054298.499 7  98820035.168 6                  23801547.480    23801551.340
  23801550.360          43.450          39.400
 125338448.150 7  97485582.486 6                  23430651.300    23430652.800
  23430651.440          44.350          39.600
 121540764.675 7  94531695.095 5                  22760666.120    22760669.960
  22760667.600          44.800          31.700
 106005816.809 7  82449119.233 7                  19823575.000    19823579.000
  19823576.840          44.550          47.000
 129880206.767 8                  96988598.295 8  24715329.500
                        50.200


 122123070.235 8                  91195907.912 8  23239193.440
                        50.550
 15  1 27  1  1 35.0000000  0 21G31G08G21G25G05G16G18G23G27G29R11R21
                                R10R04R22R19R09R20E12E18E11
 111103057.443 8  86573821.414 8                  21142203.220    21142198.820
  21142197.900          49.950          48.250
 110190802.496 8  85862944.12547                  20968609.680
  20968605.540          49.700          46.100
 111568099.195 8  86936238.31247                  21230672.980
  21230667.460          48.250          46.300
 122151869.658 7  95183446.712 7  91217463.365 8  23244647.100    23244645.860
  23244644.980          47.350          43.600
 131982822.785 7 102843765.688 6                  25115491.660    25115489.260
  25115488.800          43.400          38.950
 121833741.596 7  94935382.35146                  23184189.360
  23184183.900          47.800          40.250
 131629652.721 7 102568551.49845                  25048283.800
  25048279.420          44.200          31.000
 134067504.396 7 104468159.61445                  25512199.380
  25512191.940          42.400          31.850
 128291273.546 7  99967232.122 7  95801924.403 7  24413015.260    24413015.140
  24413014.740          44.400          42.850
 115730929.874 8  90180084.417 7                  22022801.340    22022797.480
  22022796.940          49.700          45.900
 108956757.700 7  84744158.795 6                  20389770.340    20389773.760
  20389771.960          47.250          41.400
 107383685.465 8  83520694.247 7                  20067189.100    20067191.160
  20067190.300          48.600          47.450
 103303894.419 8  80347509.472 7                  19379541.620    19379548.160
  19379546.780          49.200          42.450
 128819033.116 7 100192595.247 6                  24056044.840    24056047.220
  24056046.680          43.300          38.500
 127036767.710 7  98806400.091 6                  23798263.360    23798267.340
  23798266.300          44.100          39.700
 125356963.239 7  97499983.115 6                  23434112.500    23434113.980
  23434112.680          44.850          40.350
 121561736.313 7  94548006.365 5                  22764593.380    22764597.100
  22764594.840          45.050          30.950
 106015086.845 7  82456329.276 7                  19825308.520    19825312.560
  19825310.380          43.950          46.750
 129889609.502 8                  96995619.824 8  24717118.740
                        50.300


 122121945.631 8                  91195068.113 8  23238979.420
                        50.450
 15  1 27  1  1 40.0000000  0 21G31G08G21G25G05G16G18G23G27G29R11R21
                                R10R04R22R19R09R20E12E18E11
 111111629.179 8  86580500.690 8                  21143834.360    21143829.960
  21143829.040          50.000          48.300
 110184906.751 8  85858350.04247                  20967487.740
  20967483.640          49.750          46.350
 111563367.343 8  86932551.15947                  21229772.500
  21229767.020          48.350          46.350
 122165667.839 7  95194198.537 7  91227767.200 8  23247272.820    23247271.580
  23247270.720          47.250          43.750
 131985069.299 7 102845516.231 6                  25115919.160    25115916.760
  25115916.160          43.850          39.100
 121819582.583 7  94924349.36246                  23181495.040
  23181489.540          47.750          39.900
 131617096.308 7 102558767.28445                  25045894.420
  25045890.140          43.600          31.350
 134068822.630 7 104469186.81845                  25512450.200
  25512442.860          42.300          34.300
 128277017.086 7  99956123.199 7  95791278.346 7  24410302.380    24410302.220
  24410301.800          44.600          42.800
 115743240.438 8  90189677.066 7                  22025143.980    22025140.120
  22025139.560          49.600          45.800
 108943737.441 7  84734031.931 6                  20387333.800    20387337.180
  20387335.400          47.150          41.300
 107376139.379 8  83514825.080 7                  20065778.940    20065781.000
  20065780.120          48.450          47.250
 103311822.629 8  80353675.855 7                  19381028.920    19381035.480
  19381034.080          49.200          42.550
 128811181.422 7 100186488.373 6                  24054578.640    24054580.920
  24054580.420          43.300          38.750
 127019243.265 7  98792770.001 6                  23794980.480    23794984.360
  23794983.420          45.100          39.650
 125375477.945 7  97514383.424 6                  23437573.580    23437575.100
  23437573.920          44.300          39.300
 121582715.125 7  94564323.241 5                  22768522.080    22768525.760
  22768523.480          45.500          32.250
 106024368.362 7  82463548.219 7                  19827044.220    19827048.240
  19827046.040          44.750          46.650
 129899016.567 8                  97002644.567 8  24718908.860
                        50.450


 122120829.176 8                  91194234.396 8  23238766.940
                        50.450
 15  1 27  1  1 45.0000000  0 21G31G08G21G25G05G16G18G23G27G29R11R21
                                R10R04R22R19R09R20E12E18E11
 111120214.787 8  86587190.777 8                  21145468.140    21145463.740
  21145462.840          50.000          48.250
 110179027.858 8  85853769.08947                  20966369.000
  20966364.960          49.750          46.050
 111558648.490 8  86928874.13247                  21228874.520
  21228869.060          48.400          46.150
 122179471.898 7  95204954.948 7  91238075.437 8  23249899.620    23249898.420
  23249897.560          47.100          43.750
 131987330.289 7 102847278.043 6                  25116349.440    25116346.980
  25116346.320          43.850          39.300
 121805425.878 8  94913318.17446                  23178801.140
  23178795.640          48.100          38.850
 131604537.275 7 102548981.04544                  25043504.540
  25043500.100          43.400          29.300
 134070153.970 7 104470224.23145                  25512703.520
  25512696.260          42.250          31.150
 128262764.295 7  99945017.128 7  95780635.031 8  24407590.180    24407590.000
  24407589.600          44.800          42.350
 115755554.523 8  90199272.451 7                  22027487.280    22027483.420
  22027482.840          49.650          45.700
 108930732.830 7  84723917.234 6                  20384900.200    20384903.540
  20384901.740          47.000          41.400
 107368607.070 8  83508966.628 7                  20064371.340    20064373.360
  20064372.500          48.600          47.150
 103319771.764 8  80359858.516 7                  19382520.180    19382526.680
  19382525.300          49.100          42.550
 128803345.972 7 100180394.155 6                  24053115.360    24053117.660
  24053117.120          43.100          38.200
 127001724.802 7  98779144.555 6                  23791698.660    23791702.500
  23791701.640          45.050          39.800
 125393991.600 7  97528782.912 6                  23441034.520    23441036.080
  23441034.920          44.650          39.200
 121603700.569 7  94580645.272 5                  22772452.060    22772455.700
  22772453.480          45.100          33.150
 106033660.943 7  82470775.788 7                  19828782.000    19828785.980
  19828783.760          44.350          46.700
 129908427.469 8                  97009672.196 8  24720699.740
                        50.600


 122119720.445 8                  91193406.457 8  23238555.960
                        50.400
 15  1 27  1  1 50.0000000  0 21G31G08G21G25G05G16G18G23G27G29R11R21
                                R10R04R22R19R09R20E12E18E11
 111128813.113 8  86593890.767 8                  21147104.360    21147099.960
  21147099.060          50.000          48.350
 110173164.689 8  85849200.38247                  20965253.240
  20965249.240          49.900          46.250
 111553941.441 8  86925206.30447                  21227978.760
  21227973.340          48.350          46.550
 122193280.652 7  95215715.006 7  91248387.161 8  23252527.320    23252526.140
  23252525.260          47.100          43.800
 131989604.613 7 102849050.239 6                  25116782.240    25116779.760
  25116779.140          44.050          39.300
 121791270.283 8  94902287.83846                  23176107.460
  23176101.960          48.450          38.950
 131591974.445 7 102539191.83345                  25041113.880
  25041109.480          42.850          30.850
 134071497.343 7 104471271.03245                  25512959.080
  25512951.900          42.000          30.850
 128248514.000 7  99933912.989 7  95769993.565 8  24404878.440    24404878.240
  24404877.860          43.950          42.950
 115767870.968 8  90208869.675 7                  22029831.060    22029827.160
  22029826.560          49.800          45.750
 108917742.742 7  84713813.829 6                  20382469.260    20382472.660
  20382470.820          46.950          41.200
 107361087.414 8  83503118.010 7                  20062966.120    20062968.140
  20062967.240          48.600          47.100
 103327740.536 8  80366056.452 7                  19384015.140    19384021.580
  19384020.200          49.000          42.400
 128795525.599 7 100174311.622 6                  24051654.940    24051657.260
  24051656.640          43.100          37.750
 126984211.125 7  98765522.832 6                  23788417.820    23788421.580
  23788420.760          45.400          39.350
 125412503.263 7  97543180.891 6                  23444495.100    23444496.640
  23444495.520          44.600          39.450
 121624691.548 7  94596971.554 5                  22776382.920    22776386.720
  22776384.540          42.900          32.600
 106042963.323 7  82478010.963 7                  19830521.620    19830525.540
  19830523.300          44.700          46.700
 129917841.063 8                  97016701.826 8  24722491.140
                        50.700


 122118618.280 8                  91192583.398 8  23238346.240
                        50.450
 15  1 27  1  1 55.0000000  0 21G31G08G21G25G05G16G18G23G27G29R11R21
                                R10R04R22R19R09R20E12E18E11
 111137426.148 8  86600602.221 8                  21148743.360    21148738.980
  21148738.100          49.850          48.450
 110167319.195 8  85844645.45547                  20964140.880
  20964136.900          49.750          46.150
 111549248.190 8  86921549.22547                  21227085.660
  21227080.240          48.200          46.550
 122207096.090 7  95226480.283 7  91258703.878 8  23255156.300    23255155.140
  23255154.260          47.000          43.900
