     2.11           OBSERVATION DATA    M (MIXED)           RINEX VERSION / TYPE
teqc  2011Oct11     IGN-E (SPG)         20150127 05:01:31UTCPGM / RUN BY / DATE
Linux 2.4.21-27.ELsmp|Opteron|gcc -static|Linux x86_64|=+   COMMENT
BIT 2 OF LLI FLAGS DATA COLLECTED UNDER A/S CONDITION       COMMENT
VALE                                                        MARKER NAME
13439M001                                                   MARKER NUMBER
Programas GeodesicosInstituto Geografico Nacional           OBSERVER / AGENCY
1700071             LEICA GR10          3.03/6.214          REC # / TYPE / VERS
10190012            LEIAR25.R3      LEIT                    ANT # / TYPE
  4929534.0457   -29050.6755  4033709.9250                  APPROX POSITION XYZ
        3.0390        0.0000        0.0000                  ANTENNA: DELTA H/E/N
     1     1                                                WAVELENGTH FACT L1/2
     8    L1    L2    L5    C1    C2    P2    S1    S2      # / TYPES OF OBSERV
     5.0000                                                 INTERVAL
Forced Modulo Decimation to 5 seconds                       COMMENT
DefaultJobName                                              COMMENT
DefaultUserDiscription                                      COMMENT
Project creator:                                            COMMENT
 SNR is mapped to RINEX snr flag value [0-9]                COMMENT
  L1 & L2: min(max(int(snr_dBHz/6), 0), 9)                  COMMENT
  2015     1    27     4     0    0.0000000     GPS         TIME OF FIRST OBS
    15                                                      LEAP SECONDS
                                                            END OF HEADER
 15  1 27  4  0  0.0000000  0 23G11G08G21G07G04G16G18G22G27G19G30R11
                                R05R21R08R07R22R12R06R13R23E18E11
 130223431.145 7 101472788.48645                  24780694.060
  24780689.180          45.800          34.100
 131353802.055 6 102353574.19146                  24995809.060
  24995807.740          40.900          36.450
 125338672.276 7  97666554.16946                  23851126.820
  23851121.580          46.400          38.150
 126541077.779 7  98603402.414 6                  24079966.820    24079963.380
  24079962.820          46.900          41.350
 121858281.424 8  94954514.21146                  23188851.600
  23188848.480          48.050          37.900
 109026348.658 8  84955596.96547                  20747022.160
  20747017.280          50.200          47.750
 116654547.156 8  90899642.52847                  22198613.060
  22198606.960          50.600          42.750
 111727989.469 8  87060780.08347                  21261115.420
  21261108.260          50.950          46.650
 107781584.721 8  83985661.660 8  80486254.079 8  20510147.720    20510145.500
  20510144.840          50.850          50.400
 113866389.002 8  88727036.27447                  21668047.280
  21668040.860          49.900          46.300
 133944681.340 6 104372472.075 6 100023615.911 7  25488827.820    25488825.780
  25488825.060          40.550          36.100
 125084870.177 7  97288241.788 5                  23407930.400    23407934.380
  23407932.420          42.550          34.650
 129370978.517 7 100621894.292 6                  24201512.740    24201515.120
  24201514.440          43.650          38.800
 114424899.558 7  88997193.948 7                  21383008.760    21383010.000
  21383008.940          47.650          43.000
 130691258.115 6 101648766.197 5                  24405666.260    24405670.140
  24405668.640          41.150          33.700
 114431111.513 8  89002004.576 7                  21376686.760    21376689.220
  21376688.540          48.350          45.650
 106583692.186 8  82898458.905 7                  19966708.040    19966710.680
  19966709.700          48.350          47.050
 111966333.847 7  87084939.903 7                  20960332.300    20960336.140
  20960335.340          43.550          43.750
 112554030.068 8  87542013.585 7                  21092572.980    21092574.460
  21092574.060          49.150          42.650
 119099598.511 7  92633024.540 7                  22303526.440    22303530.760
  22303528.740          43.100          42.750
 122990058.437 7  95658954.184 6                  22991691.660    22991695.000
  22991694.800          46.100          41.900
 151963752.290 8                 113479458.852 7  28917738.220
                        49.350
 131239115.417 8                  98003343.604 8  24973919.540
                        51.650
 15  1 27  4  0  5.0000000  0 23G11G08G21G07G04G16G18G22G27G19G30R11
                                R05R21R08R07R22R12R06R13R23E18E11
 130207173.891 7 101460120.50345                  24777600.420
  24777595.500          43.850          34.050
 131371173.313 6 102367110.07545                  24999114.780
  24999113.520          39.300          30.700
 125351458.271 7  97676517.28046                  23853559.900
  23853554.680          45.600          38.650
 126540625.389 7  98603049.898 6                  24079880.760    24079877.340
  24079876.720          46.100          41.350
 121842754.654 7  94942415.44646                  23185896.960
  23185893.840          47.300          38.850
 109033818.739 8  84961417.80547                  20748443.660
  20748438.800          49.600          47.900
 116659567.068 8  90903554.14647                  22199568.340
  22199562.200          50.100          42.700
 111721557.114 8  87055767.85847                  21259891.420
  21259884.240          50.300          47.300
 107777927.757 8  83982812.082 8  80483523.230 8  20509451.800    20509449.600
  20509448.960          50.050          50.400
 113856595.852 8  88719405.25647                  21666183.740
  21666177.320          49.450          46.800
 133937147.774 6 104366601.757 5 100017990.125 7  25487394.160    25487392.220
  25487391.300          38.950          35.950
 125106519.392 7  97305080.069 5                  23411981.780    23411985.780
  23411983.760          42.500          34.550
 129388109.061 7 100635218.084 6                  24204717.340    24204719.740
  24204719.080          44.050          39.650
 114434986.098 7  89005039.046 7                  21384893.620    21384894.860
  21384893.800          47.550          43.200
 130669320.494 7 101631703.707 5                  24401569.360    24401573.400
  24401571.900          42.000          34.150
 114414852.461 8  88989358.643 7                  21373649.440    21373651.880
  21373651.200          49.050          45.800
 106581745.446 8  82896944.772 7                  19966343.320    19966346.020
  19966345.020          48.700          47.200
 111977127.476 7  87093334.944 7                  20962352.860    20962356.740
  20962355.940          44.150          43.800
 112555501.787 8  87543158.243 7                  21092848.740    21092850.240
  21092849.820          49.650          43.150
 119091186.713 7  92626482.041 7                  22301951.200    22301955.480
  22301953.480          44.100          42.900
 122977141.485 7  95648907.680 6                  22989276.960    22989280.320
  22989280.100          46.850          41.550
 151982550.663 8                 113493496.600 7  28921315.440
                        48.700
 131246590.424 8                  98008925.579 8  24975342.080
                        51.000
 15  1 27  4  0 10.0000000  0 23G11G08G21G07G04G16G18G22G27G19G30R11
                                R05R21R08R07R22R12R06R13R23E18E11
 130190922.087 7 101447456.76145                  24774507.800
  24774502.840          44.200          34.800
 131388544.526 6 102380645.94845                  25002420.500
  25002419.320          38.100          34.250
 125364248.707 7  97686483.86146                  23855993.860
  23855988.580          45.600          39.250
 126540191.184 7  98602711.553 6                  24079798.180    24079794.720
  24079794.120          46.250          41.650
 121827237.086 7  94930323.84646                  23182944.060
  23182940.940          47.250          38.700
 109041306.486 8  84967252.41648                  20749868.540
  20749863.660          49.550          48.450
 116664603.342 8  90907478.51747                  22200526.780
  22200520.600          50.300          42.550
 111715141.704 8  87050768.84147                  21258670.640
  21258663.440          50.400          47.250
 107774281.524 8  83979970.866 8  80480800.396 8  20508757.920    20508755.740
  20508755.100          50.100          50.400
 113846811.168 8  88711780.83347                  21664321.820
  21664315.340          49.650          46.450
 133929630.382 6 104360744.039 5 100012376.504 7  25485963.540    25485961.680
  25485960.860          38.600          35.000
 125128172.591 7  97321921.435 5                  23416033.920    23416037.860
  23416035.880          42.600          34.450
 129405254.321 7 100648553.270 6                  24207924.680    24207927.160
  24207926.480          44.750          38.000
 114445080.017 7  89012889.874 7                  21386779.860    21386781.100
  21386780.040          47.550          43.000
 130647382.634 7 101614640.994 5                  24397472.460    24397476.460
  24397475.080          42.800          34.850
 114398610.151 8  88976725.749 7                  21370615.260    21370617.680
  21370617.000          49.050          45.650
 106579808.173 8  82895438.008 7                  19965980.360    19965983.100
  19965982.100          48.350          47.150
 111987943.495 7  87101747.397 7                  20964377.600    20964381.480
  20964380.760          44.550          43.650
 112556999.082 8  87544322.823 7                  21093129.320    21093130.760
  21093130.380          49.600          42.900
 119082798.814 7  92619958.116 7                  22300380.380    22300384.640
  22300382.680          44.150          42.750
 122964229.558 7  95638865.072 6                  22986863.180    22986866.540
  22986866.300          46.950          41.350
 152001344.764 8                 113507531.148 7  28924891.900
                        48.800
 131254070.625 8                  98014511.446 8  24976765.600
                        51.150
 15  1 27  4  0 15.0000000  0 23G11G08G21G07G04G16G18G22G27G19G30R11
                                R05R21R08R07R22R12R06R13R23E18E11
 130174669.390 7 101434792.33045                  24771415.020
  24771410.120          44.550          34.900
 131405909.265 6 102394176.74046                  25005725.040
  25005724.020          38.850          38.000
 125377037.237 7  97696448.95746                  23858427.440
  23858422.100          45.550          38.800
 126539768.808 7  98602382.420 6                  24079717.860    24079714.340
  24079713.720          45.950          41.400
 121811722.288 7  94918234.39146                  23179991.720
  23179988.600          47.250          39.700
 109048805.401 8  84973095.71748                  20751295.540
  20751290.660          49.550          48.200
 116669649.647 8  90911410.70347                  22201487.120
  22201480.940          50.250          43.300
 111708736.890 8  87045778.07947                  21257451.860
  21257444.640          50.350          47.350
 107770639.661 8  83977133.048 8  80478080.829 8  20508064.900    20508062.720
  20508062.080          50.200          50.500
 113837028.586 8  88704158.04247                  21662460.280
  21662453.780          49.600          46.600
 133922122.863 6 104354894.047 5 100006770.310 7  25484534.780    25484532.960
  25484532.360          38.250          34.350
 125149823.276 6  97338760.842 5                  23420085.580    23420089.500
  23420087.520          41.700          34.600
 129422407.952 7 100661895.035 6                  24211133.600    24211136.080
  24211135.420          43.650          38.550
 114455174.738 7  89020741.320 7                  21388666.220    21388667.500
  21388666.420          47.550          43.250
 130625438.129 7 101597573.127 5                  24393374.400    24393378.360
  24393377.000          42.350          35.600
 114382377.663 8  88964100.481 7                  21367582.920    21367585.300
  21367584.640          49.100          45.750
 106577873.985 8  82893933.636 7                  19965617.980    19965620.780
  19965619.760          48.300          47.250
 111998775.267 7  87110172.111 7                  20966405.260    20966409.200
  20966408.540          44.400          43.750
 112558515.521 8  87545502.277 7                  21093413.480    21093414.920
  21093414.560          49.400          42.950
 119074428.208 7  92613447.653 7                  22298812.840    22298817.080
  22298815.120          44.450          42.400
 122951316.109 7  95628821.262 6                  22984449.160    22984452.500
  22984452.180          46.750          40.850
 152020128.248 8                 113521557.801 7  28928466.300
                        48.850
 131261549.649 8                  98020096.424 8  24978188.920
                        51.250
 15  1 27  4  0 20.0000000  0 23G11G08G21G07G04G16G18G22G27G19G30R11
                                R05R21R08R07R22R12R06R13R23E18E11
 130158419.924 7 101422130.38645                  24768322.880
  24768318.040          44.000          33.400
 131423271.611 6 102407705.65045                  25009029.100
  25009028.140          38.700          35.600
 125389827.907 7  97706415.71646                  23860861.380
  23860856.000          45.000          37.950
 126539362.376 7  98602065.691 6                  24079640.540    24079636.980
  24079636.360          45.700          40.950
 121796214.413 7  94906150.33246                  23177040.680
  23177037.540          47.450          39.300
 109056319.668 8  84978950.98648                  20752725.480
  20752720.580          49.650          48.150
 116674710.039 8  90915353.86347                  22202450.140
  22202443.960          50.250          42.900
 111702346.767 8  87040798.76147                  21256235.880
  21256228.660          50.400          47.200
 107767006.233 8  83974301.803 8  80475367.548 8  20507373.480    20507371.300
  20507370.660          50.400          50.450
 113827252.181 8  88696540.06647                  21660599.920
  21660593.360          49.650          46.400
 133914629.442 6 104349055.050 5 100001174.545 7  25483108.740    25483107.000
  25483106.580          39.050          34.400
 125171475.551 6  97355601.490 5                  23424137.500    23424141.380
  23424139.440          41.600          34.250
 129439573.996 7 100675246.384 6                  24214344.820    24214347.340
  24214346.760          43.650          38.400
 114465274.479 7  89028596.670 7                  21390553.520    21390554.840
  21390553.800          47.600          43.450
 130603491.078 6 101580503.296 5                  24389275.800    24389279.860
  24389278.540          41.700          35.400
 114366159.613 8  88951486.440 7                  21364553.300    21364555.640
  21364554.940          48.950          45.700
 106575946.940 8  82892434.819 7                  19965256.940    19965259.780
  19965258.760          48.300          47.300
 112009627.085 7  87118612.405 7                  20968436.720    20968440.660
  20968440.060          44.050          43.800
 112560055.250 8  87546699.840 7                  21093702.020    21093703.440
  21093703.100          49.400          43.150
 119066079.168 7  92606953.934 7                  22297249.360    22297253.560
  22297251.600          43.550          42.550
 122938405.169 7  95618779.422 6                  22982035.580    22982038.860
  22982038.520          46.950          41.000
 152038905.188 8                 113535579.526 7  28932039.480
                        49.000
 131269031.556 8                  98025683.560 8  24979612.760
                        51.300
 15  1 27  4  0 25.0000000  0 23G11G08G21G07G04G16G18G22G27G19G30R11
                                R05R21R08R07R22R12R06R13R23E18E11
 130142174.726 7 101409471.78345                  24765231.500
  24765226.700          43.350          35.050
 131440632.735 6 102421233.58945                  25012332.880
  25012332.060          40.000          35.600
 125402621.840 7  97716384.99846                  23863295.920
  23863290.600          44.900          37.900
 126538972.959 7  98601762.243 6                  24079566.480    24079562.840
  24079562.220          45.600          40.700
 121780714.530 7  94894072.51246                  23174091.160
  23174088.040          47.450          38.300
 109063850.457 8  84984819.13248                  20754158.560
  20754153.640          49.700          48.100
 116679785.717 8  90919308.93747                  22203416.060
  22203409.880          50.350          43.150
 111695972.469 8  87035831.77447                  21255022.920
  21255015.680          50.500          47.200
 107763382.389 8  83971478.033 8  80472661.433 8  20506683.880    20506681.700
  20506681.080          50.600          50.450
 113817483.109 8  88688927.80647                  21658740.960
  21658734.360          49.750          46.500
 133907151.211 6 104343227.833 5  99995590.132 7  25481685.700    25481683.920
  25481683.340          39.850          34.800
 125193130.559 6  97372444.266 5                  23428189.920    23428193.880
  23428191.900          41.750          34.900
 129456753.650 7 100688608.328 6                  24217558.620    24217561.160
  24217560.620          43.100          38.600
 114475380.376 7  89036456.808 7                  21392442.020    21392443.420
  21392442.380          47.700          43.700
 130581542.678 6 101563432.424 5                  24385176.920    24385181.040
  24385179.780          41.950          35.650
 114349956.777 8  88938884.232 7                  21361526.520    21361528.800
  21361528.120          49.100          45.700
 106574028.321 8  82890942.558 7                  19964897.420    19964900.380
  19964899.320          48.450          47.400
 112020500.035 7  87127069.133 7                  20970472.160    20970476.100
  20970475.540          44.150          43.900
 112561619.384 8  87547916.378 7                  21093995.140    21093996.540
  21093996.220          49.600          42.900
 119057752.906 7  92600477.973 7                  22295690.080    22295694.320
  22295692.380          43.200          42.450
 122925498.158 7  95608740.636 6                  22979622.720    22979625.960
  22979625.620          46.700          41.400
 152057676.742 8                 113549597.239 7  28935611.620
                        49.100
 131276517.512 8                  98031273.718 8  24981037.360
                        51.250
 15  1 27  4  0 30.0000000  0 23G11G08G21G07G04G16G18G22G27G19G30R11
                                R05R21R08R07R22R12R06R13R23E18E11
 130125928.991 7 101396812.78045                  24762139.960
  24762135.200          42.850          35.150
 131457987.707 6 102434756.77245                  25015635.560
  25015634.840          40.550          35.100
 125415414.220 7  97726353.08546                  23865730.160
  23865724.880          44.800          38.550
 126538595.742 7  98601468.312 6                  24079494.700    24079491.040
  24079490.420          46.400          41.250
 121765217.833 7  94881997.16846                  23171142.260
  23171139.100          47.600          38.950
 109071392.912 8  84990696.37448                  20755593.840
  20755588.920          49.700          48.050
 116684871.798 8  90923272.12147                  22204383.940
  22204377.800          50.300          42.900
 111689609.137 8  87030873.33447                  21253812.040
  21253804.780          50.300          47.350
 107759763.315 8  83968657.981 8  80469958.883 8  20505995.200    20505993.020
  20505992.400          50.700          50.450
 113807716.536 8  88681317.49247                  21656882.480
  21656875.840          49.800          46.550
 133899683.291 6 104337408.658 5  99990013.411 7  25480264.620    25480262.700
  25480262.200          40.350          35.500
 125214783.427 7  97389285.356 5                  23432241.960    23432245.940
  23432244.000          42.250          35.200
 129473942.030 7 100701977.102 6                  24220774.060    24220776.700
  24220776.120          43.100          38.900
 114485487.507 8  89044317.891 7                  21394330.760    21394332.180
  21394331.200          48.100          43.150
 130559588.084 7 101546356.721 6                  24381077.000    24381081.120
  24381079.860          42.400          36.450
 114333764.483 8  88926290.238 7                  21358501.680    21358503.920
  21358503.240          49.150          45.400
 106572113.041 8  82889452.906 7                  19964538.580    19964541.600
  19964540.520          48.500          47.250
 112031389.063 7  87135538.384 7                  20972510.540    20972514.580
  20972514.040          44.150          43.850
 112563202.965 8  87549148.061 7                  21094291.880    21094293.280
  21094293.000          49.400          43.050
 119049444.297 7  92594015.740 7                  22294134.080    22294138.420
  22294136.460          43.800          42.100
 122912589.925 7  95598700.920 6                  22977209.600    22977212.860
  22977212.520          47.000          40.850
 152076438.049 8                 113563607.312 7  28939181.800
                        49.100
 131284002.663 8                  98036863.295 8  24982461.800
                        51.250
 15  1 27  4  0 35.0000000  0 23G11G08G21G07G04G16G18G22G27G19G30R11
                                R05R21R08R07R22R12R06R13R23E18E11
 130109688.220 7 101384157.66245                  24759049.360
  24759044.740          43.400          33.300
 131475341.981 6 102448279.40145                  25018938.060
  25018937.420          40.100          34.450
 125428210.489 7  97736324.19346                  23868165.160
  23868159.960          45.000          38.250
 126538236.179 7  98601188.146 6                  24079426.300    24079422.600
  24079422.040          46.100          41.400
 121749729.780 7  94869928.56146                  23168195.000
  23168191.780          47.750          37.750
 109078952.457 8  84996586.93048                  20757032.400
  20757027.460          49.650          48.300
 116689973.702 8  90927247.62747                  22205354.840
  22205348.700          50.250          42.900
 111683262.220 8  87025927.69347                  21252604.280
  21252597.000          50.350          47.200
 107756154.443 8  83965845.875 8  80467263.950 8  20505308.460    20505306.260
  20505305.660          50.750          50.350
 113797957.933 8  88673713.38547                  21655025.520
  21655018.820          50.000          46.600
 133892231.120 6 104331601.775 5  99984448.470 7  25478846.520    25478844.520
  25478843.940          41.050          35.700
 125236439.562 7  97406129.013 5                  23436294.660    23436298.600
  23436296.640          42.350          34.550
 129491144.416 7 100715356.733 6                  24223992.080    24223994.780
  24223994.220          43.800          37.850
 114495601.426 7  89052184.285 7                  21396220.800    21396222.180
  21396221.260          47.850          43.350
 130537632.800 7 101529280.476 6                  24376976.920    24376981.060
  24376979.820          42.250          36.350
 114317588.184 8  88913708.662 7                  21355479.800    21355482.000
  21355481.320          49.100          45.450
 106570206.745 8  82887970.248 7                  19964181.420    19964184.480
  19964183.400          48.800          47.600
 112042299.884 7  87144024.574 7                  20974553.060    20974557.100
  20974556.620          44.200          43.800
 112564811.723 8  87550399.329 7                  21094593.360    21094594.780
  21094594.480          49.600          43.250
 119041159.072 7  92587571.683 7                  22292582.520    22292586.820
  22292584.840          44.150          42.400
 122899686.196 7  95588664.682 6                  22974797.380    22974800.560
  22974800.300          47.050          41.000
 152095194.566 8                 113577613.806 7  28942751.100
                        49.200
 131291492.474 8                  98042456.329 8  24983887.120
                        51.100
 15  1 27  4  0 40.0000000  0 23G11G08G21G07G04G16G18G22G27G19G30R11
                                R05R21R08R07R22R12R06R13R23E18E11
 130093448.899 7 101371503.64445                  24755959.040
  24755954.380          43.800          31.200
 131492692.106 6 102461798.80145                  25022239.780
  25022239.220          39.550          35.700
 125441007.199 7  97746295.66046                  23870600.220
  23870595.100          44.700          38.700
 126537890.766 7  98600918.990 6                  24079360.580    24079356.900
  24079356.380          45.850          41.750
 121734246.908 7  94857864.00046                  23165248.740
  23165245.460          47.950          38.550
 109086525.572 8  85002488.05748                  20758473.540
  20758468.540          49.600          48.400
 116695087.934 8  90931232.74247                  22206328.080
  22206321.940          50.150          43.050
 111676928.271 8  87020992.14647                  21251398.980
  21251391.680          50.300          47.350
 107752552.294 8  83963039.008 8  80464574.031 8  20504623.000    20504620.800
  20504620.200          50.650          50.350
 113788203.799 8  88666112.76147                  21653169.400
  21653162.680          50.050          46.300
 133884791.272 6 104325804.475 5  99978892.698 7  25477430.820    25477428.740
  25477428.080          40.200          35.650
 125258095.428 7  97422972.452 5                  23440347.260    23440351.100
  23440349.260          42.300          35.250
 129508357.522 7 100728744.731 6                  24227212.120    24227214.840
  24227214.280          44.100          37.650
 114505718.607 7  89060053.203 7                  21398111.440    21398112.860
  21398111.940          47.700          43.550
 130515673.296 7 101512200.945 6                  24372876.020    24372880.280
  24372879.000          42.250          37.700
 114301424.463 8  88901136.889 7                  21352460.300    21352462.440
  21352461.720          48.850          45.250
 106568305.827 8  82886491.737 7                  19963825.260    19963828.360
  19963827.300          49.000          47.050
 112053228.768 7  87152524.815 7                  20976598.920    20976603.040
  20976602.560          44.350          43.850
 112566441.954 8  87551667.286 7                  21094898.880    21094900.280
  21094900.000          49.600          43.500
 119032893.639 7  92581143.009 7                  22291034.700    22291038.920
  22291036.940          44.200          42.300
 122886783.291 7  95578629.078 6                  22972385.280    22972388.520
  22972388.180          46.950          40.950
 152113942.809 8                 113591614.102 7  28946318.760
                        49.150
 131298983.424 8                  98048050.219 8  24985312.640
                        51.050
 15  1 27  4  0 45.0000000  0 23G11G08G21G07G04G16G18G22G27G19G30R11
                                R05R21R08R07R22R12R06R13R23E18E11
 130077211.817 7 101358851.35845                  24752869.180
  24752864.580          43.750          33.750
 131510038.810 6 102475315.51445                  25025540.820
  25025540.280          40.200          34.700
 125453805.087 7  97756268.04846                  23873035.500
  23873030.480          44.550          37.800
 126537560.300 7  98600661.483 6                  24079297.700    24079294.060
  24079293.600          45.700          41.700
 121718769.967 8  94845804.05246                  23162303.600
  23162300.300          48.000          38.050
 109094113.021 8  85008400.35948                  20759917.400
  20759912.400          49.700          48.100
 116700215.377 8  90935228.15747                  22207303.800
  22207297.680          50.150          43.100
 111670608.066 8  87016067.32047                  21250196.280
  21250188.980          50.350          47.450
 107748957.658 8  83960237.999 8  80461889.736 8  20503938.980    20503936.780
  20503936.160          50.600          50.300
 113778454.912 8  88658516.22247                  21651314.260
  21651307.540          49.950          46.200
 133877364.488 6 104320017.348 6  99973346.727 7  25476017.600    25476015.500
  25476014.700          40.050          36.000
 125279751.791 7  97439816.268 5                  23444400.000    23444403.900
  23444402.040          42.550          35.350
 129525581.974 7 100742141.555 6                  24230434.300    24230437.060
  24230436.480          43.550          38.400
 114515839.769 8  89067925.206 7                  21400002.840    21400004.260
  21400003.400          48.200          44.000
 130493710.356 6 101495118.742 6                  24368774.480    24368778.820
  24368777.600          41.750          38.600
 114285274.118 8  88888575.506 7                  21349443.280    21349445.380
  21349444.620          48.500          45.300
 106566411.128 8  82885018.105 7                  19963470.300    19963473.460
  19963472.380          48.900          47.550
 112064176.672 7  87161039.849 7                  20978648.380    20978652.560
  20978652.060          44.150          44.000
 112568094.561 8  87552952.654 7                  21095208.540    21095209.980
  21095209.740          49.300          43.400
 119024648.920 7  92574730.443 7                  22289490.760    22289494.920
  22289492.960          44.450          42.350
 122873882.009 7  95568594.754 6                  22969973.520    22969976.740
  22969976.420          47.000          41.300
 152132683.561 8                 113605608.831 7  28949884.980
                        48.900
 131306476.332 8                  98053645.574 8  24986738.520
                        50.900
 15  1 27  4  0 50.0000000  0 23G11G08G21G07G04G16G18G22G27G19G30R11
                                R05R21R08R07R22R12R06R13R23E18E11
 130060976.330 7 101346200.33145                  24749779.640
  24749775.100          42.750          33.200
 131527381.452 6 102488829.11045                  25028841.220
  25028840.640          40.700          33.000
 125466603.445 7  97766240.78646                  23875470.860
  23875465.880          44.400          40.050
 126537244.129 7  98600415.109 6                  24079237.540    24079233.920
  24079233.540          46.200          41.950
 121703298.344 8  94833748.24446                  23159359.500
  23159356.140          48.250          38.550
 109101714.207 8  85014323.35647                  20761363.880
  20761358.840          49.950          47.650
 116705355.325 8  90939233.32147                  22208281.900
  22208275.780          50.100          43.000
 111664300.975 8  87011152.70547                  21248996.080
  21248988.780          50.450          47.300
 107745369.888 8  83957442.334 8  80459210.551 8  20503256.260    20503254.040
  20503253.420          50.450          50.350
 113768710.618 8  88650923.27047                  21649459.980
  21649453.260          49.950          46.750
 133869950.159 6 104314239.922 6  99967810.023 7  25474606.720    25474604.660
  25474603.720          40.850          36.100
 125301407.886 7  97456659.875 5                  23448452.640    23448456.540
  23448454.700          42.700          35.000
 129542817.147 7 100755546.670 6                  24233658.480    24233661.260
  24233660.660          43.350          37.750
 114525964.323 8  89075799.851 7                  21401894.900    21401896.240
  21401895.480          48.500          43.950
 130471743.412 6 101478033.457 6                  24364672.200    24364676.720
  24364675.460          41.750          38.000
 114269136.448 8  88876023.987 7                  21346428.640    21346430.700
  21346429.920          48.950          45.250
 106564521.948 8  82883548.733 7                  19963116.360    19963119.540
  19963118.480          48.800          47.200
 112075142.823 7  87169569.084 7                  20980701.220    20980705.500
  20980704.980          44.150          43.950
 112569768.642 8  87554254.721 7                  21095522.240    21095523.720
  21095523.500          49.250          43.400
 119016424.124 7  92568333.380 7                  22287950.620    22287954.680
  22287952.740          44.100          43.000
 122860981.869 7  95558561.317 6                  22967561.960    22967565.220
  22967564.900          47.000          41.700
 152151416.165 8                 113619597.452 7  28953449.660
                        48.950
 131313970.533 8                  98059241.887 8  24988164.620
                        50.900
 15  1 27  4  0 55.0000000  0 23G11G08G21G07G04G16G18G22G27G19G30R11
                                R05R21R08R07R22R12R06R13R23E18E11
 130044742.960 7 101333550.96446                  24746690.500
  24746685.960          42.100          36.250
 131544720.575 6 102502339.91645                  25032140.900
  25032140.240          40.600          34.000
 125479402.830 7  97776214.31646                  23877906.460
  23877901.560          45.000          37.300
 126536942.776 7  98600180.285 6                  24079180.180    24079176.660
  24079176.260          45.950          41.550
 121687832.583 8  94821696.99546                  23156416.480
  23156413.040          48.250          38.750
 109109329.623 8  85020257.43747                  20762813.060
  20762808.000          50.150          47.600
 116710508.300 8  90943248.62447                  22209262.460
  22209256.360          49.900          42.950
 111658007.573 8  87006248.75647                  21247798.480
  21247791.180          50.550          46.900
 107741789.540 8  83954652.447 8  80456536.915 8  20502574.940    20502572.720
  20502572.080          50.550          50.350
 113758971.495 8  88643334.34147                  21647606.700
  21647599.980          50.000          46.900
 133862548.838 6 104308472.640 5  99962283.037 7  25473198.340    25473196.360
  25473195.220          40.550          35.700
 125323064.537 7  97473503.933 5                  23452505.440    23452509.240
  23452507.480          42.950          35.250
 129560063.521 7 100768960.548 6                  24236884.760    24236887.540
  24236886.900          43.200          37.550
 114536092.797 8  89083677.555 7                  21403787.660    21403789.020
  21403788.280          48.950          43.650
 130449772.946 6 101460945.409 6                  24360569.380    24360573.840
  24360572.640          41.600          37.700
 114253012.009 8  88863482.753 7                  21343416.460    21343418.500
  21343417.680          48.750          44.950
 106562638.939 8  82882084.177 7                  19962763.560    19962766.820
  19962765.720          48.350          47.050
 112086127.694 7  87178112.875 7                  20982757.620    20982761.900
  20982761.360          44.400          43.850
 112571465.001 8  87555574.099 7                  21095840.140    21095841.620
  21095841.480          49.450          43.250
 119008219.791 7  92561952.263 7                  22286414.240    22286418.300
  22286416.360          44.600          42.400
 122848083.123 7  95548528.944 6                  22965150.680    22965153.880
  22965153.620          47.050          41.350
 152170141.170 8                 113633580.398 7  28957012.920
                        49.300
 131321466.571 8                  98064839.579 8  24989591.060
                        50.900
 15  1 27  4  1  0.0000000  0 23G11G08G21G07G04G16G18G22G27G19G30R11
                                R05R21R08R07R22R12R06R13R23E18E11
 130028514.123 7 101320905.11745                  24743602.200
  24743597.780          43.100          34.600
 131562058.477 6 102515849.76745                  25035440.380
  25035439.680          41.950          34.050
 125492205.607 7  97786190.50246                  23880342.740
  23880337.880          45.300          37.950
 126536658.639 7  98599958.877 6                  24079126.140    24079122.640
  24079122.260          46.700          40.900
 121672375.027 8  94809652.14546                  23153475.060
  23153471.540          48.300          39.250
 109116961.611 8  85026204.44647                  20764265.400
  20764260.300          50.100          47.450
 116715676.653 8  90947275.91147                  22210245.900
  22210239.900          49.850          42.750
 111651730.197 8  87001357.29647                  21246603.920
  21246596.640          50.550          47.050
 107738218.972 8  83951870.184 8  80453870.576 8  20501895.500    20501893.280
  20501892.620          50.650          50.200
 113749239.873 8  88635751.26347                  21645754.840
  21645748.140          50.050          46.350
 133855162.859 6 104302717.332 6  99956767.526 7  25471792.820    25471790.760
  25471789.840          39.200          36.400
 125344723.903 7  97490350.092 5                  23456558.700    23456562.580
  23456560.820          43.500          35.550
 129577323.639 7 100782385.068 6                  24240113.640    24240116.380
  24240115.740          43.700          37.800
 114546227.588 8  89091560.179 7                  21405681.600    21405683.000
  21405682.240          48.650          43.350
 130427801.556 7 101443856.617 6                  24356466.380    24356470.660
  24356469.620          42.000          38.050
 114236903.240 8  88850953.710 7                  21340407.240    21340409.220
  21340408.360          48.700          45.250
 106560764.437 8  82880626.232 7                  19962412.360    19962415.660
  19962414.560          48.400          47.350
 112097133.736 7  87186673.117 7                  20984817.980    20984822.240
  20984821.740          44.650          43.300
 112573185.937 8  87556912.609 7                  21096162.640    21096164.180
  21096164.060          49.500          43.200
 119000038.391 7  92555588.933 7                  22284882.160    22284886.200
  22284884.260          44.250          42.600
 122835188.408 7  95538499.708 6                  22962740.140    22962743.400
  22962743.080          47.150          41.550
 152188860.910 8                 113647559.427 7  28960575.200
                        49.400
 131328966.810 8                  98070440.399 8  24991018.280
                        50.900
 15  1 27  4  1  5.0000000  0 23G11G08G21G07G04G16G18G22G27G19G30R11
                                R05R21R08R07R22R12R06R13R23E18E11
 130012285.959 7 101308259.80845                  24740514.060
  24740509.820          43.350          31.500
 131579391.271 7 102529355.67445                  25038738.820
  25038738.240          42.550          34.100
 125505007.882 7  97796166.29146                  23882778.900
  23882774.080          45.450          38.150
 126536387.810 7  98599747.835 6                  24079074.660    24079071.120
  24079070.740          46.600          40.900
 121656921.778 8  94797610.65846                  23150534.440
  23150530.920          48.250          38.100
 109124606.345 8  85032161.38447                  20765720.180
  20765715.040          50.050          47.500
 116720856.481 8  90951312.14647                  22211231.520
  22211225.600          49.850          42.600
 111645464.960 8  86996475.29747                  21245411.680
  21245404.400          50.650          46.900
 107734654.287 8  83949092.511 8  80451208.642 8  20501217.160    20501214.940
  20501214.280          50.650          50.200
 113739511.886 8  88628171.01747                  21643903.680
  21643897.000          50.050          46.550
 133847788.418 6 104296970.990 6  99951260.622 7  25470389.500    25470387.480
  25470386.780          39.200          36.050
 125366382.066 7  97507195.310 5                  23460611.720    23460615.640
  23460613.900          43.400          35.350
 129594593.323 7 100795817.058 6                  24243344.280    24243347.020
  24243346.320          43.900          37.250
 114556364.734 8  89099444.632 7                  21407575.980    21407577.380
  21407576.640          48.550          43.150
 130405825.109 6 101426763.898 6                  24352362.400    24352366.700
  24352365.640          39.900          38.550
 114220806.156 8  88838433.766 7                  21337400.200    21337402.100
  21337401.260          48.750          45.200
 106558894.509 7  82879171.842 7                  19962062.040    19962065.400
  19962064.260          47.800          46.800
 112108157.004 7  87195246.770 7                  20986881.560    20986885.800
  20986885.320          44.300          43.200
 112574927.549 8  87558267.196 7                  21096489.020    21096490.560
  21096490.480          49.550          43.250
 118991875.971 7  92549240.397 7                  22283353.620    22283357.680
  22283355.720          45.000          42.400
 122822293.553 7  95528470.379 6                  22960329.600    22960332.880
  22960332.560          47.200          41.250
 152207571.524 8                 113661531.636 7  28964135.720
                        49.350
 131336467.356 8                  98076041.453 8  24992445.540
                        50.950
 15  1 27  4  1 10.0000000  0 23G11G08G21G07G04G16G18G22G27G19G30R11
                                R05R21R08R07R22R12R06R13R23E18E11
 129996060.096 7 101295616.25745                  24737426.380
  24737422.140          42.900          33.350
 131596720.673 6 102542858.88545                  25042036.620
  25042036.040          41.600          35.650
 125517811.492 7  97806143.12446                  23885215.320
  23885210.500          45.900          38.400
 126536131.995 7  98599548.487 6                  24079026.000    24079022.460
  24079022.100          46.700          40.850
 121641474.583 8  94785573.88346                  23147594.980
  23147591.400          48.250          38.600
 109132265.546 8  85038129.58447                  20767177.700
  20767172.500          49.950          47.650
 116726049.502 8  90955358.64847                  22212219.600
  22212213.780          49.600          42.850
 111639213.604 8  86991604.11147                  21244222.080
  21244214.800          50.650          47.000
 107731097.243 8  83946320.787 8  80448552.401 8  20500540.280    20500538.060
  20500537.400          50.650          50.250
 113729789.250 8  88620594.94047                  21642053.540
  21642046.840          50.050          46.550
 133840427.162 6 104291234.905 6  99945763.529 7  25468988.720    25468986.680
  25468985.980          38.950          36.300
 125388040.655 7  97524040.872 5                  23464664.860    23464668.700
  23464667.060          43.800          35.200
 129611874.443 7 100809257.957 6                  24246577.080    24246579.820
  24246579.020          43.400          37.400
 114566506.054 8  89107332.323 7                  21409471.120    21409472.520
  21409471.800          48.400          43.100
 130383845.385 6 101409668.671 6                  24348257.760    24348262.060
  24348261.060          39.000          38.050
 114204722.918 8  88825924.585 7                  21334395.700    21334397.620
  21334396.760          48.650          45.250
 106557030.829 8  82877722.319 7                  19961712.920    19961716.260
  19961715.140          48.200          47.350
 112119199.202 7  87203835.146 7                  20988948.700    20988952.920
  20988952.460          44.000          43.550
 112576691.489 8  87559639.137 7                  21096819.580    21096821.160
  21096821.040          49.350          43.300
 118983734.310 7  92542907.986 7                  22281829.040    22281833.000
  22281831.060          44.550          42.450
 122809400.659 7  95518442.568 6                  22957919.420    22957922.660
  22957922.380          46.950          41.350
 152226274.744 8                 113675498.317 7  28967694.840
                        49.600
 131343969.944 8                  98081644.019 8  24993873.200
                        50.950
 15  1 27  4  1 15.0000000  0 23G11G08G21G07G04G16G18G22G27G19G30R11
                                R05R21R08R07R22R12R06R13R23E18E11
 129979836.335 7 101282974.35546                  24734339.100
  24734334.820          42.800          37.900
 131614046.430 6 102556359.26645                  25045333.760
  25045333.160          40.550          33.600
 125530616.335 7  97816120.91746                  23887652.020
  23887647.180          46.150          38.200
 126535890.988 7  98599360.683 6                  24078980.160    24078976.580
  24078976.220          46.700          41.000
 121626033.294 8  94773541.71446                  23144656.660
  23144653.020          48.350          38.850
 109139938.927 8  85044108.84347                  20768637.920
  20768632.680          49.900          47.750
 116731255.492 8  90959415.26447                  22213210.140
  22213204.420          49.400          42.950
 111632975.900 8  86986743.56547                  21243035.060
  21243027.800          50.550          47.050
 107727547.569 8  83943554.811 8  80445901.675 8  20499864.820    20499862.600
  20499861.920          50.600          50.350
 113720071.707 8  88613022.83247                  21640204.380
  21640197.680          49.900          46.650
 133833078.783 6 104285508.867 5  99940276.137 7  25467590.300    25467588.340
  25467587.480          37.600          35.700
 125409699.510 7  97540886.661 5                  23468718.040    23468721.880
  23468720.260          43.100          35.750
 129629166.691 7 100822707.495 6                  24249811.860    24249814.700
  24249813.880          43.150          37.450
 114576651.259 8  89115223.027 7                  21411367.000    21411368.380
  21411367.640          48.200          43.150
 130361862.193 6 101392570.706 6                  24344152.480    24344156.780
  24344155.840          39.650          38.500
 114188652.634 8  88813425.480 7                  21331393.640    21331395.540
  21331394.660          48.550          45.600
 106555173.321 8  82876277.574 7                  19961364.920    19961368.280
  19961367.180          48.650          47.250
 112130260.037 7  87212438.009 7                  20991019.340    20991023.520
  20991023.100          44.700          43.850
 112578477.592 8  87561028.339 7                  21097154.320    21097155.840
  21097155.760          49.250          43.150
 118975613.072 7  92536591.477 7                  22280308.240    22280312.180
  22280310.240          45.000          42.850
 122796509.183 7  95508415.871 6                  22955509.520    22955512.820
  22955512.440          47.150          41.900
 152244970.308 8                 113689459.300 7  28971252.560
                        49.700
 131351474.318 8                  98087247.933 8  24995301.200
                        51.000
 15  1 27  4  1 20.0000000  0 23G11G08G21G07G04G16G18G22G27G19G30R11
                                R05R21R08R07R22R12R06R13R23E18E11
 129963615.405 7 101270334.67145                  24731252.340
  24731247.880          42.300          35.300
 131631369.247 6 102569857.39845                  25048630.280
  25048629.800          41.050          34.900
 125543422.780 7  97826099.96146                  23890089.040
  23890084.160          45.800          39.250
 126535665.413 7  98599184.906 6                  24078937.240    24078933.620
  24078933.260          46.750          40.450
 121610598.509 8  94761514.59846                  23141719.560
  23141715.900          48.000          38.800
 109147627.181 8  85050099.68647                  20770100.960
  20770095.680          49.900          47.700
 116736475.101 8  90963482.47747                  22214203.280
  22214197.680          49.450          43.050
 111626752.483 8  86981894.14647                  21241850.780
  21241843.520          50.400          47.050
 107724005.975 8  83940795.123 8  80443256.980 8  20499190.880    20499188.640
  20499187.980          50.450          50.350
 113710359.960 8  88605455.23547                  21638356.340
  21638349.600          49.650          47.200
 133825744.025 6 104279793.488 6  99934798.927 7  25466194.380    25466192.560
  25466191.600          36.850          36.100
 125431359.333 7  97557733.159 5                  23472771.420    23472775.320
  23472773.700          43.100          35.300
 129646470.714 7 100836166.164 6                  24253048.880    24253051.800
  24253050.920          42.200          37.100
 114586800.993 8  89123117.255 7                  21413263.740    21413265.140
  21413264.320          48.300          43.600
 130339876.177 6 101375470.542 6                  24340046.640    24340051.000
  24340050.080          39.150          38.150
 114172596.357 8  88800937.264 7                  21328394.160    21328396.160
  21328395.220          48.450          45.700
 106553322.463 8  82874838.026 7                  19961018.160    19961021.540
  19961020.460          48.600          47.150
 112141340.236 7  87221055.931 7                  20993093.620    20993097.760
  20993097.360          45.350          43.950
 112580286.516 8  87562435.279 7                  21097493.320    21097494.800
  21097494.740          49.600          43.150
 118967513.079 7  92530291.474 7                  22278791.460    22278795.340
  22278793.380          44.650          42.950
 122783619.830 7  95498390.812 6                  22953100.000    22953103.400
  22953102.880          47.150          41.850
 152263658.883 8                 113703415.064 7  28974808.940
                        49.450
 131358981.171 8                  98092853.691 8  24996729.680
                        51.050
 15  1 27  4  1 25.0000000  0 23G11G08G21G07G04G16G18G22G27G19G30R11
                                R05R21R08R07R22R12R06R13R23E18E11
 129947396.539 7 101257696.59445                  24728165.960
  24728161.520          42.000          33.650
 131648688.386 6 102583352.67545                  25051926.160
  25051925.520          41.150          34.300
 125556230.153 7  97836079.73246                  23892526.240
  23892521.340          45.800          38.350
 126535454.560 7  98599020.599 6                  24078897.120    24078893.460
  24078893.120          46.900          40.300
 121595169.525 7  94749492.03846                  23138783.520
  23138779.940          47.850          38.700
 109155329.568 8  85056101.55047                  20771566.680
  20771561.380          49.850          47.800
 116741707.655 8  90967559.79047                  22215198.900
  22215193.380          49.600          42.400
 111620542.720 8  86977055.37847                  21240669.100
  21240661.840          50.300          47.150
 107720471.751 8  83938041.190 8  80440617.790 8  20498518.340    20498516.120
  20498515.440          50.400          50.250
 113700653.339 8  88597891.64747                  21636509.280
  21636502.500          49.550          47.150
 133818422.439 6 104274088.370 6  99929331.429 7  25464800.920    25464799.300
  25464798.480          36.650          36.900
 125453019.391 7  97574579.876 5                  23476824.840    23476828.760
  23476827.100          42.800          35.600
 129663785.862 6 100849633.524 6                  24256288.080    24256290.920
  24256290.040          41.950          37.000
 114596954.618 8  89131014.519 7                  21415161.220    21415162.620
  21415161.760          48.150          43.400
 130317886.811 6 101358367.785 6                  24335940.320    24335944.500
  24335943.640          38.600          37.550
 114156553.674 8  88788459.634 7                  21325397.240    21325399.320
  21325398.340          48.450          45.450
 106551477.691 8  82873403.207 7                  19960672.580    19960675.940
  19960674.860          48.700          47.400
 112152439.011 7  87229688.318 7                  20995171.400    20995175.480
  20995175.100          45.450          43.900
 112582117.710 8  87563859.539 7                  21097836.480    21097837.960
  21097837.880          49.450          42.900
 118959433.669 7  92524007.495 7                  22277278.480    22277282.280
  22277280.400          44.800          42.950
 122770732.088 7  95488367.017 6                  22950690.800    22950694.180
  22950693.620          47.050          41.500
 152282339.809 8                 113717365.111 7  28978363.840
                        48.950
 131366489.796 8                  98098460.780 8  24998158.500
                        51.100
 15  1 27  4  1 30.0000000  0 23G11G08G21G07G04G16G18G22G27G19G30R11
                                R05R21R08R07R22R12R06R13R23E18E11
 129931180.330 7 101245060.57646                  24725080.100
  24725075.680          42.350          36.250
 131666004.363 6 102596845.42544                  25055221.460
  25055220.800          40.700          28.400
 125569038.923 7  97846060.58446                  23894963.700
  23894958.780          45.800          37.150
 126535259.007 7  98598868.210 6                  24078859.900    24078856.240
  24078855.880          46.600          40.050
 121579746.916 7  94737474.41446                  23135848.680
  23135845.140          47.600          39.100
 109163046.653 8  85062114.86747                  20773035.180
  20773029.860          49.750          47.600
 116746953.678 8  90971647.59647                  22216197.080
  22216191.640          49.650          42.800
 111614347.110 8  86972227.62647                  21239490.100
  21239482.840          50.400          46.950
 107716945.435 8  83935293.410 8  80437984.505 8  20497847.320    20497845.080
  20497844.420          50.450          50.100
 113690952.352 8  88590332.44247                  21634663.280
  21634656.460          49.600          47.250
 133811114.164 6 104268393.600 6  99923873.988 7  25463410.100    25463408.720
  25463407.920          36.950          36.950
 125474680.103 7  97591427.097 5                  23480878.300    23480882.300
  23480880.640          42.250          35.350
 129681112.476 7 100863109.775 6                  24259529.360    24259532.180
  24259531.360          42.350          36.900
 114607112.575 8  89138915.145 7                  21417059.540    21417060.900
  21417060.000          48.350          43.400
 130295894.572 6 101341262.814 6                  24331833.360    24331837.540
  24331836.700          40.300          37.000
 114140524.735 8  88775992.683 7                  21322402.880    21322405.000
  21322404.020          48.800          45.900
 106549639.431 8  82871973.441 7                  19960328.180    19960331.560
  19960330.480          48.550          46.700
 112163556.883 7  87238335.550 7                  20997252.780    20997256.720
  20997256.380          45.650          43.600
 112583971.482 8  87565301.364 7                  21098183.880    21098185.340
  21098185.260          49.500          43.050
 118951375.351 7  92517739.914 7                  22275769.440    22275773.200
  22275771.400          44.600          42.850
 122757846.327 7  95478344.761 6                  22948281.920    22948285.340
  22948284.780          47.150          41.950
 152301013.601 8                 113731309.817 7  28981917.300
                        48.700
 131374000.708 8                  98104069.586 8  24999587.780
                        51.100
 15  1 27  4  1 35.0000000  0 23G11G08G21G07G04G16G18G22G27G19G30R11
                                R05R21R08R07R22R12R06R13R23E18E11
 129914965.248 7 101232425.43745                  24721994.460
  24721990.100          42.600          35.600
 131683315.756 6 102610334.67145                  25058515.920
  25058515.200          41.550          32.000
 125581847.712 7  97856041.46146                  23897401.180
  23897396.220          46.150          36.750
 126535077.272 7  98598726.592 6                  24078825.340    24078821.620
  24078821.200          46.350          39.850
 121564329.230 7  94725460.64146                  23132914.780
  23132911.280          47.450          39.650
 109170776.981 8  85068138.50147                  20774506.200
  20774500.900          49.600          47.400
 116752211.725 8  90975744.76546                  22217197.600
  22217192.180          49.750          41.950
 111608164.229 8  86967409.79547                  21238313.520
  21238306.280          50.400          46.900
 107713425.592 8  83932550.670 8  80435356.050 8  20497177.520    20497175.280
  20497174.600          50.550          50.050
 113681255.577 8  88582776.51747                  21632818.100
  21632811.220          49.750          46.750
 133803818.018 6 104262708.277 6  99918425.540 7  25462021.720    25462020.280
  25462019.320          38.300          36.550
 125496340.091 7  97608273.722 5                  23484931.700    23484935.640
  23484934.080          42.700          35.100
 129698449.335 7 100876593.988 6                  24262772.540    24262775.260
  24262774.580          42.900          36.100
 114617273.501 8  89146818.080 7                  21418958.420    21418959.740
  21418958.780          48.900          43.200
 130273897.987 6 101324154.399 6                  24327725.640    24327729.600
  24327728.820          40.350          36.350
 114124508.233 8  88763535.409 7                  21319410.860    21319413.020
  21319412.020          48.950          45.900
 106547806.314 8  82870547.709 7                  19959984.800    19959988.140
  19959987.040          48.350          47.150
 112174692.514 7  87246996.597 7                  20999337.440    20999341.360
  20999340.980          45.450          43.350
 112585846.422 8  87566759.657 7                  21098535.280    21098536.680
  21098536.620          49.600          42.900
 118943336.588 7  92511487.550 7                  22274264.040    22274267.880
  22274266.100          44.800          43.050
 122744961.181 7  95468322.975 6                  22945873.180    22945876.560
  22945876.020          47.050          41.800
 152319678.809 8                 113745248.123 7  28985469.080
                        48.450
 131381512.503 8                  98109679.037 8  25001017.260
                        51.150
 15  1 27  4  1 40.0000000  0 23G11G08G21G07G04G16G18G22G27G19G30R11
                                R05R21R08R07R22R12R06R13R23E18E11
 129898753.763 7 101219793.09545                  24718909.500
  24718905.200          42.750          34.050
 131700624.918 7 102623822.18245                  25061809.900
  25061809.160          42.450          33.400
 125594658.908 7  97866024.21946                  23899839.100
  23899834.100          46.250          37.850
 126534911.720 7  98598597.589 6                  24078793.840    24078790.060
  24078789.560          46.950          39.550
 121548918.831 7  94713452.54646                  23129982.280
  23129978.800          47.750          39.050
 109178522.901 8  85074174.28347                  20775980.200
  20775974.880          49.550          47.750
 116757484.094 8  90979853.11147                  22218200.860
  22218195.440          49.850          42.250
 111601996.452 8  86962603.74147                  21237139.820
  21237132.600          50.250          47.000
 107709914.600 8  83929814.837 8  80432734.200 8  20496509.400    20496507.160
  20496506.480          50.550          50.150
 113671565.394 8  88575225.73147                  21630974.140
  21630967.240          49.850          46.600
 133796536.312 6 104257034.184 6  99912987.879 7  25460636.000    25460634.560
  25460633.920          38.850          37.200
 125518001.726 6  97625121.668 5                  23488985.380    23488989.340
