     2.11           OBSERVATION DATA    M (MIXED)           RINEX VERSION / TYPE
teqc  2011Oct11     IGN-E (SPG)         20150127 11:09:50UTCPGM / RUN BY / DATE
Linux 2.4.21-27.ELsmp|Opteron|gcc -static|Linux x86_64|=+   COMMENT
BIT 2 OF LLI FLAGS DATA COLLECTED UNDER A/S CONDITION       COMMENT
VALE                                                        MARKER NAME
13439M001                                                   MARKER NUMBER
Programas GeodesicosInstituto Geografico Nacional           OBSERVER / AGENCY
1700071             LEICA GR10          3.03/6.214          REC # / TYPE / VERS
10190012            LEIAR25.R3      LEIT                    ANT # / TYPE
  4929534.0457   -29050.6755  4033709.9250                  APPROX POSITION XYZ
        3.0390        0.0000        0.0000                  ANTENNA: DELTA H/E/N
     1     1                                                WAVELENGTH FACT L1/2
     8    L1    L2    L5    C1    C2    P2    S1    S2      # / TYPES OF OBSERV
     5.0000                                                 INTERVAL
Forced Modulo Decimation to 5 seconds                       COMMENT
DefaultJobName                                              COMMENT
DefaultUserDiscription                                      COMMENT
Project creator:                                            COMMENT
 SNR is mapped to RINEX snr flag value [0-9]                COMMENT
  L1 & L2: min(max(int(snr_dBHz/6), 0), 9)                  COMMENT
  2015     1    27    10     0    0.0000000     GPS         TIME OF FIRST OBS
    15                                                      LEAP SECONDS
                                                            END OF HEADER
 15  1 27 10  0  0.0000000  0 22G11G06G08G04G17G03G23G31G09G10G20G32
                                G01R24R17R02R12R10R03R18R11R01
 124923221.421 7  97342741.39746                  23772107.480
  23772106.680          46.600          38.900
 120965988.514 7  94259212.251 7  90331742.368 8  23019063.380    23019065.380
  23019064.500          47.650          45.350
 125917480.559 7  98117538.13246                  23961290.720
  23961290.720          46.900          37.750
 128632518.933 7 100233118.76645                  24477963.060
  24477964.460          45.600          35.300
 113812423.556 8  88684957.643 7                  21657791.800    21657789.220
  21657788.660          49.700          47.100
 109817859.817 8  85572355.607 8  82006843.564 8  20897643.820    20897643.840
  20897643.120          49.550          49.100
 108240886.305 8  84343516.03148                  20597550.280
  20597544.660          50.600          48.150
 128674358.193 7 100265728.833 6                  24485912.860    24485913.180
  24485912.500          45.300          40.650
 113343082.368 8  88319308.611 8  84639346.394 8  21568460.180    21568459.960
  21568459.480          49.900          49.000
 126672704.972 7  98706010.69246                  24105016.300
  24105016.360          44.200          36.600
 109454551.330 8  85289222.65347                  20828511.200
  20828507.760          49.250          46.850
 126424597.672 7  98512679.77146                  24057798.320
  24057797.740          46.950          37.400
 114755477.278 8  89419862.150 8  85694022.213 8  21837243.260    21837244.120
  21837243.900          49.450          48.100
 115204949.425 7  89603855.313 6                  21543913.020    21543917.920
  21543915.840          47.100          40.200
 104194238.206 8  81039961.440 7                  19471190.820    19471193.120
  19471191.900          49.100          47.450
 104971533.166 8  81644542.493 7                  19671622.600    19671626.460
  19671625.740          49.300          46.850
 129122768.071 6 100428871.653 5                  24172052.420    24172064.800
  24172064.020          37.100          35.100
 127096154.868 7  98852621.753 5                  23842912.140    23842923.800
  23842922.800          43.250          34.000
 118392539.661 7  92083107.279 7                  22116719.540    22116722.980
  22116721.720          46.200          43.650
 117455155.738 7  91354019.877 7                  22003311.560    22003317.760
  22003316.760          47.600          43.750
 122213021.051 7  95054604.064 5                  22870490.140    22870498.080
  22870495.860          44.150          34.800
 115430330.076 7  89779148.142 6                  21593631.440    21593636.780
  21593636.260          47.300          38.800
 15  1 27 10  0  5.0000000  0 22G11G06G08G04G17G03G23G31G09G10G20G32
                                G01R24R17R02R12R10R03R18R11R01
 124941439.029 7  97356936.90946                  23775574.180
  23775573.420          46.600          39.250
 120950556.269 7  94247187.131 7  90320218.295 8  23016126.740    23016128.740
  23016127.840          47.750          45.350
 125912572.016 7  98113713.29246                  23960356.680
  23960356.600          47.150          37.700
 128649563.314 7 100246400.05746                  24481206.520
  24481207.940          45.450          36.650
 113815705.641 8  88687515.110 7                  21658416.360    21658413.800
  21658413.220          49.850          47.050
 109824296.127 8  85577370.903 8  82011649.888 8  20898868.580    20898868.620
  20898867.920          49.700          49.000
 108237109.430 8  84340573.00748                  20596831.580
  20596825.960          50.700          48.050
 128681088.719 7 100270973.384 6                  24487193.680    24487193.940
  24487193.320          45.650          40.600
 113329910.553 8  88309044.862 8  84629510.299 8  21565953.660    21565953.420
  21565952.940          50.000          48.850
 126657673.317 7  98694297.70445                  24102155.840
  24102155.960          44.150          35.600
 109447543.656 8  85283762.12247                  20827177.720
  20827174.260          49.450          46.850
 126438805.546 7  98523750.83246                  24060502.020
  24060501.400          46.650          37.800
 114767704.968 8  89429390.212 8  85703153.260 8  21839570.120    21839570.980
  21839570.780          49.450          48.050
 115225120.507 7  89619543.912 6                  21547685.160    21547690.020
  21547688.000          46.800          40.200
 104195376.276 8  81040846.597 7                  19471403.440    19471405.820
  19471404.580          49.100          47.350
 104972259.448 8  81645107.379 7                  19671758.700    19671762.580
  19671761.860          49.100          46.950
 129104427.016 6 100414606.427 6                  24168618.860    24168631.260
  24168630.500          36.900          36.600
 127101996.261 7  98857165.061 5                  23844007.980    23844019.520
  23844018.580          42.750          33.650
 118379830.712 7  92073222.557 7                  22114345.420    22114348.860
  22114347.620          45.950          43.550
 117438249.949 7  91340870.938 7                  22000144.560    22000150.700
  22000149.700          47.650          43.600
 122203970.560 7  95047564.835 5                  22868796.420    22868804.380
  22868802.180          44.800          34.400
 115444470.360 7  89790146.151 6                  21596276.660    21596281.960
  21596281.480          47.250          39.350
 15  1 27 10  0 10.0000000  0 22G11G06G08G04G17G03G23G31G09G10G20G32
                                G01R24R17R02R12R10R03R18R11R01
 124959658.447 7  97371133.83046                  23779041.220
  23779040.480          46.800          39.100
 120935125.733 7  94235163.332 7  90308695.496 8  23013190.440    23013192.360
  23013191.520          47.850          45.450
 125907674.268 7  98109896.85346                  23959424.660
  23959424.540          47.400          37.700
 128666608.991 7 100259682.37445                  24484450.220
  24484451.700          45.650          35.300
 113819001.741 8  88690083.493 7                  21659043.560    21659041.020
  21659040.440          49.950          46.950
 109830736.373 8  85582389.272 8  82016459.152 8  20900094.100    20900094.160
  20900093.440          49.400          49.050
 108233344.276 8  84337639.12347                  20596115.100
  20596109.460          50.750          47.850
 128687831.539 7 100276227.516 6                  24488476.820    24488477.100
  24488476.500          45.400          40.600
 113316747.490 8  88298787.930 8  84619680.747 8  21563448.800    21563448.560
  21563448.060          50.000          48.750
 126642642.599 7  98682585.46445                  24099295.560
  24099295.580          43.850          35.800
 109440541.011 8  85278305.51847                  20825845.200
  20825841.720          49.550          47.000
 126453011.562 7  98534820.41846                  24063205.320
  24063204.680          46.600          37.150
 114779939.815 8  89438923.853 8  85712289.666 8  21841898.320    21841899.200
  21841899.000          49.550          48.150
 115245299.650 7  89635238.774 6                  21551458.800    21551463.580
  21551461.620          46.350          40.600
 104196535.354 8  81041748.096 7                  19471620.020    19471622.480
  19471621.200          49.450          47.250
 104972993.756 8  81645678.503 7                  19671896.340    19671900.180
  19671899.480          48.950          46.800
 129086084.537 6 100400340.119 6                  24165185.060    24165197.500
  24165196.760          37.350          36.350
 127107855.325 7  98861722.130 5                  23845107.120    23845118.700
  23845117.740          42.800          33.750
 118367127.134 7  92063342.018 7                  22111972.260    22111975.820
  22111974.540          46.700          43.450
 117421354.841 7  91327730.311 7                  21996979.520    21996985.620
  21996984.660          47.850          43.650
 122194935.213 7  95040537.366 5                  22867105.540    22867113.380
  22867111.260          44.950          33.850
 115458611.124 7  89801144.509 6                  21598921.980    21598927.300
  21598926.800          47.900          39.250
 15  1 27 10  0 15.0000000  0 22G11G06G08G04G17G03G23G31G09G10G20G32
                                G01R24R17R02R12R10R03R18R11R01
 124977883.244 7  97385334.94846                  23782509.300
  23782508.540          47.000          38.600
 120919700.464 8  94223143.651 7  90297176.622 8  23010255.120    23010257.020
  23010256.180          48.000          45.650
 125902790.885 7  98106091.61546                  23958495.360
  23958495.220          47.150          38.350
 128683659.624 7 100272968.53845                  24487694.880
  24487696.380          45.850          34.150
 113822315.422 8  88692665.572 7                  21659674.140    21659671.620
  21659671.000          49.950          46.950
 109837184.080 8  85587413.444 8  82021273.991 8  20901321.040    20901321.120
  20901320.400          49.900          49.050
 108229594.419 8  84334717.15348                  20595401.520
  20595395.880          50.750          48.100
 128694590.219 7 100281494.007 6                  24489762.980    24489763.240
  24489762.660          44.800          40.700
 113303596.738 8  88288540.596 8  84609860.376 8  21560946.280    21560946.040
  21560945.560          50.150          48.750
 126627616.392 7  98670876.75445                  24096436.160
  24096436.180          44.200          35.950
 109433546.958 8  85272855.60547                  20824514.300
  20824510.800          49.550          46.650
 126467219.236 7  98545891.31646                  24065908.960
  24065908.280          46.650          37.650
 114792185.369 8  89448465.831 8  85721434.060 8  21844228.580    21844229.460
  21844229.280          49.650          48.250
 115265490.600 7  89650942.813 6                  21555234.620    21555239.360
  21555237.440          46.600          40.550
 104197719.171 8  81042668.833 7                  19471841.220    19471843.700
  19471842.440          49.200          47.650
 104973739.686 8  81646258.669 7                  19672036.140    19672039.960
  19672039.260          49.100          46.950
 129067744.341 6 100386075.585 6                  24161751.820    24161764.260
  24161763.480          36.900          36.100
 127113735.586 7  98866295.656 5                  23846210.160    23846221.800
  23846220.900          42.400          34.050
 118354432.502 7  92053468.423 7                  22109600.760    22109604.380
  22109603.120          46.350          43.750
 117404474.133 8  91314600.872 7                  21993817.200    21993823.300
  21993822.320          48.050          43.400
 122185918.518 7  95033524.387 5                  22865418.180    22865425.920
  22865423.780          45.100          33.550
 115472755.936 7  89812146.040 6                  21601568.040    21601573.440
  21601572.900          47.250          39.750
 15  1 27 10  0 20.0000000  0 22G11G06G08G04G17G03G23G31G09G10G20G32
                                G01R24R17R02R12R10R03R18R11R01
 124996111.288 7  97399538.59446                  23785978.000
  23785977.220          47.200          37.750
 120904278.409 7  94211126.465 7  90285660.159 8  23007320.400    23007322.280
  23007321.480          47.800          45.450
 125897919.790 7  98102295.94846                  23957568.360
  23957568.220          47.100          38.150
 128700713.092 7 100286256.92645                  24490940.100
  24490941.500          45.900          34.550
 113825644.607 8  88695259.734 7                  21660307.660    21660305.120
  21660304.520          50.000          46.950
 109843637.196 8  85592441.841 8  82026092.862 8  20902549.020    20902549.120
  20902548.400          49.750          49.050
 108225857.758 8  84331805.47148                  20594690.480
  20594684.820          50.700          48.000
 128701362.664 7 100286771.215 6                  24491051.760    24491051.980
  24491051.480          44.850          40.550
 113290456.230 8  88278301.240 8  84600047.667 8  21558445.720    21558445.480
  21558445.000          50.000          48.650
 126612592.588 7  98659169.88746                  24093577.280
  24093577.240          44.700          36.250
 109426559.398 8  85267410.75247                  20823184.620
  20823181.120          49.400          46.800
 126481426.503 7  98556961.89646                  24068612.500
  24068611.860          46.700          37.600
 114804439.550 8  89458014.534 8  85730584.899 8  21846560.460    21846561.400
  21846561.180          49.700          48.100
 115285691.299 7  89666654.444 6                  21559012.240    21559017.000
  21559015.080          46.750          40.100
 104198925.450 8  81043607.041 7                  19472066.620    19472069.120
  19472067.880          49.100          47.650
 104974495.027 8  81646846.148 7                  19672177.720    19672181.520
  19672180.820          49.250          47.050
 129049404.154 6 100371811.076 5                  24158318.400    24158330.880
  24158330.160          37.250          35.950
 127119635.165 7  98870884.219 5                  23847316.800    23847328.400
  23847327.700          42.250          33.850
 118341744.572 7  92043600.043 7                  22107230.520    22107234.180
  22107232.940          45.800          43.850
 117387605.620 8  91301480.915 7                  21990657.200    21990663.220
  21990662.240          48.250          43.400
 122176918.514 7  95026524.380 5                  22863733.980    22863741.580
  22863739.480          45.250          33.500
 115486902.712 7  89823149.059 6                  21604214.500    21604219.860
  21604219.380          47.300          39.350
 15  1 27 10  0 25.0000000  0 22G11G06G08G04G17G03G23G31G09G10G20G32
                                G01R24R17R02R12R10R03R18R11R01
 125014343.865 7  97413745.77446                  23789447.620
  23789446.760          47.650          37.350
 120888860.831 7  94199112.776 7  90274147.034 8  23004386.560    23004388.380
  23004387.620          47.850          45.400
 125893062.264 7  98098510.86146                  23956643.960
  23956643.780          46.750          38.100
 128717770.693 7 100299548.52645                  24494186.040
  24494187.440          45.700          35.550
 113828990.541 8  88697866.955 7                  21660944.360    21660941.840
  21660941.220          50.000          47.050
 109850096.987 8  85597475.429 8  82030916.719 8  20903778.260    20903778.420
  20903777.660          50.000          49.050
 108222135.619 8  84328905.10548                  20593982.180
  20593976.520          50.800          48.300
 128708150.197 7 100292060.172 6                  24492343.400    24492343.660
  24492343.100          44.750          40.400
 113277327.246 8  88268070.873 8  84590243.556 8  21555947.340    21555947.120
  21555946.640          50.100          48.650
 126597572.498 7  98647465.91345                  24090719.040
  24090719.080          44.000          35.650
 109419579.631 8  85261971.97347                  20821856.440
  20821852.940          49.550          46.600
 126495634.647 7  98568033.15746                  24071316.260
  24071315.640          46.800          37.750
 114816703.633 8  89467570.947 8  85739743.124 8  21848894.220    21848895.200
  21848894.980          49.700          48.150
 115305902.832 7  89682374.515 6                  21562791.920    21562796.680
  21562794.740          46.800          40.250
 104200155.664 8  81044563.868 7                  19472296.520    19472299.020
  19472297.800          49.200          47.650
 104975261.181 8  81647442.033 7                  19672321.280    19672325.080
  19672324.400          49.150          47.150
 129031065.433 6 100357547.677 5                  24154885.360    24154897.720
  24154897.080          37.350          35.750
 127125555.328 7  98875488.821 5                  23848427.360    23848439.020
  23848438.320          42.350          33.700
 118329064.847 7  92033738.063 7                  22104861.800    22104865.500
  22104864.260          45.950          44.050
 117370750.692 8  91288371.526 7                  21987499.740    21987505.740
  21987504.740          48.000          43.750
 122167936.519 7  95019538.410 5                  22862053.140    22862060.660
  22862058.640          45.450          34.600
 115501052.759 7  89834154.638 6                  21606861.560    21606867.000
  21606866.460          47.050          39.800
 15  1 27 10  0 30.0000000  0 22G11G06G08G04G17G03G23G31G09G10G20G32
                                G01R24R17R02R12R10R03R18R11R01
 125032580.120 7  97427955.81346                  23792917.900
  23792917.000          47.550          37.450
 120873446.903 7  94187101.927 7  90262636.651 8  23001453.400    23001455.200
  23001454.440          47.850          45.350
 125888217.481 7  98094735.69346                  23955721.980
  23955721.820          46.850          37.900
 128734831.570 7 100312842.65345                  24497432.660
  24497434.120          46.100          33.650
 113832352.392 8  88700486.578 7                  21661584.080    21661581.600
  21661580.960          49.900          47.000
 109856562.589 8  85602513.553 8  82035744.920 8  20905008.620    20905008.780
  20905008.020          49.950          49.000
 108218427.130 8  84326015.37747                  20593276.480
  20593270.820          50.950          47.850
 128714951.899 7 100297360.184 6                  24493637.740    24493637.980
  24493637.400          44.050          40.400
 113264208.957 8  88257848.831 8  84580447.440 8  21553450.960    21553450.800
  21553450.300          49.900          48.650
 126582555.280 7  98635764.18546                  24087861.360
  24087861.320          44.000          36.250
 109412606.798 8  85256538.59447                  20820529.580
  20820526.080          49.600          46.350
 126509842.810 7  98579104.42646                  24074019.960
  24074019.380          46.650          36.300
 114828976.771 8  89477134.417 8  85748908.119 8  21851229.700    21851230.720
  21851230.500          49.700          48.050
 115326124.364 7  89698102.361 6                  21566573.480    21566578.160
  21566576.300          46.550          39.800
 104201408.795 8  81045538.518 7                  19472530.680    19472533.180
  19472531.980          49.250          47.300
 104976037.200 8  81648045.605 7                  19672466.720    19672470.500
  19672469.820          49.050          46.950
 129012727.359 6 100343284.757 5                  24151452.440    24151464.700
  24151464.120          37.150          35.300
 127131495.115 7  98880108.658 5                  23849541.580    23849553.340
  23849552.620          42.000          33.300
 118316392.457 7  92023881.763 7                  22102494.480    22102498.120
  22102496.960          46.050          43.650
 117353908.545 8  91275272.085 7                  21984344.620    21984350.640
  21984349.600          48.250          43.800
 122158971.500 7  95012565.651 5                  22860375.440    22860382.980
  22860380.980          45.450          34.850
 115515205.290 7  89845162.135 6                  21609509.120    21609514.480
  21609514.020          46.950          38.850
 15  1 27 10  0 35.0000000  0 22G11G06G08G04G17G03G23G31G09G10G20G32
                                G01R24R17R02R12R10R03R18R11R01
 125050818.456 7  97442167.48946                  23796388.580
  23796387.640          47.200          38.500
 120858035.085 7  94175092.731 7  90251127.837 8  22998520.640    22998522.400
  22998521.660          47.650          45.400
 125883383.878 7  98090969.25446                  23954802.140
  23954801.980          46.850          38.000
 128751894.158 7 100326138.16646                  24500679.640
  24500681.060          45.850          36.700
 113835728.574 8  88703117.364 7                  21662226.520    21662224.060
  21662223.420          49.750          47.050
 109863032.441 8  85607554.999 8  82040576.307 8  20906239.800    20906239.960
  20906239.200          50.000          49.100
 108214730.683 8  84323135.03347                  20592573.100
  20592567.400          50.900          47.750
 128721766.222 7 100302670.044 6                  24494934.480    24494934.720
  24494934.120          44.050          40.750
 113251099.793 8  88247633.915 8  84570658.141 8  21550956.340    21550956.200
  21550955.700          49.850          48.850
 126567539.371 7  98624063.48745                  24085003.940
  24085003.900          43.800          35.250
 109405639.362 8  85251109.42847                  20819203.740
  20819200.240          49.600          46.400
 126524049.441 7  98590174.52446                  24076723.400
  24076722.760          46.000          38.050
 114841257.395 8  89486703.722 8  85758078.703 8  21853566.600    21853567.680
  21853567.460          49.700          48.100
 115346354.334 7  89713836.766 6                  21570356.620    21570361.440
  21570359.460          46.200          39.750
 104202683.433 8  81046529.907 7                  19472768.860    19472771.380
  19472770.160          49.050          46.850
 104976821.529 8  81648655.650 7                  19672613.720    19672617.480
  19672616.800          48.900          46.650
 128994388.352 6 100329021.141 5                  24148019.300    24148031.560
  24148031.020          37.050          34.800
 127137452.891 7  98884742.479 5                  23850659.220    23850670.840
  23850670.280          42.800          33.600
 118303725.703 7  92014029.846 7                  22100128.200    22100131.800
  22100130.720          46.200          43.400
 117337077.588 8  91262181.364 7                  21981191.640    21981197.700
  21981196.620          48.050          43.400
 122150022.090 7  95005605.020 5                  22858700.660    22858708.180
  22858706.240          44.800          33.650
 115529358.552 7  89856170.226 6                  21612156.820    21612162.140
  21612161.700          46.550          38.400
 15  1 27 10  0 40.0000000  0 22G11G06G08G04G17G03G23G31G09G10G20G32
                                G01R24R17R02R12R10R03R18R11R01
 125069062.363 7  97456383.47746                  23799860.260
  23799859.380          47.050          37.300
 120842628.829 7  94163087.860 7  90239623.166 8  22995588.940    22995590.700
  22995589.980          47.650          45.050
 125878564.950 7  98087214.23946                  23953885.100
  23953884.960          47.100          37.750
 128768961.859 7 100339437.62045                  24503927.580
  24503929.000          45.900          34.200
 113839122.565 8  88705762.025 7                  21662872.360    21662869.940
  21662869.280          49.800          46.800
 109869510.013 8  85612602.443 8  82045413.443 8  20907472.460    20907472.600
  20907471.860          50.100          48.950
 108211049.759 8  84320266.77947                  20591872.660
  20591866.940          50.800          47.850
 128728596.623 7 100307992.416 6                  24496234.280    24496234.520
  24496233.940          44.150          40.550
 113238003.230 8  88237428.799 8  84560878.250 8  21548464.100    21548463.980
  21548463.500          49.650          48.650
 126552528.228 7  98612366.46445                  24082147.400
  24082147.340          43.800          35.000
 109398680.767 8  85245687.13847                  20817879.580
  20817876.080          49.550          46.350
 126538258.022 7  98601246.10246                  24079427.220
  24079426.520          46.650          37.800
 114853548.970 8  89496281.558 7  85767257.457 8  21855905.600    21855906.680
  21855906.480          49.700          47.950
 115366596.238 7  89729580.442 6                  21574142.020    21574146.800
  21574144.840          46.400          39.850
 104203982.945 8  81047540.630 7                  19473011.700    19473014.240
  19473012.980          49.050          46.700
 104977617.681 8  81649274.868 7                  19672762.940    19672766.700
  19672766.040          49.100          46.650
 128976051.867 6 100314759.513 5                  24144586.600    24144598.820
  24144598.340          36.650          34.500
 127143432.143 7  98889392.996 5                  23851780.860    23851792.660
  23851791.980          42.900          33.600
 118291068.178 7  92004185.123 7                  22097763.660    22097767.240
  22097766.180          45.900          43.300
 117320261.259 8  91249102.003 7                  21978041.380    21978047.420
  21978046.360          48.400          43.000
 122141091.768 7  94998659.221 5                  22857029.460    22857037.000
  22857035.060          45.450          33.750
 115543516.091 7  89867181.625 6                  21614805.240    21614810.640
  21614810.180          46.650          38.200
 15  1 27 10  0 45.0000000  0 22G11G06G08G04G17G03G23G31G09G10G20G32
                                G01R24R17R02R12R10R03R18R11R01
 125087309.735 7  97470602.18246                  23803332.620
  23803331.820          47.100          37.750
 120827226.097 7  94151085.735 7  90228121.124 8  22992657.920    22992659.660
  22992658.860          47.300          45.050
 125873758.608 7  98083469.02746                  23952970.500
  23952970.320          47.250          37.400
 128786032.652 7 100352739.50245                  24507176.080
  24507177.540          45.800          34.200
 113842532.310 8  88708418.969 7                  21663521.180    21663518.780
  21663518.140          49.800          46.900
 109875993.227 8  85617654.298 8  82050254.794 8  20908706.180    20908706.340
  20908705.600          50.100          48.900
 108207382.322 8  84317409.04247                  20591174.780
  20591169.060          50.750          47.750
 128735441.015 7 100313325.692 6                  24497536.720    24497536.980
  24497536.400          44.000          40.100
 113224917.220 8  88227231.914 8  84551106.227 8  21545973.880    21545973.760
  21545973.300          49.550          48.750
 126537519.789 7  98600671.57946                  24079291.360
  24079291.300          43.600          37.000
 109391728.957 8  85240270.14947                  20816556.680
  20816553.220          49.450          46.350
 126552466.416 7  98612317.58446                  24082131.020
  24082130.300          46.150          37.200
 114865849.400 8  89505866.305 7  85776442.834 8  21858246.300    21858247.400
  21858247.180          49.550          47.850
 115386847.943 7  89745331.751 6                  21577929.260    21577933.980
  21577932.040          47.200          40.150
 104205305.262 8  81048569.097 7                  19473258.800    19473261.340
  19473260.060          49.700          47.000
 104978423.587 8  81649901.680 7                  19672913.960    19672917.760
  19672917.120          49.600          46.850
 128957710.92416 100300492.29315                  24141154.040    24141166.200
  24141165.760          37.200          34.100
 127149430.905 7  98894058.694 5                  23852906.220    23852917.880
  23852917.360          42.850          33.100
 118278417.637 7  91994345.835 7                  22095400.360    22095404.020
  22095402.980          46.700          43.300
 117303457.665 8  91236032.545 7                  21974893.540    21974899.480
  21974898.460          48.850          43.100
 122132178.431 7  94991726.640 5                  22855361.480    22855369.000
  22855367.000          46.250          34.700
 115557675.892 7  89878194.786 6                  21617454.140    21617459.480
  21617459.080          47.750          38.500
 15  1 27 10  0 50.0000000  0 22G11G06G08G04G17G03G23G31G09G10G20G32
                                G01R24R17R02R12R10R03R18R11R01
 125105560.408 7  97484823.44446                  23806805.640
  23806804.840          47.300          38.000
 120811826.728 7  94139086.235 7  90216621.612 8  22989727.520    22989729.240
  22989728.440          47.300          44.900
 125868964.705 7  98079733.52446                  23952058.280
  23952058.040          47.550          37.350
 128803106.367 7 100366043.65345                  24510425.140
  24510426.580          45.300          35.100
 113845957.637 8  88711088.043 7                  21664172.980    21664170.620
  21664169.960          49.700          46.750
 109882481.924 8  85622710.415 8  82055100.238 8  20909940.940    20909941.120
  20909940.360          50.050          48.850
 108203728.152 8  84314561.63647                  20590479.420
  20590473.700          50.750          47.850
 128742299.275 7 100318669.762 6                  24498841.900    24498842.100
  24498841.440          44.550          39.650
 113211841.611 8  88217043.126 8  84541341.982 8  21543485.620    21543485.560
  21543485.100          49.400          48.750
 126522513.896 7  98588978.66145                  24076435.840
  24076435.660          44.250          35.250
 109384783.776 8  85234858.31447                  20815235.040
  20815231.600          49.450          46.200
 126566674.576 7  98623388.83946                  24084834.760
  24084833.960          46.250          37.250
 114878158.548 8  89515457.828 7  85785634.712 8  21860588.660    21860589.760
  21860589.540          49.700          47.700
 115407109.260 7  89761090.533 6                  21581718.260    21581722.960
  21581721.060          46.800          39.800
 104206650.324 8  81049615.244 7                  19473510.140    19473512.680
  19473511.400          49.550          47.000
 104979238.989 8  81650535.874 7                  19673066.780    19673070.580
  19673069.960          49.550          46.700
 128939375.360 6 100286231.334 5                  24137721.440    24137733.760
  24137733.200          38.150          34.600
 127155448.919 7  98898739.369 5                  23854035.120    23854046.900
  23854046.280          43.250          33.450
 118265774.091 7  91984511.990 7                  22093038.360    22093042.080
  22093041.040          46.600          43.300
 117286666.444 8  91222972.696 7                  21971747.960    21971753.860
  21971752.880          49.000          43.100
 122123281.964 7  94984807.188 5                  22853696.640    22853704.220
  22853702.160          46.050          34.550
 115571837.796 7  89889209.594 6                  21620103.400    21620108.780
  21620108.340          47.650          38.300
 15  1 27 10  0 55.0000000  0 22G11G06G08G04G17G03G23G31G09G10G20G32
                                G01R24R17R02R12R10R03R18R11R01
 125123813.484 7  97499046.60746                  23810279.160
  23810278.320          47.650          37.000
 120796429.805 7  94127088.639 7  90205123.910 8  22986797.620    22986799.300
  22986798.440          47.150          45.200
 125864182.323 7  98076006.99146                  23951148.240
  23951148.020          47.200          37.750
 128820182.048 7 100379349.32945                  24513674.580
  24513676.000          45.350          34.550
 113849397.515 8  88713768.461 7                  21664827.540    21664825.220
  21664824.560          49.400          46.900
 109888975.174 8  85627770.085 8  82059949.090 8  20911176.580    20911176.760
  20911176.020          50.050          48.950
 108200086.357 8  84311723.87447                  20589786.400
  20589780.680          50.750          47.950
 128749170.486 7 100324023.932 6                  24500149.480    24500149.680
  24500148.960          44.600          39.700
 113198775.457 8  88206861.711 8  84531584.787 8  21540999.180    21540999.140
  21540998.680          49.600          48.900
 126507509.638 7  98577287.01445                  24073580.700
  24073580.480          44.500          34.800
 109377844.281 8  85229450.91747                  20813914.500
  20813911.060          49.200          46.400
 126580881.462 7  98634459.12946                  24087538.260
  24087537.440          46.250          38.200
 114890475.482 8  89525055.428 7  85794832.397 8  21862932.520    21862933.620
  21862933.380          49.550          47.800
 115427379.332 7  89776856.125 6                  21585508.880    21585513.520
  21585511.680          46.150          39.250
 104208017.083 8  81050678.278 7                  19473765.540    19473768.120
  19473766.800          49.550          47.150
 104980063.017 8  81651176.780 7                  19673221.200    19673225.000
  19673224.420          49.300          46.900
 128921039.147 6 100271969.877 5                  24134288.780    24134301.120
  24134300.580          39.950          35.250
 127161485.274 7  98903434.317 5                  23855167.460    23855179.420
  23855178.740          42.150          33.650
 118253136.592 7  91974682.826 7                  22090677.540    22090681.220
  22090680.240          46.300          43.600
 117269886.785 8  91209921.861 7                  21968604.560    21968610.480
  21968609.500          48.300          43.400
 122114401.483 7  94977900.166 5                  22852034.780    22852042.360
  22852040.280          45.900          34.200
 115586000.630 7  89900225.126 6                  21622752.840    21622758.300
  21622757.800          47.500          38.500
 15  1 27 10  1  0.0000000  0 22G11G06G08G04G17G03G23G31G09G10G20G32
                                G01R24R17R02R12R10R03R18R11R01
 125142072.331 7  97513274.27146                  23813753.720
  23813752.820          46.850          37.550
 120781038.734 7  94115095.606 7  90193630.593 8  22983868.840    22983870.480
  22983869.580          47.750          45.200
 125859414.871 7  98072292.08946                  23950241.060
  23950240.820          46.950          38.550
 128837263.031 7 100392659.15345                  24516925.060
  24516926.360          45.750          35.750
 113852855.423 8  88716462.928 7                  21665485.520    21665483.220
  21665482.580          49.300          46.950
 109895476.371 8  85632835.948 8  82064803.877 8  20912413.740    20912413.900
  20912413.180          49.900          49.000
 108196460.354 8  84308898.41547                  20589096.420
  20589090.660          50.750          47.900
 128756057.972 7 100329390.788 6                  24501460.160    24501460.280
  24501459.560          44.900          39.450
 113185722.170 8  88196690.329 8  84521837.222 8  21538515.160    21538515.200
  21538514.720          49.400          48.950
 126492510.355 7  98565599.26246                  24070726.460
  24070726.340          44.400          36.450
 109370913.869 8  85224050.59447                  20812595.660
  20812592.220          48.950          46.950
 126595090.513 7  98645531.09146                  24090242.180
  24090241.420          46.250          38.150
 114902803.545 8  89534661.703 7  85804038.412 8  21865278.500    21865279.600
  21865279.340          49.550          47.800
 115447661.327 7  89792630.990 6                  21589301.760    21589306.320
  21589304.480          46.150          38.700
 104209408.965 8  81051760.853 7                  19474025.640    19474028.220
  19474026.920          49.300          47.250
 104980898.988 8  81651826.981 7                  19673377.860    19673381.660
  19673381.100          49.250          46.850
 128902705.851 6 100257710.724 5                  24130856.720    24130868.980
  24130868.580          39.600          35.950
 127167543.408 6  98908146.190 5                  23856303.880    23856315.940
  23856315.300          41.750          33.950
 118240508.394 7  91964860.909 7                  22088318.460    22088322.180
  22088321.240          46.400          43.700
 117253122.177 7  91196882.734 7                  21965463.940    21965469.900
  21965468.940          47.900          43.400
 122105540.365 7  94971008.181 5                  22850376.520    22850383.960
  22850382.080          45.650          34.600
 115600168.018 8  89911244.185 6                  21625403.120    21625408.540
  21625408.100          48.000          38.750
 15  1 27 10  1  5.0000000  0 22G11G06G08G04G17G03G23G31G09G10G20G32
                                G01R24R17R02R12R10R03R18R11R01
 125160333.587 7  97527503.78346                  23817228.700
  23817227.760          46.950          37.000
 120765650.169 7  94103104.511 7  90182139.139 8  22980940.520    22980942.120
  22980941.200          47.600          45.450
 125854659.003 7  98068586.22046                  23949336.040
  23949335.860          46.950          38.550
 128854346.093 7 100405970.59746                  24520175.920
  24520177.180          45.400          36.000
 113856328.055 8  88719168.872 7                  21666146.300    21666144.040
  21666143.420          49.200          47.100
 109901982.154 8  85637905.384 8  82069662.087 8  20913651.780    20913651.920
  20913651.200          49.900          49.050
 108192846.779 8  84306082.64248                  20588408.780
  20588403.020          50.700          48.150
 128762958.443 7 100334767.762 6                  24502773.340    24502773.420
  24502772.580          44.650          39.200
 113172678.433 8  88186526.388 8  84512096.775 8  21536032.960    21536033.060
  21536032.620          49.350          48.950
 126477512.765 7  98553912.84046                  24067872.580
  24067872.440          44.200          36.250
 109363989.212 8  85218654.76547                  20811277.920
  20811274.500          49.050          46.750
 126609298.353 7  98656602.11245                  24092945.840
  24092945.180          45.750          35.850
 114915139.452 8  89544274.092 7  85813250.283 8  21867626.000    21867627.020
  21867626.780          49.700          47.900
 115467952.093 7  89808412.690 6                  21593096.300    21593100.700
  21593098.940          46.600          38.900
 104210822.697 8  81052860.422 7                  19474289.820    19474292.420
  19474291.080          49.350          47.250
 104981743.712 8  81652483.979 7                  19673536.140    19673539.980
  19673539.400          49.050          46.750
 128884372.095 6 100243451.184 5                  24127424.540    24127436.720
  24127436.420          38.100          35.350
 127173619.903 7  98912872.343 5                  23857443.780    23857455.960
  23857455.300          42.100          33.450
 118227886.368 7  91955043.790 7                  22085960.560    22085964.320
  22085963.340          46.600          43.300
 117236369.177 7  91183852.643 7                  21962325.520    21962331.440
  21962330.560          47.850          43.700
 122096695.339 7  94964128.751 5                  22848721.260    22848728.760
  22848726.880          45.300          34.650
 115614336.591 7  89922264.190 6                  21628053.680    21628059.120
  21628058.660          47.550          39.250
 15  1 27 10  1 10.0000000  0 22G11G06G08G04G17G03G23G31G09G10G20G32
                                G01R24R17R02R12R10R03R18R11R01
 125178598.682 7  97541736.29546                  23820704.420
  23820703.480          46.600          38.750
 120750265.587 7  94091116.525 7  90170650.657 8  22978012.960    22978014.540
  22978013.640          47.650          45.650
 125849916.171 7  98064890.49846                  23948433.480
  23948433.360          46.900          38.350
 128871432.662 7 100419284.76546                  24523427.440
  24523428.720          45.600          36.700
 113859816.831 8  88721887.390 7                  21666810.120    21666807.940
  21666807.320          49.150          47.200
 109908493.992 8  85642979.535 8  82074524.813 8  20914890.940    20914891.100
  20914890.380          49.900          49.100
 108189247.058 8  84303277.66347                  20587723.780
  20587718.000          50.750          47.900
 128769873.302 7 100340155.941 6                  24504089.260    24504089.220
  24504088.340          44.800          39.300
 113159645.675 8  88176371.006 8  84502364.534 8  21533552.840    21533553.000
  21533552.600          49.300          48.900
 126462518.297 7  98542228.81246                  24065019.280
  24065019.060          43.700          36.600
 109357071.720 8  85213264.50647                  20809961.540
  20809958.160          49.000          46.800
 126623506.426 7  98667673.32446                  24095649.540
  24095648.920          45.700          37.500
 114927484.608 8  89553893.682 7  85822469.052 8  21869975.260    21869976.240
  21869975.980          49.650          47.850
 115488252.976 7  89824202.252 6                  21596892.760    21596897.080
  21596895.320          47.250          38.750
 104212259.690 8  81053978.075 7                  19474558.340    19474560.980
  19474559.620          49.450          47.200
 104982598.456 8  81653148.779 7                  19673696.300    19673700.160
  19673699.560          49.350          46.950
 128866039.347 6 100229192.431 6                  24123992.520    24124004.880
  24124004.460          36.800          36.250
 127179716.340 7  98917614.030 5                  23858587.420    23858599.800
  23858598.940          42.650          33.450
 118215271.844 7  91945232.498 7                  22083604.100    22083607.840
  22083606.800          46.850          43.600
 117219629.314 7  91170832.758 7                  21959189.580    21959195.480
  21959194.620          47.950          43.700
 122087867.707 7  94957262.838 5                  22847069.220    22847076.700
  22847074.920          45.000          35.000
 115628507.772 7  89933286.192 6                  21630704.760    21630710.120
  21630709.700          47.700          39.300
 15  1 27 10  1 15.0000000  0 22G11G06G08G04G17G03G23G31G09G10G20G32
                                G01R24R17R02R12R10R03R18R11R01
 125196868.089 7  97555972.15646                  23824180.960
  23824180.000          47.200          37.400
 120734885.475 7  94079132.024 7  90159165.508 8  22975086.240    22975087.820
  22975086.900          47.550          45.900
 125845186.886 7  98061205.32946                  23947533.540
  23947533.420          46.750          39.000
 128888523.114 7 100432601.95245                  24526679.700
  24526681.000          45.800          35.750
 113863322.219 8  88724618.846 7                  21667477.100    21667474.980
  21667474.380          49.150          47.100
 109915012.341 8  85648058.753 8  82079392.401 8  20916131.340    20916131.500
  20916130.780          49.750          49.050
 108185661.697 8  84300483.87948                  20587041.500
  20587035.720          50.850          48.250
 128776803.060 7 100345555.728 6                  24505407.960    24505407.900
  24505406.940          44.950          39.450
 113146624.409 8  88166224.572 8  84492640.872 8  21531074.920    21531075.140
  21531074.760          49.300          48.950
 126447527.420 7  98530547.63645                  24062166.620
  24062166.420          43.800          34.550
 109350161.913 8  85207880.23647                  20808646.640
  20808643.260          49.000          46.950
 126637715.270 7  98678745.11546                  24098353.380
  24098352.780          46.150          36.400
 114939839.496 8  89563520.857 7  85831695.101 8  21872326.340    21872327.300
  21872327.040          49.550          47.900
 115508564.485 7  89840000.071 6                  21600691.180    21600695.460
  21600693.680          47.100          39.100
 104213720.434 8  81055114.197 7                  19474831.340    19474833.960
  19474832.600          49.600          47.250
 104983463.852 8  81653821.864 7                  19673858.480    19673862.340
  19673861.740          49.250          46.950
 128847708.110 6 100214934.873 6                  24120560.780    24120573.220
  24120572.820          37.350          36.350
 127185833.075 7  98922371.501 5                  23859734.920    23859747.280
  23859746.420          42.000          33.550
 118202665.278 7  91935427.393 7                  22081249.040    22081252.820
  22081251.740          46.400          43.750
 117202903.086 7  91157823.462 7                  21956056.140    21956062.120
  21956061.220          47.950          43.650
 122079058.005 7  94950410.869 5                  22845420.580    22845428.040
  22845426.300          45.350          34.300
 115642681.986 7  89944310.565 6                  21633356.380    21633361.600
  21633361.320          47.700          38.850
 15  1 27 10  1 20.0000000  0 22G11G06G08G04G17G03G23G31G09G10G20G32
                                G01R24R17R02R12R10R03R18R11R01
 125215140.457 7  97570210.35246                  23827658.140
  23827657.140          47.450          37.000
 120719508.503 7  94067149.989 7  90147682.710 8  22972160.120    22972161.680
  22972160.840          47.700          45.900
 125840469.803 7  98057529.69646                  23946635.900
  23946635.780          47.100          37.400
 128905616.158 7 100445921.17446                  24529932.460
  24529933.800          45.750          37.300
 113866842.890 8  88727362.229 7                  21668147.020    21668144.940
  21668144.360          49.200          47.150
 109921535.892 8  85653142.036 8  82084263.872 8  20917372.720    20917372.900
  20917372.180          49.900          49.000
 108182089.403 8  84297700.28647                  20586361.720
  20586355.940          50.750          47.950
 128783746.457 7 100350966.151 6                  24506729.300    24506729.220
  24506728.280          45.000          39.850
 113133613.301 8  88156086.056 8  84482924.790 8  21528598.940    21528599.220
  21528598.820          49.250          48.950
 126432538.850 7  98518868.22946                  24059314.420
  24059314.240          43.700          36.300
 109343258.478 8  85202500.93947                  20807332.940
  20807329.580          49.200          46.450
 126651923.504 7  98689816.43946                  24101057.120
  24101056.480          46.300          36.900
 114952202.813 8  89573154.602 7  85840927.428 8  21874679.060    21874679.940
  21874679.700          49.550          47.850
 115528885.282 7  89855805.123 6                  21604491.320    21604495.540
  21604493.800          47.400          38.900
 104215203.616 8  81056267.775 7                  19475108.520    19475111.140
  19475109.800          49.800          47.350
 104984338.465 8  81654502.116 7                  19674022.360    19674026.220
  19674025.640          49.200          46.800
 128829377.116 6 100200677.481 5                  24117129.060    24117141.600
  24117141.180          38.350          35.850
 127191968.758 7  98927143.714 5                  23860885.900    23860898.240
  23860897.460          42.700          33.800
 118190065.419 7  91925627.521 7                  22078895.220    22078899.120
  22078897.960          46.250          43.500
 117186189.166 7  91144823.758 7                  21952925.020    21952931.020
  21952930.160          47.750          43.550
 122070265.043 7  94943571.913 5                  22843775.060    22843782.540
  22843780.800          45.250          35.100
 115656857.955 8  89955336.312 6                  21636008.320    21636013.500
  21636013.220          48.000          38.900
 15  1 27 10  1 25.0000000  0 21G11G06G08G04G17G03G23G31G09G10G20G32
                                G01R24R17R02R10R03R18R11R01
 125233417.176 7  97584451.92946                  23831136.160
  23831135.100          47.650          37.800
 120704136.074 7  94055171.477 7  90136203.304 8  22969234.860    22969236.460
  22969235.620          47.950          45.950
 125835766.347 7  98053864.65346                  23945740.880
  23945740.720          46.900          39.200
 128922713.158 7 100459243.47546                  24533185.960
  24533187.380          45.900          36.300
 113870380.225 8  88730118.588 7                  21668820.080    21668818.100
  21668817.500          49.200          47.100
 109928066.025 8  85658230.443 8  82089140.255 8  20918615.360    20918615.560
  20918614.840          49.800          49.000
 108178531.529 8  84294927.91248                  20585684.680
  20585678.900          50.800          48.000
 128790704.799 7 100356388.225 6                  24508053.460    24508053.360
  24508052.400          44.950          40.050
 113120613.754 8  88145956.543 8  84473217.337 8  21526125.200    21526125.480
  21526125.100          49.300          48.950
 126417553.922 7  98507191.64745                  24056462.960
  24056462.580          44.050          34.500
 109336362.757 8  85197127.64647                  20806020.720
  20806017.380          49.400          46.300
 126666132.531 7  98700888.39445                  24103761.040
  24103760.340          46.600          35.800
 114964575.901 8  89582795.966 7  85850167.069 8  21877033.620    21877034.460
  21877034.240          49.450          47.950
 115549216.608 7  89871618.368 6                  21608293.420    21608297.720
  21608295.860          46.650          38.950
 104216710.597 8  81057439.857 7                  19475390.140    19475392.740
  19475391.440          49.400          47.300
 104985223.659 8  81655190.596 7                  19674188.200    19674192.100
  19674191.540          49.150          46.750
 127198124.663 7  98931931.627 5                  23862040.720    23862053.020
  23862052.360          43.100          33.650
 118177473.504 7  91915833.830 7                  22076542.940    22076546.860
  22076545.680          46.050          43.450
 117169489.013 8  91131834.760 7                  21949796.500    21949802.520
  21949801.700          48.000          43.750
 122061490.166 7  94936747.015 5                  22842132.900    22842140.360
  22842138.720          44.600          35.100
 115671036.951 7  89966364.405 6                  21638660.840    21638665.920
  21638665.720          47.950          38.700
 15  1 27 10  1 30.0000000  0 22G11G06G08G04G17G03G23G31G09G10G20G32
                                G01R24R17R02R12R10R03R18R11R01
 125251697.127 7  97598696.04346                  23834614.780
  23834613.680          47.150          37.800
 120688767.050 7  94043195.612 7  90124726.442 8  22966310.240    22966311.820
  22966311.020          47.850          46.050
 125831075.353 7  98050209.34946                  23944848.280
  23944848.060          47.550          38.100
 128939813.009 7 100472567.97945                  24536440.000
  24536441.480          45.950          35.750
 113873933.165 8  88732887.106 7                  21669496.160    21669494.200
  21669493.640          49.350          47.050
 109934601.573 8  85663323.070 8  82094020.699 8  20919859.040    20919859.240
  20919858.520          50.100          49.000
 108174986.949 8  84292165.89848                  20585010.180
  20585004.380          50.800          48.200
 128797676.844 7 100361820.981 6                  24509380.200    24509380.140
  24509379.180          45.300          40.250
 113107624.615 8  88135835.142 8  84463517.669 8  21523653.420    21523653.720
  21523653.340          49.400          48.900
 126402571.572 7  98495517.08445                  24053611.940
  24053611.420          44.600          34.650
 109329473.666 8  85191759.51847                  20804709.740
  20804706.420          49.450          46.300
 126680341.185 7  98711960.06146                  24106464.880
  24106464.120          46.650          36.850
 114976957.648 8  89592444.070 7  85859413.174 8  21879389.800    21879390.640
  21879390.420          49.450          47.950
 115569557.469 7  89887439.006 6                  21612097.280    21612101.640
  21612099.760          46.400          39.050
 104218240.169 8  81058629.528 7                  19475675.960    19475678.600
  19475677.300          49.250          47.350
 104986118.312 8  81655886.433 7                  19674355.800    19674359.780
  19674359.200          49.150          46.800
 128792715.649 6 100172163.414 5                  24110266.420    24110278.840
  24110278.520          38.300          35.400
 127204299.757 7  98936734.486 5                  23863199.220    23863211.400
  23863210.720          42.700          32.650
 118164888.634 7  91906045.610 7                  22074191.960    22074195.880
  22074194.700          46.350          43.550
 117152801.406 7  91118855.515 7                  21946670.320    21946676.360
  21946675.560          47.950          43.700
 122052732.240 7  94929935.309 5                  22840493.920    22840501.500
  22840499.840          44.650          34.850
 115685217.829 7  89977393.971 6                  21641313.680    21641318.700
  21641318.560          47.500          38.650
 15  1 27 10  1 35.0000000  0 22G11G06G08G04G17G03G23G31G09G10G20G32
                                G01R24R17R02R12R10R03R18R11R01
 125269980.333 7  97612942.65846                  23838093.920
  23838092.800          47.050          37.350
 120673401.505 8  94031222.472 7  90113252.173 8  22963386.300    22963387.880
  22963387.080          48.100          45.950
 125826396.902 7  98046563.79746                  23943958.080
  23943957.780          47.850          37.300
 128956915.751 7 100485894.75645                  24539694.640
  24539696.160          45.900          35.600
 113877501.673 8  88735667.754 7                  21670175.200    21670173.280
  21670172.720          49.400          47.000
 109941142.605 8  85668419.970 8  82098905.220 8  20921103.760    20921103.960
  20921103.240          50.050          48.850
 108171455.676 8  84289414.25248                  20584338.180
  20584332.400          50.850          48.000
 128804662.717 7 100367264.498 6                  24510709.620    24510709.500
  24510708.580          45.300          40.550
 113094645.960 8  88125721.905 8  84453825.816 8  21521183.660    21521183.940
  21521183.560          49.550          48.900
 126387591.785 7  98483844.50945                  24050761.400
  24050760.800          44.100          35.400
 109322591.238 8  85186396.58347                  20803400.060
  20803396.720          49.450          46.150
 126694549.548 7  98723031.49646                  24109168.700
  24109167.840          46.350          37.550
 114989348.091 8  89602098.946 7  85868665.758 8  21881747.640    21881748.480
  21881748.240          49.450          47.950
 115589907.818 7  89903267.037 6                  21615902.920    21615907.320
  21615905.400          46.250          39.550
 104219792.416 8  81059836.825 7                  19475966.040    19475968.700
  19475967.400          49.550          47.400
 104987022.500 8  81656589.684 7                  19674525.220    19674529.220
  19674528.620          49.150          46.750
 128774387.280 6 100157908.066 5                  24106835.340    24106847.640
  24106847.380          37.650          34.900
 127210494.127 7  98941552.321 5                  23864361.280    23864373.620
  23864372.760          43.050          32.950
 118152310.688 7  91896262.768 7                  22071842.300    22071846.240
  22071845.020          46.550          43.450
 117136126.566 7  91105886.195 7                  21943546.540    21943552.580
  21943551.800          47.900          43.800
 122043991.328 7  94923136.835 5                  22838858.140    22838865.660
  22838864.100          44.700          35.000
 115699400.794 7  89988425.162 6                  21643966.900    21643971.920
  21643971.780          47.550          38.650
 15  1 27 10  1 40.0000000  0 22G11G06G08G04G17G03G23G31G09G10G20G32
                                G01R24R17R02R12R10R03R18R11R01
 125288266.651 7  97627191.71446                  23841573.660
  23841572.560          47.150          37.100
 120658039.287 8  94019251.910 7  90101780.392 8  22960462.960    22960464.540
  22960463.760          48.000          45.700
 125821730.830 7  98042927.90546                  23943070.240
  23943069.800          47.800          37.700
 128974021.230 7 100499223.66845                  24542949.800
  24542951.300          46.100          35.850
 113881085.555 8  88738460.387 7                  21670857.160    21670855.280
  21670854.760          49.600          47.000
 109947688.961 8  85673521.024 8  82103793.734 8  20922349.480    20922349.700
  20922348.980          49.950          48.850
 108167937.548 8  84286672.85847                  20583668.700
  20583662.920          50.950          47.850
 128811662.227 7 100372718.654 6                  24512041.640    24512041.520
  24512040.620          45.300          40.850
 113081677.636 8  88115616.727 8  84444141.695 8  21518715.840    21518716.140
  21518715.720          49.750          48.850
 126372614.454 7  98472173.87745                  24047911.280
  24047910.780          44.600          35.550
 109315715.300 8  85181038.70847                  20802091.580
  20802088.280          49.600          45.900
 126708757.440 7  98734102.55446                  24111872.400
  24111871.580          46.350          37.900
 115001747.064 8  89611760.471 7  85877924.725 8  21884107.060    21884107.920
  21884107.700          49.300          47.950
 115610267.441 7  89919102.278 6                  21619710.260    21619714.680
  21619712.760          46.450          39.250
 104221367.246 8  81061061.690 7                  19476260.360    19476262.980
  19476261.720          49.600          47.300
 104987936.075 8  81657300.250 7                  19674696.400    19674700.420
  19674699.840          49.100          46.750
 128756059.326 6 100143653.069 5                  24103404.360    24103416.540
  24103416.300          38.950          35.300
 127216707.689 7  98946385.102 5                  23865526.960    23865539.300
  23865538.440          43.250          32.900
 118139739.535 7  91886485.221 7                  22069493.900    22069497.840
  22069496.600          46.150          43.400
 117119464.177 7  91092926.565 7                  21940425.060    21940431.120
  21940430.360          47.500          43.800
