     2.11           OBSERVATION DATA    M (MIXED)           RINEX VERSION / TYPE
teqc  2011Oct11     IGN-E (SPG)         20150127 12:06:34UTCPGM / RUN BY / DATE
Linux 2.4.21-27.ELsmp|Opteron|gcc -static|Linux x86_64|=+   COMMENT
BIT 2 OF LLI FLAGS DATA COLLECTED UNDER A/S CONDITION       COMMENT
VALE                                                        MARKER NAME
13439M001                                                   MARKER NUMBER
Programas GeodesicosInstituto Geografico Nacional           OBSERVER / AGENCY
1700071             LEICA GR10          3.03/6.214          REC # / TYPE / VERS
10190012            LEIAR25.R3      LEIT                    ANT # / TYPE
  4929534.0457   -29050.6755  4033709.9250                  APPROX POSITION XYZ
        3.0390        0.0000        0.0000                  ANTENNA: DELTA H/E/N
     1     1                                                WAVELENGTH FACT L1/2
     8    L1    L2    L5    C1    C2    P2    S1    S2      # / TYPES OF OBSERV
     5.0000                                                 INTERVAL
Forced Modulo Decimation to 5 seconds                       COMMENT
DefaultJobName                                              COMMENT
DefaultUserDiscription                                      COMMENT
Project creator:                                            COMMENT
 SNR is mapped to RINEX snr flag value [0-9]                COMMENT
  L1 & L2: min(max(int(snr_dBHz/6), 0), 9)                  COMMENT
  2015     1    27    11     0    0.0000000     GPS         TIME OF FIRST OBS
    15                                                      LEAP SECONDS
                                                            END OF HEADER
 15  1 27 11  0  0.0000000  0 22G06G07G08G02G17G03G23G09G10G20G32G01
                                R24R17R02R12R13R19R03R18R11R01
 111441650.861 8  86837654.200 8  83219416.593 8  21206639.980    21206640.400
  21206639.620          50.300          48.850
 124748235.874 7  97206474.943 6                  23738785.360    23738786.340
  23738785.760          47.650          41.700
 126003731.266 7  98184746.97046                  23977703.560
  23977702.900          46.150          38.050
 130607225.529 7 101771857.00446                  24853729.040
  24853726.040          44.550          36.400
 119853366.521 8  93392178.348 7                  22807350.620    22807349.960
  22807349.460          48.400          44.600
 115844294.872 8  90268274.565 7  86507098.252 8  22044440.100    22044440.840
  22044439.940          50.300          46.550
 108945369.768 8  84892464.24947                  20731608.540
  20731603.060          50.200          46.800
 106981580.694 8  83362297.651 8  79888878.283 8  20357903.460    20357903.200
  20357902.820          50.450          50.050
 116747250.325 8  90971897.83546                  22216259.380
  22216257.680          48.050          41.800
 106304035.526 8  82834276.14447                  20228987.800
  20228983.540          48.950          47.950
 136572731.013 6 106420304.75345                  25988932.040
  25988934.600          41.150          32.250
 125597898.614 7  97868490.086 7  93790621.481 8  23900496.600    23900500.340
  23900500.160          46.250          42.350
 131223102.086 6 102062593.375 5                  24539414.580    24539427.860
  24539426.180          41.250          30.000
 110652192.100 8  86062808.867 7                  20678018.040    20678021.420
  20678020.120          48.650          46.050
 107675363.278 8  83747520.429 7                  20178320.000    20178324.140
  20178323.480          49.300          46.650
 117341468.719 7  91265618.349 6                  21966568.440    21966575.860
  21966575.400          43.950          41.250
 128695490.069 5 100096562.919 6                  24100523.800    24100537.440
  24100535.640          35.750          38.700
 129813972.949 7 100966421.295 6                  24267353.080    24267357.260
  24267355.140          42.200          36.650
 111114050.579 7  86422065.998 7                  20757031.840    20757034.500
  20757033.240          47.150          46.400
 109626372.933 8  85264969.557 7                  20536713.940    20536719.700
  20536719.200          48.950          47.000
 120809413.674 7  93962912.102 6                  22607821.740    22607828.740
  22607827.340          45.150          36.250
 125901783.643 7  97923601.759 5                  23552541.240    23552549.120
  23552548.740          45.100          34.400
 15  1 27 11  0  5.0000000  0 22G06G07G08G02G17G03G23G09G10G20G32G01
                                R24R17R02R12R13R19R03R18R11R01
 111431564.277 8  86829794.529 8  83211884.410 8  21204720.560    21204721.000
  21204720.220          50.300          48.900
 124731399.993 7  97193356.089 6                  23735581.620    23735582.560
  23735582.020          47.750          41.250
 126009074.150 7  98188910.25246                  23978720.260
  23978719.640          46.050          37.350
 130590028.355 7 101758456.62646                  24850456.540
  24850453.540          44.150          36.300
 119865998.538 8  93402021.456 7                  22809754.420    22809753.760
  22809753.280          48.350          44.500
 115854460.184 8  90276195.593 7  86514689.235 8  22046374.600    22046375.240
  22046374.280          49.950          46.750
 108950769.693 8  84896671.97947                  20732636.120
  20732630.620          50.200          46.600
 106977394.025 8  83359035.321 8  79885751.885 8  20357106.760    20357106.480
  20357106.100          50.250          50.000
 116734925.801 7  90962294.32246                  22213914.100
  22213912.400          47.950          40.800
 106302428.018 8  82833023.54347                  20228681.900
  20228677.660          48.800          47.600
 136586615.691 6 106431123.94745                  25991574.240
  25991576.820          40.850          30.650
 125615244.041 7  97882005.969 7  93803574.208 8  23903797.340    23903801.060
  23903800.860          46.250          42.400
 131245873.429 7 102080304.295 5                  24543673.020    24543687.980
  24543684.120          42.050          30.600
 110668077.716 8  86075164.327 7                  20680986.660    20680990.020
  20680988.720          48.350          46.050
 107681631.057 8  83752395.362 7                  20179494.600    20179498.720
  20179498.060          49.350          46.750
 117328883.280 7  91255829.702 6                  21964212.360    21964219.740
  21964219.320          43.850          41.200
 128674613.402 5 100080325.572 6                  24096614.180    24096627.900
  24096626.000          35.350          37.950
 129794375.197 7 100951178.591 6                  24263689.520    24263693.640
  24263691.660          42.450          37.100
 111106451.780 7  86416155.834 7                  20755612.300    20755614.980
  20755613.680          47.200          46.350
 109622762.149 8  85262161.171 7                  20536037.520    20536043.260
  20536042.760          48.900          47.000
 120815077.156 7  93967317.031 6                  22608881.580    22608888.560
  22608887.200          44.650          36.450
 125916377.916 7  97934952.837 5                  23555271.420    23555279.200
  23555278.900          44.600          33.250
 15  1 27 11  0 10.0000000  0 22G06G07G08G02G17G03G23G09G10G20G32G01
                                R24R17R02R12R13R19R03R18R11R01
 111421489.407 8  86821943.985 8  83204360.972 8  21202803.380    21202803.820
  21202803.080          50.150          48.900
 124714566.430 7  97180239.029 6                  23732378.300    23732379.240
  23732378.640          47.800          41.100
 126014431.680 7  98193084.94646                  23979739.800
  23979739.140          46.050          38.250
 130572832.838 7 101745057.54546                  24847184.360
  24847181.320          44.250          37.100
 119878639.736 8  93411871.722 7                  22812159.960    22812159.320
  22812158.860          48.250          44.400
 115864630.580 8  90284120.571 7  86522284.001 8  22048310.040    22048310.560
  22048309.600          49.750          46.750
 108956180.921 8  84900888.52247                  20733665.880
  20733660.340          50.250          46.450
 106973220.923 8  83355783.561 8  79882635.617 8  20356312.640    20356312.360
  20356311.980          50.150          50.000
 116722606.371 7  90952694.77146                  22211569.780
  22211568.100          47.950          41.650
 106300828.985 8  82831777.53847                  20228377.600
  20228373.380          48.750          47.850
 136600500.026 6 106441942.87245                  25994216.420
  25994218.900          40.950          31.600
 125632594.421 7  97895525.727 7  93816530.633 8  23907099.020    23907102.740
  23907102.560          45.800          42.550
 131268642.521 6 102098013.457 5                  24547931.060    24547945.360
  24547942.060          41.750          31.400
 110683979.273 8  86087532.186 7                  20683958.240    20683961.620
  20683960.300          48.400          45.600
 107687904.932 8  83757275.047 7                  20180670.340    20180674.440
  20180673.760          49.450          46.550
 117316313.573 7  91246053.275 6                  21961859.260    21961866.620
  21961866.220          43.950          41.000
 128653735.627 5 100064087.352 6                  24092704.180    24092718.000
  24092716.180          34.900          37.550
 129774786.111 7 100935942.641 6                  24260027.520    24260031.660
  24260029.760          42.950          37.600
 111098859.980 7  86410251.113 7                  20754194.040    20754196.780
  20754195.460          47.150          46.550
 109619174.332 8  85259370.653 7                  20535365.400    20535371.140
  20535370.640          49.250          47.000
 120820762.211 7  93971738.742 6                  22609945.480    22609952.520
  22609951.120          44.700          36.050
 125930972.269 7  97946304.002 5                  23558001.580    23558009.260
  23558009.100          43.850          33.600
 15  1 27 11  0 15.0000000  0 22G06G07G08G02G17G03G23G09G10G20G32G01
                                R24R17R02R12R13R19R03R18R11R01
 111411426.826 8  86814103.021 8  83196846.705 8  21200888.520    21200888.980
  21200888.240          50.000          49.050
 124697735.687 7  97167124.170 6                  23729175.500    23729176.440
  23729175.820          47.650          41.250
 126019804.381 7  98197271.44246                  23980762.200
  23980761.560          45.800          39.100
 130555639.437 7 101731660.10046                  24843912.560
  24843909.460          44.100          37.300
 119891290.648 7  93421729.548 7                  22814567.380    22814566.760
  22814566.280          47.950          44.400
 115874806.567 8  90292049.918 7  86529882.955 8  22050246.500    22050246.980
  22050246.040          49.600          46.700
 108961603.933 8  84905114.24547                  20734697.860
  20734692.320          50.150          46.700
 106969061.949 8  83352542.801 8  79879529.893 8  20355521.220    20355520.940
  20355520.540          50.050          50.050
 116710292.552 7  90943099.59946                  22209226.540
  22209224.840          47.900          41.850
 106299238.953 8  82830538.55548                  20228075.020
  20228070.820          48.650          48.050
 136614384.552 6 106452762.02445                  25996858.580
  25996861.140          39.300          31.300
 125649950.279 7  97909049.741 7  93829491.125 8  23910401.780    23910405.480
  23910405.300          45.850          42.300
 131291409.645 6 102115721.083 5                  24552188.680    24552201.800
  24552199.600          40.450          32.050
 110699897.135 8  86099912.735 7                  20686932.860    20686936.320
  20686934.940          48.500          45.700
 107694185.475 8  83762159.918 7                  20181847.320    20181851.400
  20181850.720          49.450          46.550
 117303760.164 7  91236289.531 6                  21959509.200    21959516.540
  21959516.160          43.650          40.950
 128632857.204 6 100047848.662 6                  24088794.260    24088808.080
  24088806.280          36.000          37.800
 129755206.418 7 100920713.989 6                  24256367.240    24256371.400
  24256369.640          43.700          37.500
 111091275.581 7  86404352.150 7                  20752777.180    20752779.920
  20752778.640          47.000          46.650
 109615610.010 8  85256598.399 7                  20534697.680    20534703.420
  20534702.920          49.150          46.950
 120826469.317 7  93976177.608 6                  22611013.440    22611020.540
  22611019.160          44.600          36.050
 125945567.033 7  97957655.452 5                  23560731.780    23560739.460
  23560739.300          43.700          34.200
 15  1 27 11  0 20.0000000  0 22G06G07G08G02G17G03G23G09G10G20G32G01
                                R24R17R02R12R13R19R03R18R11R01
 111401375.055 8  86806270.480 8  83189340.516 8  21198975.720    21198976.180
  21198975.480          50.000          49.050
 124680906.383 7  97154010.462 6                  23725972.980    23725973.940
  23725973.320          47.600          41.350
 126025190.774 7  98201468.62746                  23981787.220
  23981786.600          46.050          37.850
 130538446.737 7 101718263.20146                  24840640.900
  24840637.820          44.400          37.750
 119903949.774 8  93431593.780 7                  22816976.340    22816975.700
  22816975.280          48.050          44.350
 115884986.722 8  90299982.510 7  86537485.003 8  22052183.720    22052184.220
  22052183.300          49.100          47.250
 108967037.257 8  84909347.99747                  20735731.780
  20735726.240          50.350          46.750
 106964915.623 8  83349311.900 8  79876433.607 8  20354732.200    20354731.900
  20354731.500          50.250          50.100
 116697982.930 7  90933507.68246                  22206884.100
  22206882.380          47.950          41.250
 106297656.472 8  82829305.45547                  20227773.860
  20227769.680          48.700          47.850
 136628267.815 6 106463580.14845                  25999500.540
  25999503.080          38.300          30.300
 125667310.157 7  97922576.899 7  93842454.622 8  23913705.260    23913709.000
  23913708.840          46.000          42.900
 131314173.649 6 102133426.289 5                  24556445.700    24556458.460
  24556456.780          39.100          30.050
 110715829.873 8  86112304.854 7                  20689910.260    20689913.740
  20689912.360          48.950          46.050
 107700471.141 8  83767048.762 7                  20183025.280    20183029.320
  20183028.640          49.450          46.350
 117291221.493 7  91226537.246 6                  21957161.940    21957169.160
  21957168.860          43.550          40.950
 128611976.476 6 100031608.166 6                  24084883.880    24084897.720
  24084895.960          36.200          38.200
 129735634.476 7 100905491.359 6                  24252708.500    24252712.720
  24252710.900          42.850          36.800
 111083697.402 7  86398458.020 7                  20751361.480    20751364.280
  20751363.000          46.950          46.650
 109612067.669 8  85253843.255 7                  20534034.120    20534039.840
  20534039.340          48.950          46.950
 120832197.081 7  93980632.536 5                  22612085.320    22612092.360
  22612091.040          43.800          35.650
 125960160.768 7  97969006.102 5                  23563461.840    23563469.540
  23563469.440          44.250          34.650
 15  1 27 11  0 25.0000000  0 22G06G07G08G02G17G03G23G09G10G20G32G01
                                R24R17R02R12R13R19R03R18R11R01
 111391333.975 8  86798446.264 8  83181842.315 8  21197064.940    21197065.420
  21197064.740          49.850          49.200
 124664078.362 7  97140897.724 6                  23722770.720    23722771.700
  23722771.120          47.350          41.600
 126030590.720 7  98205676.35246                  23982814.780
  23982814.320          45.750          37.800
 130521254.607 7 101704866.74046                  24837369.380
  24837366.280          44.400          37.000
 119916616.971 8  93441464.309 7                  22819386.840    22819386.200
  22819385.780          48.000          44.650
 115895170.862 8  90307918.175 7  86545090.029 8  22054121.640    22054122.220
  22054121.340          48.900          47.700
 108972480.761 8  84913589.69147                  20736767.660
  20736762.120          50.350          46.800
 106960781.792 8  83346090.737 8  79873346.663 8  20353945.560    20353945.240
  20353944.840          50.400          50.200
 116685677.322 7  90923918.90646                  22204542.400
  22204540.660          47.800          41.300
 106296081.410 8  82828078.13148                  20227474.100
  20227469.960          48.450          48.350
 136642149.737 6 106474397.19445                  26002142.200
  26002144.880          38.400          32.750
 125684673.885 7  97936107.039 7  93855421.008 8  23917009.480    23917013.240
  23917013.100          45.700          42.650
 131336934.271 6 102151128.840 5                  24560702.160    24560715.860
  24560713.280          40.450          31.150
 110731777.408 8  86124708.476 7                  20692890.440    20692893.920
  20692892.560          49.150          46.250
 107706761.785 8  83771941.477 7                  20184204.120    20184208.200
  20184207.500          49.150          46.550
 117278697.480 7  91216796.368 6                  21954817.400    21954824.580
  21954824.280          43.900          41.350
 128591093.676 6 100015366.055 6                  24080973.200    24080986.980
  24080985.240          36.650          38.200
 129716070.136 7 100890274.636 6                  24249051.160    24249055.320
  24249053.580          42.300          36.750
 111076124.988 7  86392568.364 7                  20749946.880    20749949.740
  20749948.440          47.000          46.650
 109608547.170 8  85251105.093 7                  20533374.640    20533380.300
  20533379.860          49.100          46.850
 120837945.119 7  93985103.230 5                  22613160.960    22613168.020
  22613166.680          44.300          35.250
 125974753.341 7  97980355.877 5                  23566191.680    23566199.440
  23566199.300          43.400          34.100
 15  1 27 11  0 30.0000000  0 22G06G07G08G02G17G03G23G09G10G20G32G01
                                R24R17R02R12R13R19R03R18R11R01
 111381305.444 8  86790631.834 8  83174353.491 8  21195156.540    21195157.040
  21195156.380          49.850          49.200
 124647253.449 7  97127787.411 6                  23719569.060    23719570.040
  23719569.460          46.800          41.450
 126036006.128 7  98209896.13146                  23983845.320
  23983844.900          45.650          38.600
 130504064.927 7 101691472.19645                  24834098.300
  24834095.160          44.500          35.900
 119929294.082 8  93451342.565 7                  22821799.220    22821798.600
  22821798.140          48.000          44.600
 115905360.865 8  90315858.429 7  86552699.448 8  22056060.640    22056061.360
  22056060.540          48.950          47.550
 108977936.316 8  84917840.77447                  20737805.840
  20737800.300          50.300          46.700
 106956662.327 8  83342880.773 8  79870270.455 8  20353161.660    20353161.320
  20353160.920          50.550          50.150
 116673377.619 7  90914334.72547                  22202201.800
  22202200.060          47.750          42.400
 106294515.582 8  82826858.01048                  20227176.100
  20227172.000          48.550          48.100
 136656032.098 6 106485214.56145                  26004783.960
  26004786.700          39.550          30.000
 125702043.348 7  97949641.647 6  93868391.668 8  23920314.780    23920318.560
  23920318.400          45.750          41.850
 131359693.216 6 102168830.111 5                  24564958.300    24564971.640
  24564969.180          41.400          30.800
 110747741.635 8  86137125.078 7                  20695873.720    20695877.240
  20695875.860          49.000          46.050
 107713059.393 8  83776839.606 7                  20185384.300    20185388.380
  20185387.680          49.000          46.600
 117266190.112 7  91207068.444 6                  21952476.020    21952483.100
  21952482.840          43.950          41.050
 128570210.543 6  99999123.670 6                  24077062.480    24077076.140
  24077074.500          36.400          38.200
 129696515.488 7 100875065.489 6                  24245395.620    24245399.760
  24245398.000          42.350          36.600
 111068560.460 7  86386684.863 7                  20748533.780    20748536.640
  20748535.360          47.200          46.700
 109605050.426 8  85248385.399 7                  20532719.600    20532725.220
  20532724.780          49.100          46.750
 120843715.420 7  93989591.248 5                  22614240.780    22614247.760
  22614246.420          44.600          34.800
 125989346.606 7  97991706.167 5                  23568921.640    23568929.300
  23568929.200          44.000          33.200
 15  1 27 11  0 35.0000000  0 22G06G07G08G02G17G03G23G09G10G20G32G01
                                R24R17R02R12R13R19R03R18R11R01
 111371288.122 8  86782826.131 8  83166873.021 8  21193250.300    21193250.820
  21193250.140          49.900          49.100
 124630430.367 7  97114678.532 6                  23716367.720    23716368.720
  23716368.140          46.250          41.350
 126041435.539 7  98214126.84446                  23984878.500
  23984878.140          45.800          38.050
 130486876.273 7 101678078.44846                  24830827.360
  24830824.240          43.950          37.050
 119941979.725 8  93461227.462 7                  22824213.220    22824212.620
  22824212.180          48.200          44.700
 115915555.332 8  90323802.171 7  86560312.184 8  22058000.500    22058001.340
  22058000.600          48.850          47.850
 108983402.501 8  84922100.13947                  20738846.040
  20738840.480          50.450          46.650
 106952555.838 8  83339680.923 8  79867203.931 8  20352380.220    20352379.900
  20352379.460          50.550          50.250
 116661082.418 7  90904754.06546                  22199862.080
  22199860.320          47.950          41.200
 106292957.619 8  82825644.01348                  20226879.580
  20226875.560          48.650          48.350
 136669913.524 6 106496031.27545                  26007425.500
  26007428.000          39.700          34.500
 125719417.116 7  97963179.629 6  93881365.544 8  23923620.920    23923624.640
  23923624.460          45.950          41.450
 131382449.388 6 102186529.257 5                  24569213.920    24569226.980
  24569224.600          41.150          31.000
 110763720.934 8  86149553.408 7                  20698859.800    20698863.360
  20698862.000          48.850          46.400
 107719362.417 8  83781741.950 7                  20186565.480    20186569.580
  20186568.900          49.100          46.750
 117253698.038 7  91197352.407 6                  21950137.440    21950144.520
  21950144.220          43.600          40.750
 128549325.706 5  99982879.972 6                  24073151.320    24073164.940
  24073163.380          35.650          37.750
 129676968.924 7 100859862.609 6                  24241741.600    24241745.720
  24241743.960          42.850          37.300
 111061002.167 7  86380806.193 7                  20747121.840    20747124.720
  20747123.460          47.150          46.600
 109601576.059 8  85245683.114 7                  20532068.780    20532074.340
  20532073.900          49.100          46.700
 120849506.675 7  93994095.566 5                  22615324.540    22615331.420
  22615330.060          45.250          35.650
 126003939.133 7  98003055.908 5                  23571651.520    23571659.020
  23571658.960          43.850          33.400
 15  1 27 11  0 40.0000000  0 22G06G07G08G02G17G03G23G09G10G20G32G01
                                R24R17R02R12R13R19R03R18R11R01
 111361283.273 8  86775030.140 8  83159401.869 8  21191346.420    21191346.960
  21191346.260          49.750          49.150
 124613610.352 7  97101572.047 6                  23713166.960    23713168.020
  23713167.400          47.050          41.750
 126046880.252 7  98218369.46646                  23985914.600
  23985914.260          45.950          39.850
 130469689.945 7 101664686.53346                  24827556.880
  24827553.820          43.950          37.150
 119954675.134 8  93471119.962 7                  22826629.080    22826628.480
  22826628.000          48.600          44.550
 115925755.550 8  90331750.362 8  86567929.216 8  22059941.420    22059942.400
  22059941.760          48.900          48.000
 108988880.579 8  84926368.76947                  20739888.500
  20739882.940          50.400          46.600
 106948463.615 8  83336492.179 8  79864148.052 8  20351601.500    20351601.160
  20351600.720          50.450          50.200
 116648793.040 8  90895177.92846                  22197523.460
  22197521.700          48.100          41.950
 106291408.832 8  82824437.15748                  20226584.840
  20226580.840          48.600          48.350
 136683795.291 6 106506848.24745                  26010067.120
  26010069.820          41.550          32.800
 125736796.482 7  97976721.962 6  93894343.611 8  23926928.180    23926931.840
  23926931.600          46.450          41.850
 131405203.735 6 102204226.932 5                  24573469.180    24573481.800
  24573479.980          40.850          30.350
 110779716.616 8  86161994.471 7                  20701849.000    20701852.540
  20701851.200          48.950          46.250
 107725672.258 8  83786649.594 7                  20187747.960    20187752.060
  20187751.400          49.450          46.750
 117241222.400 7  91187649.144 6                  21947802.020    21947809.000
  21947808.660          43.450          40.800
 128528440.576 5  99966635.996 6                  24069240.200    24069253.760
  24069252.180          35.850          38.550
 129657431.988 7 100844667.209 6                  24238089.340    24238093.480
  24238091.740          43.750          36.400
 111053451.723 7  86374933.625 7                  20745711.400    20745714.280
  20745712.980          47.100          46.600
 109598125.340 8  85242999.215 7                  20531422.380    20531427.920
  20531427.440          49.300          46.650
 120855320.059 7  93998617.091 5                  22616412.440    22616419.320
  22616417.860          44.950          35.650
 126018532.288 7  98014406.134 5                  23574381.560    23574388.980
  23574388.800          43.600          34.000
 15  1 27 11  0 45.0000000  0 22G06G07G08G02G17G03G23G09G10G20G32G01
                                R24R17R02R12R13R19R03R18R11R01
 111351287.862 8  86767241.516 8  83151937.766 8  21189444.320    21189444.880
  21189444.180          49.750          49.200
 124596790.360 7  97088465.570 6                  23709966.200    23709967.320
  23709966.660          46.950          41.950
 126052337.207 7  98222621.63046                  23986953.040
  23986952.700          45.700          38.500
 130452502.931 7 101651294.05546                  24824286.300
  24824283.220          44.300          37.100
 119967377.282 8  93481017.728 7                  22829046.200    22829045.600
  22829045.140          48.750          44.550
 115935958.480 8  90339700.681 8  86575548.271 8  22061882.900    22061883.980
  22061883.440          49.100          48.050
 108994367.524 8  84930644.31147                  20740932.640
  20740927.060          50.300          46.900
 106944382.599 8  83333312.172 8  79861100.542 8  20350824.920    20350824.560
  20350824.120          50.450          50.200
 116636506.380 8  90885603.92046                  22195185.380
  22195183.580          48.000          41.400
 106289866.121 8  82823235.05448                  20226291.260
  20226287.300          48.650          48.350
 136697674.384 7 106517663.14444                  26012708.240
  26012710.880          42.650          27.300
 125754178.350 7  97990266.260 6  93907323.572 8  23930235.920    23930239.500
  23930239.220          46.450          41.600
 131427953.373 6 102221920.976 4                  24577723.500    24577736.220
  24577734.540          39.400          28.900
 110795725.679 8  86174445.978 7                  20704840.660    20704844.260
  20704842.880          48.650          46.100
 107731985.776 8  83791560.098 7                  20188931.100    20188935.240
  20188934.600          49.300          46.700
 117228760.230 7  91177956.372 6                  21945469.080    21945476.040
  21945475.640          43.100          40.600
 128507551.822 5  99950389.257 6                  24065328.380    24065341.940
  24065340.300          35.200          38.200
 129637901.501 7 100829476.825 6                  24234438.340    24234442.440
  24234440.720          43.000          36.400
 111045905.676 7  86369064.490 7                  20744301.800    20744304.620
  20744303.320          47.400          46.350
 109594695.185 8  85240331.325 7                  20530779.820    20530785.300
  20530784.840          49.350          46.600
 120861152.501 7  94003153.453 5                  22617503.880    22617510.820
  22617509.200          44.650          35.400
 126033122.934 7  98025754.376 5                  23577111.040    23577118.560
  23577118.300          43.400          34.050
 15  1 27 11  0 50.0000000  0 22G06G07G08G02G17G03G23G09G10G20G32G01
                                R24R17R02R12R13R19R03R18R11R01
 111341305.667 8  86759463.185 8  83144483.539 8  21187544.720    21187545.340
  21187544.600          49.750          49.300
 124579974.218 7  97075362.087 7                  23706766.200    23706767.300
  23706766.660          47.100          42.700
 126057810.180 7  98226886.27046                  23987994.520
  23987994.180          45.800          37.750
 130435319.007 7 101637903.99246                  24821016.340
  24821013.260          44.100          37.400
 119980089.909 8  93490923.655 7                  22831465.320    22831464.720
  22831464.260          48.400          44.550
 115946167.865 8  90347656.040 7  86583172.159 8  22063825.620    22063826.820
  22063826.340          48.800          47.950
 108999867.103 8  84934929.68947                  20741979.180
  20741973.600          50.050          47.000
 106940316.558 8  83330143.830 8  79858064.226 8  20350051.220    20350050.800
  20350050.380          50.550          50.250
 116624226.248 8  90876034.99247                  22192848.560
  22192846.700          48.000          42.000
 106288333.299 8  82822040.64448                  20225999.560
  20225995.600          48.650          48.300
 136711554.541 7 106528478.84744                  26015349.540
  26015352.080          43.300          28.200
 125771566.551 7  98003815.489 7  93920308.239 8  23933544.840    23933548.420
  23933548.100          46.300          42.250
 131450702.099 6 102239614.295 4                  24581977.700    24581990.000
  24581988.540          39.650          28.350
 110811751.892 8  86186910.790 7                  20707835.540    20707839.140
  20707837.780          48.350          45.850
 107738306.748 8  83796476.399 7                  20190115.640    20190119.820
  20190119.180          49.250          46.800
 117216315.361 7  91168277.036 6                  21943139.400    21943146.280
  21943145.880          43.350          40.700
 128486663.527 5  99934142.857 6                  24061416.620    24061430.180
  24061428.520          35.850          38.650
 129618381.344 7 100814294.479 6                  24230789.260    24230793.500
  24230791.660          42.900          37.000
 111038368.086 7  86363201.927 7                  20742893.780    20742896.560
  20742895.240          47.300          46.600
 109591289.455 8  85237682.435 7                  20530141.880    20530147.240
  20530146.800          49.300          46.700
 120867007.897 7  94007707.656 5                  22618599.600    22618606.640
  22618604.880          44.850          35.350
 126047714.862 7  98037103.625 5                  23579840.760    23579848.360
  23579848.000          43.750          33.600
 15  1 27 11  0 55.0000000  0 22G06G07G08G02G17G03G23G09G10G20G32G01
                                R24R17R02R12R13R19R03R18R11R01
 111331333.115 8  86751692.376 8  83137036.514 8  21185646.960    21185647.620
  21185646.880          49.700          49.350
 124563158.309 7  97062258.792 7                  23703566.260    23703567.360
  23703566.760          47.300          42.950
 126063295.562 7  98231160.58146                  23989038.360
  23989038.080          46.300          36.950
 130418134.550 7 101624513.52546                  24817746.240
  24817743.140          44.000          37.500
 119992809.407 8  93500834.942 7                  22833885.740    22833885.160
  22833884.700          48.050          44.600
 115956380.139 8  90355613.650 8  86590798.198 8  22065768.920    22065770.160
  22065769.760          48.850          48.050
 109005375.675 8  84939222.08347                  20743027.440
  20743021.840          50.050          47.000
 106936261.901 8  83326984.366 8  79855036.404 8  20349279.680    20349279.220
  20349278.800          50.600          50.350
 116611949.048 8  90866468.35746                  22190512.300
  22190510.380          48.250          41.650
 106286806.779 8  82820851.15548                  20225709.080
  20225705.120          48.700          48.250
 136725432.159 7 106539292.61745                  26017990.360
  26017992.800          43.550          31.950
 125788957.434 7  98017366.781 7  93933294.893 8  23936854.260    23936857.840
  23936857.560          46.550          42.650
 131473446.047 6 102257303.910 5                  24586231.040    24586243.740
  24586241.700          41.350          30.250
 110827791.574 8  86199386.092 7                  20710832.920    20710836.560
  20710835.200          48.300          45.800
 107744631.509 8  83801395.656 7                  20191300.900    20191305.080
  20191304.460          49.450          46.800
 117203884.170 7  91158608.350 6                  21940812.240    21940819.100
  21940818.720          43.300          41.000
 128465771.973 5  99917893.926 6                  24057504.240    24057517.700
  24057516.160          35.900          39.250
 129598867.707 7 100799117.229 6                  24227141.400    24227145.720
  24227143.880          42.550          37.350
 111030835.277 7  86357343.092 7                  20741486.620    20741489.380
  20741488.060          47.100          46.450
 109587904.504 8  85235049.707 7                  20529507.820    20529513.120
  20529512.660          49.150          46.700
 120872882.436 7  94012276.749 5                  22619698.920    22619706.040
  22619704.160          44.500          35.750
 126062304.522 7  98048451.129 5                  23582570.120    23582577.580
  23582577.220          44.350          33.800
 15  1 27 11  1  0.0000000  0 22G06G07G08G02G17G03G23G09G10G20G32G01
                                R24R17R02R12R13R19R03R18R11R01
 111321372.503 8  86743930.855 8  83129598.394 8  21183751.480    21183752.180
  21183751.420          49.750          49.450
 124546344.873 7  97049157.405 7                  23700366.780    23700367.860
  23700367.300          47.800          43.150
 126068795.626 7  98235446.34246                  23990085.020
  23990084.760          46.450          38.850
 130400951.924 7 101611124.48446                  24814476.500
  24814473.340          44.350          37.850
 120005538.054 7  93510753.346 7                  22836307.920    22836307.360
  22836306.860          47.900          44.650
 115966597.544 8  90363575.256 8  86598428.084 8  22067713.200    22067714.480
  22067714.160          49.250          48.100
 109010895.559 8  84943523.28547                  20744077.820
  20744072.240          50.250          46.900
 106932220.908 8  83323835.546 8  79852018.795 8  20348510.720    20348510.240
  20348509.800          50.700          50.350
 116599677.042 8  90856905.75746                  22188177.040
  22188175.080          48.400          41.550
 106285288.820 8  82819668.33048                  20225420.200
  20225416.260          48.800          48.150
 136739309.531 6 106550106.21044                  26020631.180
  26020633.820          41.550          27.750
 125806353.314 7  98030921.982 7  93946285.272 8  23940164.640    23940168.220
  23940167.900          46.600          42.400
 131496187.872 7 102274991.863 5                  24590484.000    24590496.220
  24590494.580          42.700          31.550
 110843846.967 8  86211873.604 7                  20713833.260    20713836.900
  20713835.580          48.600          45.950
 107750962.426 8  83806319.689 7                  20192487.300    20192491.540
  20192490.900          49.450          46.650
 117191468.879 7  91148952.034 6                  21938488.100    21938494.960
  21938494.520          43.700          40.950
 128444879.508 6  99901644.308 6                  24053591.660    24053605.160
  24053603.640          36.250          39.000
 129579363.151 7 100783947.018 6                  24223495.200    24223499.480
  24223497.760          42.800          37.000
 111023309.470 7  86351489.697 7                  20740080.760    20740083.460
  20740082.180          47.400          46.350
 109584542.591 8  85232434.876 7                  20528878.080    20528883.300
  20528882.840          49.600          46.450
 120878778.500 7  94016862.570 5                  22620802.300    22620809.480
  22620807.520          44.650          35.700
 126076894.138 7  98059798.607 5                  23585299.480    23585306.840
  23585306.460          43.600          34.250
 15  1 27 11  1  5.0000000  0 22G06G07G08G02G17G03G23G09G10G20G32G01
                                R24R17R02R12R13R19R03R18R11R01
 111311423.651 8  86736178.512 8  83122169.071 8  21181858.220    21181858.960
  21181858.240          49.700          49.350
 124529533.844 7  97036057.899 7                  23697167.760    23697168.820
  23697168.280          47.600          42.950
 126074310.211 7  98239743.41646                  23991134.440
  23991134.120          46.850          37.150
 130383770.901 7 101597736.68046                  24811207.040
  24811203.900          44.100          37.000
 120018275.635 7  93520678.725 7                  22838731.780    22838731.200
  22838730.760          47.750          44.600
 115976819.957 8  90371540.764 7  86606061.694 8  22069658.460    22069659.780
  22069659.480          49.050          47.850
 109016426.573 8  84947833.17047                  20745130.340
  20745124.780          50.350          46.700
 106928193.401 8  83320697.241 8  79849011.249 8  20347744.340    20347743.800
  20347743.380          50.550          50.300
 116587410.100 8  90847347.10746                  22185842.720
  22185840.760          48.350          41.150
 106283779.251 8  82818492.04648                  20225132.920
  20225129.000          48.800          48.400
 136753186.547 6 106560919.41545                  26023271.880
  26023274.540          41.000          30.950
 125823753.924 7  98044480.883 7  93959279.212 8  23943475.900    23943479.460
  23943479.180          46.850          43.150
 131518927.024 6 102292677.724 5                  24594736.440    24594748.460
  24594747.160          41.600          32.300
 110859917.954 8  86224373.241 7                  20716836.480    20716840.160
  20716838.840          48.850          45.850
 107757299.356 8  83811248.413 7                  20193674.820    20193679.080
  20193678.440          49.600          46.450
 117179069.472 7  91139308.065 6                  21936166.940    21936173.700
  21936173.320          43.700          40.950
 128423985.959 6  99885393.847 6                  24049678.940    24049692.440
  24049690.940          36.200          39.000
 129559867.490 7 100768783.710 6                  24219850.660    24219855.100
  24219853.360          42.550          37.950
 111015790.480 7  86345641.598 7                  20738676.180    20738678.820
  20738677.560          47.550          46.350
 109581203.579 8  85229837.862 7                  20528252.620    20528257.780
  20528257.280          49.550          46.400
 120884695.971 7  94021465.072 5                  22621909.660    22621916.760
  22621914.900          44.750          35.150
 126091483.656 7  98071145.970 5                  23588028.720    23588036.180
  23588035.780          43.100          34.500
 15  1 27 11  1 10.0000000  0 22G06G07G08G02G17G03G23G09G10G20G32G01
                                R24R17R02R12R13R19R03R18R11R01
 111301486.600 8  86728435.361 8  83114748.545 8  21179967.200    21179968.020
  21179967.280          49.750          49.400
 124512725.229 7  97022960.290 7                  23693969.160    23693970.260
  23693969.720          47.650          42.050
 126079839.336 7  98244051.80946                  23992186.620
  23992186.240          46.700          37.900
 130366591.564 7 101584350.20446                  24807937.920
  24807934.740          44.050          36.800
 120031022.181 7  93530611.084 7                  22841157.320    22841156.820
  22841156.320          47.750          44.400
 115987047.375 8  90379510.160 7  86613699.036 8  22071604.700    22071606.020
  22071605.720          49.600          47.450
 109021968.754 8  84952151.74947                  20746184.980
  20746179.440          50.500          46.650
 106924179.416 8  83317569.465 8  79846013.793 8  20346980.500    20346979.960
  20346979.520          50.550          50.250
 116575148.245 8  90837792.42746                  22183509.380
  22183507.400          48.400          41.750
 106282278.158 8  82817322.36148                  20224847.280
  20224843.340          48.950          48.350
 136767063.194 6 106571732.39445                  26025912.520
  26025915.040          40.550          33.600
 125841159.385 7  98058043.538 7  93972276.748 8  23946788.100    23946791.660
  23946791.380          46.800          42.550
 131541663.732 6 102310361.697 5                  24598988.380    24599000.680
  24598999.340          41.050          31.050
 110876004.548 8  86236885.026 7                  20719842.640    20719846.360
  20719845.040          48.650          46.250
 107763642.244 8  83816181.766 7                  20194863.460    20194867.740
  20194867.080          49.650          46.600
 117166685.984 7  91129676.481 6                  21933848.740    21933855.420
  21933855.100          44.300          41.100
 128403091.361 6  99869142.557 6                  24045766.060    24045779.580
  24045778.080          36.850          39.000
 129540380.689 6 100753627.317 6                  24216207.760    24216212.260
  24216210.620          41.550          37.800
 111008278.487 7  86339798.940 7                  20737272.940    20737275.460
  20737274.240          47.800          46.400
 109577887.502 8  85227258.697 7                  20527631.440    20527636.540
  20527636.020          49.650          46.550
 120890634.801 7  94026084.168 5                  22623021.000    22623028.200
  22623026.260          44.500          35.750
 126106072.997 7  98082493.206 5                  23590757.980    23590765.580
  23590765.020          43.850          33.700
 15  1 27 11  1 15.0000000  0 22G06G07G08G02G17G03G23G09G10G20G32G01
                                R24R17R02R12R13R19R03R18R11R01
 111291561.414 8  86720701.452 8  83107336.887 8  21178078.460    21178079.340
  21178078.600          49.600          49.450
 124495919.092 7  97009864.589 7                  23690771.040    23690772.160
  23690771.580          47.650          42.450
 126085383.025 7  98248371.56146                  23993241.560
  23993241.160          46.150          37.200
 130349413.944 7 101570965.06846                  24804669.100
  24804665.960          44.100          37.800
 120043777.736 7  93540550.459 7                  22843584.580    22843584.120
  22843583.620          47.900          44.350
 115997279.846 8  90387483.515 7  86621340.163 8  22073551.920    22073553.200
  22073552.880          49.700          47.400
 109027522.097 8  84956479.03547                  20747241.740
  20747236.220          50.500          46.700
 106920178.996 8  83314452.255 8  79843026.466 8  20346219.280    20346218.680
  20346218.240          50.600          50.200
 116562891.495 8  90828241.71646                  22181177.020
  22181175.000          48.500          40.750
 106280785.533 8  82816159.27548                  20224563.240
  20224559.300          48.950          48.050
 136780939.446 6 106582545.08345                  26028553.080
  26028555.400          39.300          31.700
 125858569.690 7  98071609.990 6  93985277.920 8  23950101.220    23950104.740
  23950104.420          46.650          41.900
 131564397.937 6 102328043.684 5                  24603239.900    24603252.240
  24603250.860          41.750          31.550
 110892106.801 8  86249408.986 7                  20722851.720    20722855.480
  20722854.160          48.600          46.100
 107769991.205 8  83821119.841 7                  20196053.260    20196057.500
  20196056.860          49.200          46.600
 117154318.489 7  91120057.327 6                  21931533.480    21931540.160
  21931539.880          43.950          41.250
 128382195.844 6  99852890.528 6                  24041853.020    24041866.360
  24041864.920          37.250          38.650
 129520902.860 6 100738477.889 6                  24212566.580    24212571.140
  24212569.540          41.700          37.650
 111000773.420 7  86333961.677 7                  20735871.000    20735873.440
  20735872.200          47.850          46.350
 109574594.392 8  85224697.393 7                  20527014.580    20527019.540
  20527019.080          49.600          46.600
 120896595.064 7  94030719.925 5                  22624136.260    22624143.580
  22624141.640          44.300          35.600
 126120662.154 7  98093840.336 5                  23593487.220    23593494.540
  23593494.200          42.950          33.700
 15  1 27 11  1 20.0000000  0 22G06G07G08G02G17G03G23G09G10G20G32G01
                                R24R17R02R12R13R19R03R18R11R01
 111281646.615 8  86712975.643 8  83099932.982 8  21176191.680    21176192.640
  21176191.900          49.450          49.550
 124479113.954 7  96996769.674 7                  23687573.120    23687574.240
  23687573.680          47.550          42.650
 126090939.807 7  98252701.51946                  23994298.980
  23994298.560          46.050          38.750
 130332236.541 7 101557580.08746                  24801400.300
  24801397.220          44.300          36.400
 120056540.806 8  93550495.690 7                  22846013.280    22846012.860
  22846012.340          48.100          44.400
 116007515.856 8  90395459.627 7  86628983.939 8  22075499.820    22075501.060
  22075500.680          49.600          47.350
 109033085.083 8  84960813.82947                  20748300.320
  20748294.820          50.500          46.700
 106916190.630 8  83311344.443 8  79840048.158 8  20345460.320    20345459.720
  20345459.260          50.650          50.150
 116550638.363 8  90818693.82746                  22178845.320
  22178843.280          48.350          41.000
 106279299.921 8  82815001.65347                  20224280.560
  20224276.600          49.100          47.950
 136794813.877 6 106593356.34044                  26031193.260
  26031195.800          40.650          25.150
 125875983.307 7  98085179.035 7  93998281.597 7  23953414.980    23953418.400
  23953418.040          46.700          42.350
 131587128.148 6 102345722.618 5                  24607490.720    24607503.360
  24607501.580          41.300          31.200
 110908223.027 8  86261943.818 7                  20725863.440    20725867.220
  20725865.880          48.650          46.150
 107776344.739 8  83826061.478 7                  20197243.880    20197248.160
  20197247.480          49.450          46.450
 117141965.409 7  91110449.378 6                  21929220.960    21929227.520
  21929227.360          44.050          41.150
 128361297.967 6  99836636.653 6                  24037939.580    24037952.780
  24037951.320          37.350          38.350
 129501432.451 6 100723334.248 6                  24208926.740    24208931.340
  24208929.840          41.900          37.300
 110993273.787 8  86328128.631 7                  20734470.040    20734472.420
  20734471.200          48.100          46.150
 109571322.738 8  85222152.784 7                  20526401.740    20526406.620
  20526406.140          49.700          46.750
 120902575.265 7  94035371.194 5                  22625255.340    22625262.600
  22625260.720          44.800          35.150
 126135249.686 7  98105186.161 5                  23596216.080    23596223.340
  23596223.040          43.400          32.500
 15  1 27 11  1 25.0000000  0 22G06G07G08G02G17G03G23G09G10G20G32G01
                                R24R17R02R12R13R19R03R18R11R01
 111271743.816 8  86705259.191 8  83092538.049 8  21174307.160    21174308.200
  21174307.480          49.700          49.500
 124462311.420 7  96983676.798 7                  23684375.700    23684376.860
  23684376.260          47.200          42.750
 126096511.301 7  98257042.92446                  23995359.220
  23995358.780          46.350          36.750
 130315061.018 7 101544196.58146                  24798131.860
  24798128.880          44.700          37.100
 120069313.002 8  93560448.030 7                  22848443.720    22848443.380
  22848442.800          48.300          44.500
 116017757.051 8  90403439.770 7  86636631.587 8  22077448.740    22077449.880
  22077449.440          49.950          47.200
 109038659.354 8  84965157.42547                  20749361.060
  20749355.560          50.300          46.550
 106912215.960 8  83308247.310 8  79837080.066 8  20344703.980    20344703.340
  20344702.900          50.750          50.150
 116538390.475 8  90809150.03946                  22176514.640
  22176512.580          48.350          41.700
 106277822.946 8  82813850.76648                  20223999.520
  20223995.540          49.150          48.250
 136808688.085 6 106604167.45045                  26033833.360
  26033835.840          40.550          31.800
 125893401.905 7  98098751.959 7  94011288.978 7  23956729.660    23956733.020
  23956732.640          46.000          42.600
 131609855.984 6 102363399.664 5                  24611741.060    24611753.720
  24611751.860          40.400          30.100
 110924354.980 8  86274490.884 7                  20728878.060    20728881.860
  20728880.560          48.300          46.050
 107782704.313 8  83831007.822 7                  20198435.660    20198439.960
  20198439.240          49.200          46.150
 117129628.319 7  91100853.885 6                  21926911.420    21926918.020
  21926917.820          43.850          41.000
 128340399.046 6  99820381.982 6                  24034025.800    24034038.980
  24034037.560          36.200          39.200
 129481971.163 6 100708197.720 6                  24205288.640    24205293.360
  24205291.860          40.950          37.150
 110985781.257 7  86322301.112 7                  20733070.380    20733072.740
  20733071.500          47.850          46.150
 109568074.259 8  85219626.192 7                  20525793.240    20525798.040
  20525797.560          49.550          46.300
 120908576.920 7  94040039.158 5                  22626378.400    22626385.680
  22626383.900          44.100          35.500
 126149837.226 7  98116532.025 5                  23598944.960    23598952.080
  23598951.920          43.250          34.250
 15  1 27 11  1 30.0000000  0 22G06G07G08G02G17G03G23G09G10G20G32G01
                                R24R17R02R12R13R19R03R18R11R01
 111261852.271 8  86697551.491 8  83085151.507 8  21172424.820    21172425.920
  21172425.180          49.700          49.600
 124445510.772 7  96970585.388 7                  23681178.600    23681179.760
  23681179.180          47.200          42.750
 126102096.684 7  98261395.15446                  23996422.080
  23996421.640          46.350          37.400
 130297886.613 7 101530813.92645                  24794863.640
  24794860.640          44.800          35.550
 120082093.582 8  93570406.905 7                  22850875.780    22850875.480
  22850874.860          48.300          44.650
 116028002.657 8  90411423.363 7  86644282.526 8  22079398.480    22079399.540
  22079399.000          49.750          47.050
 109044244.133 8  84969509.19347                  20750423.800
  20750418.320          50.200          46.700
 106908254.183 8  83305160.219 8  79834121.613 8  20343950.100    20343949.420
  20343948.980          50.700          50.250
 116526147.128 8  90799609.77346                  22174184.780
  22174182.740          48.350          41.150
 106276353.799 8  82812705.97348                  20223719.960
  20223715.980          49.250          48.150
 136822561.376 6 106614977.85444                  26036473.260
  26036475.820          39.700          28.500
 125910824.699 7  98112328.117 7  94024299.459 8  23960045.080    23960048.520
  23960048.100          45.900          43.150
 131632580.716 6 102381074.298 4                  24615990.800    24616003.400
  24616001.620          39.700          29.150
 110940501.839 8  86287049.540 7                  20731895.480    20731899.320
  20731898.020          48.300          46.000
 107789069.309 8  83835958.372 7                  20199628.440    20199632.760
  20199632.020          49.350          46.250
 117117306.652 7  91091270.382 6                  21924604.740    21924611.380
  21924611.200          43.700          40.950
 128319498.779 6  99804126.267 6                  24030111.780    24030125.060
  24030123.540          36.050          39.700
 129462518.164 6 100693067.615 6                  24201652.140    24201656.920
  24201655.380          41.800          36.850
 110978295.058 8  86316478.516 7                  20731671.980    20731674.200
  20731672.980          48.100          46.000
 109564848.147 8  85217116.985 7                  20525188.900    20525193.640
  20525193.140          49.200          46.200
 120914599.416 7  94044723.326 5                  22627505.380    22627512.800
  22627510.960          43.900          35.550
 126164423.985 7  98127877.245 5                  23601673.820    23601680.960
  23601680.660          44.200          34.300
 15  1 27 11  1 35.0000000  0 22G06G07G08G02G17G03G23G09G10G20G32G01
                                R24R17R02R12R13R19R03R18R11R01
 111251973.664 8  86689853.877 8  83077774.617 8  21170544.940    21170546.080
  21170545.340          49.650          49.350
 124428713.663 7  96957496.732 7                  23677982.160    23677983.360
  23677982.840          47.100          42.900
 126107697.676 7  98265759.56445                  23997487.940
  23997487.480          46.450          35.950
 130280714.976 7 101517433.41746                  24791595.960
  24791592.920          43.950          36.400
 120094884.086 7  93580373.521 7                  22853309.720    22853309.420
  22853308.780          47.900          44.700
 116038254.348 8  90419411.686 7  86651937.988 8  22081349.400    22081350.340
  22081349.720          49.600          46.900
 109049841.103 8  84973870.46447                  20751488.860
  20751483.380          50.100          46.900
 106904307.011 8  83302084.506 8  79831174.037 8  20343198.980    20343198.280
  20343197.840          50.450          50.250
 116513909.926 8  90790074.29546                  22171856.100
  22171854.100          48.250          41.500
 106274894.173 8  82811568.60547                  20223442.220
  20223438.220          49.150          47.850
 136836435.335 6 106625788.65345                  26039113.260
  26039115.900          37.900          30.050
 125928253.308 7  98125908.810 7  94037314.288 8  23963361.620    23963365.140
  23963364.760          45.950          43.600
 131655303.908 7 102398747.740 4                  24620240.300    24620253.420
  24620251.160          42.000          29.700
 110956665.235 8  86299621.052 7                  20734915.980    20734919.860
  20734918.580          48.600          45.850
 107795441.336 8  83840914.391 7                  20200822.540    20200826.860
  20200826.100          49.200          46.350
 117105001.992 7  91081700.110 6                  21922301.240    21922307.920
  21922307.740          43.750          41.050
 128298598.595 6  99787870.664 6                  24026197.860    24026211.140
  24026209.640          36.550          39.300
 129443075.336 6 100677945.418 6                  24198017.580    24198022.420
  24198020.760          41.800          36.550
 110970816.847 8  86310662.135 7                  20730275.020    20730277.200
  20730275.940          48.250          46.150
 109561646.054 8  85214626.470 7                  20524589.040    20524593.740
  20524593.220          49.450          46.450
 120920644.380 7  94049424.968 6                  22628636.520    22628644.060
  22628642.220          43.650          36.350
 126179011.701 7  98139223.247 5                  23604402.800    23604410.080
  23604409.600          42.700          33.900
 15  1 27 11  1 40.0000000  0 22G06G07G08G02G17G03G23G09G10G20G32G01
                                R24R17R02R12R13R19R03R18R11R01
 111242106.100 8  86682164.866 8  83070405.991 8  21168667.180    21168668.340
  21168667.580          49.700          49.300
 124411918.218 7  96944409.380 7                  23674786.060    23674787.300
  23674786.800          47.300          42.800
 126113312.364 7  98270134.62946                  23998556.380
  23998555.880          46.550          37.950
 130263544.221 7 101504053.63246                  24788328.440
  24788325.460          43.750          38.150
 120107682.601 7  93590346.372 7                  22855745.220    22855744.920
  22855744.260          47.850          44.550
 116048510.199 8  90427403.252 7  86659596.592 8  22083301.040    22083301.900
  22083301.220          49.850          46.600
 109055448.328 8  84978239.72647                  20752555.880
  20752550.400          50.050          46.850
 106900372.502 8  83299018.656 8  79828235.952 8  20342450.280    20342449.540
  20342449.120          50.350          50.200
 116501676.997 8  90780542.15546                  22169528.240
  22169526.220          48.050          41.650
 106273442.204 8  82810437.20048                  20223165.920
  20223161.920          49.050          48.050
 136850308.061 6 106636598.57145                  26041753.160
  26041755.800          40.200          31.350
 125945685.842 7  98139492.560 7  94050332.056 8  23966678.920    23966682.540
  23966682.140          46.100          43.650
 131678023.665 7 102416418.520 4                  24624489.160    24624502.380
  24624500.060          42.300          29.350
 110972843.265 8  86312203.945 7                  20737939.240    20737943.080
  20737941.840          48.850          45.700
 107801818.546 8  83845874.437 7                  20202017.640    20202021.960
  20202021.180          49.450          46.350
 117092712.576 7  91072141.680 6                  21920000.580    21920007.360
  21920007.140          43.900          41.650
 128277696.738 6  99771613.721 6                  24022283.640    24022296.820
