     2.1            OBSERVATION DATA    G (GPS)             RINEX VERSION / TYPE
GPSNet 2.62 3098                        29-Sep-14 01:59:50  PGM / RUN BY / DATE
ALCO                                                        MARKER NAME
13496M001                                                   MARKER NUMBER
ICV                 ICV                                     OBSERVER / AGENCY
4426235499          TRIMBLE NETRS       1.31                REC # / TYPE / VERS
     0                                                      RCV CLOCK OFFS APPL
12589891            TRM41249.00                             ANT # / TYPE
  4984687.4297   -41199.1544  3966605.9473                  APPROX POSITION XYZ
        0.0470        0.0000        0.0000                  ANTENNA: DELTA H/E/N
     1     1     0                                          WAVELENGTH FACT L1/2
     6    C1    P2    L1    L2    S1    S2                  # / TYPES OF OBSERV
     5.000                                                  INTERVAL
  2014     9    29     0     0    0.0000000     GPS         TIME OF FIRST OBS
                                                            END OF HEADER
 14  9 29  0  0  0.0000000  0  7G07G26G05G15G28G10G30
  24305635.047    24305632.070    -2406575.36004  -1816542.39646        39.000
        22.000
  20360858.547    20360855.660   -25713133.87207 -19744526.24747        52.000
        40.000
  20617240.977    20617237.684   -21448941.88207 -16129043.24647        51.000
        42.000
  23214554.961    23214552.934    -9682715.58306  -7181761.85546        44.000
        29.000
  21627775.453    21627771.871   -17352996.65707 -11970172.02947        49.000
        34.000
  23553021.484    23553020.215    -6959615.81506  -4729330.12546        45.000
        25.000
  21849161.234    21849160.973   -16151195.78307 -12334383.03247        48.000
        36.000
 14  9 29  0  0  5.0000000  0  7G07G26G05G15G28G10G30
  24308617.141    24308614.297    -2390903.02804  -1804330.17146        39.000
        22.000
  20359707.953    20359705.512   -25719179.79307 -19749237.35247        51.000
        39.000
  20618227.156    20618224.066   -21443757.68707 -16125003.61647        51.000
        42.000
  23212014.148    23212012.328    -9696066.72006  -7192165.31946        44.000
        29.000
  21627132.273    21627129.078   -17356375.77907 -11972805.10047        49.000
        34.000
  23556407.875    23556406.316    -6941820.55106  -4715463.68446        45.000
        26.000
  21851553.898    21851552.977   -16138622.78007 -12324585.89147        48.000
        36.000
 14  9 29  0  0 10.0000000  0  7G07G26G05G15G28G10G30
  24311600.492    24311597.102    -2375230.32305  -1792117.69946        40.000
        23.000
  20358559.109    20358556.055   -25725217.22207 -19753941.84447        51.000
        39.000
  20619216.688    20619213.793   -21438558.55507 -16120952.34947        50.000
        42.000
  23209474.508    23209472.328    -9709415.77006  -7202567.17046        45.000
        29.000
  21626491.758    21626488.523   -17359740.21407 -11975426.73547        50.000
        34.000
  23559794.906    23559792.988    -6924021.10506  -4701593.99046        44.000
        25.000
  21853947.695    21853946.996   -16126043.64007 -12314783.96747        48.000
        35.000
 14  9 29  0  0 15.0000000  0  7G07G26G05G15G28G10G30
  24314582.484    24314579.355    -2359557.29804  -1779904.93546        39.000
        22.000
  20357411.664    20357409.199   -25731246.26207 -19758639.79747        51.000
        39.000
  20620209.414    20620206.320   -21433344.54407 -16116889.48747        50.000
        42.000
  23206934.141    23206932.508    -9722762.79506  -7212967.44846        45.000
        29.000
  21625854.359    21625851.137   -17363090.04307 -11978036.99047        49.000
        35.000
  23563182.453    23563181.105    -6906217.52006  -4687721.08146        45.000
        26.000
  21856342.570    21856341.973   -16113458.46507 -12304977.33747        48.000
        35.000
 14  9 29  0  0 20.0000000  0  7G07G26G05G15G28G10G30
  24317564.188    24317562.086    -2343883.89104  -1767691.91946        39.000
        22.000
  20356266.094    20356263.559   -25737266.80407 -19763331.12747        51.000
        39.000
  20621204.156    20621200.926   -21428115.56507 -16112814.96047        50.000
        42.000
  23204394.789    23204392.348    -9736107.68106  -7223366.05946        45.000
        29.000
  21625219.656    21625216.363   -17366425.13007 -11980635.76247        49.000
        35.000
  23566571.594    23566569.762    -6888409.72106  -4673844.88046        45.000
        24.000
  21858738.930    21858737.965   -16100867.14907 -12295165.92247        48.000
        35.000
 14  9 29  0  0 25.0000000  0  7G07G26G05G15G28G10G30
  24320547.195    24320544.199    -2328210.31904  -1755478.76146        39.000
        22.000
  20355121.734    20355119.223   -25743279.06107 -19768016.00447        51.000
        39.000
  20622201.813    20622198.840   -21422871.81407 -16108728.92547        50.000
        41.000
  23201855.430    23201853.160    -9749450.65006  -7233763.16546        45.000
        28.000
  21624587.922    21624584.313   -17369745.70307 -11983223.21747        49.000
        35.000
  23569961.289    23569959.555    -6870597.92806  -4659965.57846        44.000
        25.000
  21861135.859    21861134.957   -16088269.92007 -12285349.90047        48.000
        35.000
 14  9 29  0  0 30.0000000  0  7G07G26G05G15G28G10G30
  24323529.594    24323527.059    -2312536.04004  -1743265.01646        39.000
        21.000
  20353979.617    20353977.086   -25749282.43707 -19772693.95947        51.000
        40.000
  20623202.578    20623199.605   -21417612.72007 -16104630.93047        50.000
        41.000
  23199317.313    23199315.102    -9762791.13606  -7244158.35146        46.000
        29.000
  21623958.953    21623955.781   -17373051.23307 -11985798.94947        49.000
        35.000
  23573351.320    23573349.480    -6852781.62806  -4646082.75446        44.000
        22.000
  21863534.383    21863533.074   -16075666.24907 -12275528.86147        48.000
        35.000
 14  9 29  0  0 35.0000000  0  7G07G26G05G15G28G10G30
  24326512.625    24326510.039    -2296861.33304  -1731050.96146        39.000
        22.000
  20352839.000    20352836.145   -25755277.24907 -19777365.24347        51.000
        39.000
  20624206.117    20624203.113   -21412338.56007 -16100521.19547        51.000
        41.000
  23196779.125    23196776.219    -9776129.40706  -7254551.80646        45.000
        29.000
  21623332.672    21623329.332   -17376341.93107 -11988363.13347        49.000
        35.000
  23576742.430    23576740.656    -6834961.07106  -4632196.59946        44.000
        22.000
  21865934.273    21865932.930   -16063056.38807 -12265702.99347        49.000
        35.000
 14  9 29  0  0 40.0000000  0  7G07G26G05G15G28G10G30
  24329495.430    24329492.836    -2281186.47704  -1718836.81546        39.000
        22.000
  20351699.781    20351696.855   -25761263.71807 -19782030.01847        51.000
        39.000
  20625212.672    20625209.445   -21407049.59307 -16096399.92247        50.000
        41.000
  23194241.961    23194238.930    -9789465.73406  -7264943.73746        45.000
        29.000
  21622709.133    21622705.879   -17379618.09807 -11990915.98447        49.000
        35.000
  23580134.523    23580131.914    -6817136.54506  -4618307.37746        43.000
        22.000
  21868334.563    21868333.352   -16050440.63607 -12255872.53947        48.000
        35.000
 14  9 29  0  0 45.0000000  0  7G07G26G05G15G28G10G30
  24332478.047    24332475.402    -2265510.91704  -1706622.07146        39.000
        22.000
  20350562.219    20350559.727   -25767241.28107 -19786687.86047        51.000
        40.000
  20626221.859    20626218.559   -21401745.26507 -16092266.68047        50.000
        41.000
  23191704.461    23191701.563    -9802799.55106  -7275333.72346        45.000
        28.000
  21622088.750    21622084.773   -17382879.17707 -11993457.08547        49.000
        35.000
  23583527.867    23583525.469    -6799307.49106  -4604414.61446        43.000
        22.000
  21870736.625    21870735.336   -16037818.43107 -12246037.05447        48.000
        35.000
 14  9 29  0  0 50.0000000  0  7G07G26G05G15G28G10G30
  24335460.820    24335458.242    -2249835.16804  -1694407.21846        39.000
        22.000
  20349426.227    20349423.867   -25773210.48507 -19791339.18347        51.000
        40.000
  20627234.055    20627230.977   -21396426.12107 -16088121.89447        50.000
        41.000
  23189166.898    23189164.867    -9816131.32706  -7285722.09946        44.000
        28.000
  21621470.625    21621467.738   -17386125.68507 -11995986.82747        49.000
        35.000
  23586920.375    23586918.938    -6781474.42406  -4590518.72546        44.000
        22.000
  21873139.609    21873138.613   -16025190.30107 -12236196.95547        48.000
        34.000
 14  9 29  0  0 55.0000000  0  7G07G26G05G15G28G10G30
  24338444.359    24338441.395    -2234159.22104  -1682192.19646        39.000
        22.000
  20348292.023    20348289.125   -25779171.25607 -19795983.93847        51.000
        39.000
  20628249.219    20628245.988   -21391092.14007 -16083965.54847        50.000
        41.000
  23186630.609    23186628.250    -9829461.04506  -7296108.88646        44.000
        29.000
  21620855.430    21620851.984   -17389357.56207 -11998505.17447        49.000
        35.000
  23590314.078    23590312.918    -6763637.34606  -4576619.71146        43.000
        22.000
  21875543.641    21875542.117   -16012556.22807 -12226352.21947        48.000
        35.000
 14  9 29  0  1  0.0000000  0  7G07G26G05G15G28G10G30
  24341427.797    24341424.758    -2218482.81104  -1669976.82346        39.000
        22.000
  20347159.258    20347156.379   -25785123.35807 -19800621.94147        51.000
        39.000
  20629266.961    20629263.914   -21385743.05807 -16079797.43047        50.000
        41.000
  23184094.305    23184092.387    -9842788.47706  -7306493.88346        44.000
        29.000
  21620243.703    21620240.438   -17392574.55607 -12001011.91847        48.000
        34.000
  23593709.664    23593708.387    -6745796.00606  -4562717.38246        43.000
        23.000
  21877949.281    21877948.012   -15999915.95107 -12216502.65047        49.000
        35.000
 14  9 29  0  1  5.0000000  0  7G07G26G05G15G28G10G30
  24344410.805    24344408.105    -2202805.89104  -1657761.04146        38.000
        22.000
  20346028.477    20346025.668   -25791066.75007 -19805253.15147        51.000
        39.000
  20630287.953    20630284.844   -21380378.84207 -16075617.52447        50.000
        41.000
  23181558.609    23181556.109    -9856113.58906  -7316877.07446        44.000
        29.000
  21619634.250    21619630.426   -17395776.64407 -12003507.04647        48.000
        34.000
  23597105.914    23597104.730    -6727950.38906  -4548811.73146        43.000
        22.000
  21880355.672    21880354.781   -15987269.47607 -12206648.25447        49.000
        35.000
 14  9 29  0  1 10.0000000  0  7G07G26G05G15G28G10G30
  24347394.180    24347390.727    -2187128.74304  -1645545.08546        38.000
        22.000
  20344899.141    20344896.000   -25797001.69407 -19809877.78047        52.000
        39.000
  20631311.102    20631308.430   -21374999.75907 -16071426.03647        50.000
        41.000
  23179023.594    23179021.293    -9869436.61206  -7327258.65846        45.000
        30.000
  21619027.422    21619024.238   -17398964.04207 -12005990.72747        49.000
        34.000
  23600502.039    23600501.066    -6710100.75306  -4534902.93146        43.000
        22.000
  21882763.414    21882762.207   -15974617.03007 -12196789.20947        49.000
        34.000
 14  9 29  0  1 15.0000000  0  7G07G26G05G15G28G10G30
  24350377.438    24350374.203    -2171451.23604  -1633328.86146        38.000
        22.000
  20343771.195    20343768.391   -25802928.05807 -19814495.72947        52.000
        39.000
  20632337.914    20632334.973   -21369605.69907 -16067222.87847        50.000
        41.000
  23176488.531    23176486.207    -9882757.44506  -7337638.51846        44.000
        29.000
  21618424.172    21618420.430   -17402136.65307 -12008462.88947        49.000
        34.000
  23603899.516    23603898.238    -6692246.98405  -4520990.89746        42.000
        22.000
  21885172.375    21885171.066   -15961958.51907 -12186925.43947        48.000
        34.000
 14  9 29  0  1 20.0000000  0  7G07G26G05G15G28G10G30
  24353360.891    24353357.457    -2155773.46204  -1621112.38746        38.000
        22.000
  20342644.945    20342642.363   -25808845.92007 -19819107.05347        51.000
        39.000
  20633366.852    20633364.398   -21364196.73607 -16063008.10447        50.000
        41.000
  23173953.625    23173951.949    -9896076.11806  -7348016.69246        44.000
        29.000
  21617822.734    21617819.484   -17405294.57107 -12010923.60147        49.000
        34.000
  23607298.289    23607296.930    -6674389.16505  -4507075.74546        41.000
        22.000
  21887582.039    21887580.824   -15949294.07107 -12177057.03647        48.000
        35.000
 14  9 29  0  1 25.0000000  0  7G07G26G05G15G28G10G30
  24356344.070    24356340.824    -2140095.08504  -1608895.48846        38.000
        22.000
  20341520.383    20341517.813   -25814754.94507 -19823711.48047        52.000
        39.000
  20634399.305    20634396.559   -21358772.49307 -16058781.42347        51.000
        41.000
  23171420.813    23171417.738    -9909392.29406  -7358392.92046        45.000
        29.000
  21617225.055    21617221.027   -17408437.41007 -12013372.55847        49.000
        35.000
  23610697.828    23610695.961    -6656526.95805  -4493157.14846        42.000
        22.000
  21889992.961    21889992.078   -15936623.31607 -12167183.72247        48.000
        34.000
 14  9 29  0  1 30.0000000  0  7G07G26G05G15G28G10G30
  24359327.461    24359323.902    -2124416.99004  -1596678.79346        39.000
        22.000
  20340397.891    20340395.254   -25820655.98807 -19828309.69947        52.000
        40.000
  20635434.109    20635431.383   -21353333.87807 -16054543.54347        50.000
        41.000
  23168887.016    23168884.027    -9922706.91706  -7368767.94246        44.000
        29.000
  21616629.680    21616625.816   -17411566.05907 -12015810.46847        49.000
        35.000
  23614096.945    23614095.391    -6638661.26505  -4479235.83846        42.000
        22.000
  21892405.422    21892404.488   -15923947.13007 -12157306.17247        48.000
        35.000
 14  9 29  0  1 35.0000000  0  7G07G26G05G15G28G10G30
  24362311.570    24362308.105    -2108738.15804  -1584461.52246        38.000
        22.000
  20339276.711    20339273.922   -25826548.01307 -19832900.88547        52.000
        39.000
  20636472.383    20636469.281   -21347879.89607 -16050293.69147        50.000
        42.000
  23166353.523    23166350.836    -9936018.91206  -7379140.92846        45.000
        29.000
  21616037.203    21616033.059   -17414679.53307 -12018236.54947        50.000
        35.000
  23617497.945    23617495.926    -6620791.06405  -4465311.01746        42.000
        23.000
  21894818.570    21894818.082   -15911264.51007 -12147423.61347        48.000
        36.000
 14  9 29  0  1 40.0000000  0  7G07G26G05G15G28G10G30
  24365293.703    24365291.480    -2093059.26004  -1572244.20446        39.000
        21.000
  20338156.844    20338154.082   -25832431.65607 -19837485.54447        52.000
        40.000
  20637512.844    20637509.941   -21342411.15907 -16046032.33947        50.000
        41.000
  23163820.289    23163817.738    -9949328.92506  -7389512.36046        43.000
        29.000
  21615447.555    21615443.957   -17417778.43407 -12020651.27747        49.000
        34.000
  23620899.469    23620897.078    -6602917.01806  -4451383.19946        43.000
        22.000
  21897233.570    21897232.941   -15898576.10307 -12137536.54347        48.000
        35.000
 14  9 29  0  1 45.0000000  0  7G07G26G05G15G28G10G30
  24368278.398    24368275.035    -2077380.03404  -1560026.63145        39.000
        20.000
  20337038.781    20337036.199   -25838306.68307 -19842063.48747        52.000
        40.000
  20638556.195    20638553.422   -21336927.41507 -16041759.29847        49.000
        42.000
  23161287.719    23161285.324    -9962636.68106  -7399882.04646        43.000
        28.000
  21614860.617    21614857.023   -17420862.46507 -12023054.42047        49.000
        35.000
  23624301.273    23624299.152    -6585038.86706  -4437452.19246        43.000
        22.000
  21899649.211    21899648.672   -15885881.65207 -12127644.76647        48.000
        35.000
 14  9 29  0  1 50.0000000  0  7G07G26G05G15G28G10G30
  24371261.406    24371258.430    -2061700.29404  -1547808.62146        38.000
        21.000
  20335922.656    20335919.875   -25844172.89607 -19846634.56147        51.000
        39.000
  20639602.977    20639600.188   -21331428.52207 -16037474.44647        51.000
        41.000
  23158756.070    23158753.527    -9975941.98006  -7410249.80746        43.000
        29.000
  21614276.680    21614272.531   -17423931.44607 -12025445.82947        49.000
        35.000
  23627703.984    23627702.516    -6567156.44905  -4423517.83846        42.000
        24.000
  21902065.758    21902064.785   -15873180.99807 -12117748.15147        48.000
        36.000
 14  9 29  0  1 55.0000000  0  7G07G26G05G15G28G10G30
  24374245.578    24374242.465    -2046020.39904  -1535590.55346        38.000
        21.000
  20334808.125    20334805.270   -25850030.63907 -19851199.03047        51.000
        39.000
  20640651.875    20640649.184   -21325914.83007 -16033178.06747        50.000
        41.000
  23156224.555    23156221.676    -9989245.17506  -7420615.93646        43.000
        28.000
  21613695.547    21613691.586   -17426985.76207 -12027825.80747        49.000
        34.000
  23631107.867    23631106.508    -6549270.13805  -4409580.47446        42.000
        24.000
  21904483.727    21904483.078   -15860474.49707 -12107846.98747        48.000
        35.000
 14  9 29  0  2  0.0000000  0  7G07G26G05G15G28G10G30
  24377229.867    24377226.520    -2030340.21304  -1523372.21946        38.000
        21.000
  20333694.992    20333692.047   -25855879.73207 -19855756.76147        52.000
        39.000
  20641704.484    20641701.609   -21320386.12607 -16028869.99347        50.000
        41.000
  23153693.570    23153690.855   -10002546.13106  -7430980.29646        43.000
        29.000
  21613116.953    21613113.184   -17430025.22707 -12030194.22347        49.000
        34.000
  23634511.945    23634510.660    -6531379.76806  -4395639.94746        43.000
        23.000
  21906903.211    21906902.039   -15847761.99507 -12097941.14147        48.000
        35.000
 14  9 29  0  2  5.0000000  0  7G07G26G05G15G28G10G30
  24380213.695    24380210.383    -2014659.68204  -1511153.62946        39.000
        22.000
  20332583.516    20332580.789   -25861720.15507 -19860307.74347        52.000
        39.000
  20642758.891    20642756.313   -21314842.42907 -16024550.23147        50.000
        41.000
  23151162.953    23151160.160   -10015844.81006  -7441342.90346        44.000
        29.000
  21612541.633    21612537.797   -17433049.87007 -12032551.08447        50.000
        35.000
  23637917.250    23637916.172    -6513485.32406  -4381696.22346        43.000
        25.000
  21909322.883    21909322.262   -15835043.48106 -12088030.61447        47.000
        35.000
 14  9 29  0  2 10.0000000  0  7G07G26G05G15G28G10G30
  24383197.719    24383194.090    -1998979.04904  -1498934.92946        39.000
        21.000
  20331473.602    20331470.809   -25867552.14407 -19864852.14747        52.000
        40.000
  20643816.977    20643814.324   -21309283.97307 -16020218.96447        50.000
        41.000
  23148632.813    23148630.219   -10029141.42106  -7451703.88146        44.000
        30.000
  21611968.836    21611965.336   -17436059.81107 -12034896.49347        49.000
        34.000
  23641323.031    23641321.945    -6495587.03106  -4367749.50946        43.000
        24.000
  21911744.609    21911743.652   -15822319.19507 -12078115.58247        48.000
        35.000
 14  9 29  0  2 15.0000000  0  7G07G26G05G15G28G10G30
  24386181.109    24386178.547    -1983297.87904  -1486715.87346        38.000
        22.000
  20330365.852    20330362.793   -25873375.27507 -19869389.65147        52.000
        40.000
  20644877.414    20644874.789   -21303710.31207 -16015875.85847        50.000
        41.000
  23146102.359    23146100.008   -10042435.51206  -7462062.90446        44.000
        29.000
  21611398.867    21611395.133   -17439054.66407 -12037230.13847        49.000
        35.000
  23644730.852    23644728.336    -6477684.46405  -4353799.48446        42.000
        23.000
  21914167.195    21914166.852   -15809588.70306 -12068195.72647        47.000
        35.000
 14  9 29  0  2 20.0000000  0  7G07G26G05G15G28G10G30
  24389165.602    24389162.277    -1967616.93004  -1474496.93946        39.000
        22.000
  20329258.953    20329256.105   -25879190.25907 -19873920.81047        52.000
        40.000
  20645940.844    20645938.117   -21298122.19907 -16011521.48647        50.000
        41.000
  23143573.016    23143571.188   -10055727.82706  -7472420.55846        44.000
        30.000
  21610831.734    21610828.039   -17442035.19107 -12039552.63247        49.000
        35.000
  23648137.688    23648136.031    -6459778.38106  -4339846.69446        43.000
        23.000
  21916590.875    21916590.098   -15796852.75207 -12058271.61047        48.000
        35.000
 14  9 29  0  2 25.0000000  0  7G07G26G05G15G28G10G30
  24392149.883    24392146.711    -1951935.33904  -1462277.52046        39.000
        22.000
  20328154.305    20328151.176   -25884996.18707 -19878444.90947        52.000
        39.000
  20647007.156    20647004.402   -21292518.68507 -16007155.11547        50.000
        41.000
  23141044.648    23141042.078   -10069017.47706  -7482776.10946        44.000
        30.000
  21610267.227    21610263.684   -17445000.46207 -12041863.22847        49.000
        35.000
  23651546.289    23651544.098    -6441867.89005  -4325890.48946        42.000
        24.000
  21919015.820    21919015.137   -15784110.46307 -12048342.55547        48.000
        35.000
 14  9 29  0  2 30.0000000  0  7G07G26G05G15G28G10G30
  24395134.273    24395130.609    -1936253.79004  -1450058.13046        39.000
        22.000
  20327051.133    20327048.035   -25890793.71907 -19882962.46747        52.000
        40.000
  20648076.297    20648073.383   -21286900.47807 -16002777.29347        51.000
        41.000
  23138516.031    23138513.449   -10082305.17206  -7493130.15646        44.000
        29.000
  21609705.813    21609702.367   -17447951.17307 -12044162.48547        49.000
        35.000
  23654954.859    23654953.020    -6423953.69305  -4311931.37146        42.000
        26.000
  21921441.453    21921440.641   -15771362.50806 -12038409.08447        47.000
        35.000
 14  9 29  0  2 35.0000000  0  7G07G26G05G15G28G10G30
  24398118.633    24398114.875    -1920571.77904  -1437838.38546        39.000
        23.000
  20325949.695    20325946.484   -25896582.41007 -19887473.13447        51.000
        40.000
  20649148.016    20649145.348   -21281267.16907 -15998387.70247        51.000
        41.000
  23135987.859    23135985.184   -10095590.36506  -7503482.25346        45.000
        29.000
  21609147.313    21609144.043   -17450886.84807 -12046450.01747        50.000
        35.000
  23658364.344    23658363.102    -6406035.30906  -4297968.99746        43.000
        23.000
  21923868.430    21923867.844   -15758608.44807 -12028470.85447        48.000
        35.000
 14  9 29  0  2 40.0000000  0  7G07G26G05G15G28G10G30
  24401102.031    24401099.223    -1904889.38805  -1425618.32846        40.000
        22.000
  20324849.789    20324846.676   -25902362.34007 -19891976.97747        52.000
        39.000
  20650222.852    20650220.566   -21275618.79307 -15993986.37747        50.000
        41.000
  23133460.063    23133457.352   -10108873.17906  -7513832.48746        45.000
        29.000
  21608591.484    21608587.961   -17453807.53007 -12048725.87247        50.000
        35.000
  23661774.914    23661773.605    -6388112.84406  -4284003.46446        43.000
        23.000
  21926296.836    21926296.145   -15745848.36007 -12018527.92647        48.000
        35.000
 14  9 29  0  2 45.0000000  0  7G07G26G05G15G28G10G30
  24404086.828    24404083.672    -1889207.13105  -1413398.41246        40.000
        22.000
  20323751.445    20323748.297   -25908133.99807 -19896474.37447        52.000
        39.000
  20651300.875    20651298.160   -21269955.82507 -15989573.68047        50.000
        41.000
  23130932.383    23130930.395   -10122154.10606  -7524181.24346        44.000
        29.000
  21608038.234    21608034.898   -17456713.75607 -12050990.45947        49.000
        35.000
  23665186.445    23665185.035    -6370186.79106  -4270035.13046        43.000
        26.000
  21928725.898    21928725.199   -15733082.75507 -12008580.70547        48.000
        35.000
 14  9 29  0  2 50.0000000  0  7G07G26G05G15G28G10G30
  24407070.438    24407067.859    -1873524.55804  -1401178.20546        39.000
        22.000
  20322654.688    20322651.430   -25913896.92407 -19900964.96647        52.000
        39.000
  20652381.219    20652378.539   -21264277.88407 -15985149.31247        50.000
        41.000
  23128405.953    23128403.348   -10135432.67206  -7534528.17046        44.000
        30.000
  21607488.031    21607484.859   -17459605.04007 -12053243.40847        49.000
        34.000
  23668597.625    23668597.285    -6352256.68606  -4256063.62946        43.000
        25.000
  21931156.172    21931155.676   -15720311.18307 -11998628.83347        48.000
        36.000
 14  9 29  0  2 55.0000000  0  7G07G26G05G15G28G10G30
  24410055.180    24410052.656    -1857841.90405  -1388957.95546        40.000
        22.000
  20321559.703    20321556.445   -25919651.36407 -19905448.94047        52.000
        39.000
  20653464.617    20653461.676   -21258585.14907 -15980713.41847        51.000
        42.000
  23125879.484    23125877.172   -10148709.06206  -7544873.41446        44.000
        29.000
  21606940.680    21606937.809   -17462481.57307 -12055484.86047        48.000
        34.000
  23672010.695    23672009.586    -6334322.80406  -4242089.19346        43.000
        27.000
  21933587.836    21933586.852   -15707533.88607 -11988672.49847        48.000
        36.000
 14  9 29  0  3  0.0000000  0  7G07G26G05G15G28G10G30
  24413039.711    24413036.738    -1842158.76804  -1376737.32946        39.000
        22.000
  20320466.320    20320463.324   -25925396.84507 -19909925.94247        52.000
        39.000
  20654550.695    20654547.840   -21252877.19207 -15976265.66547        51.000
        41.000
  23123353.711    23123350.938   -10161982.92006  -7555216.67346        44.000
        28.000
  21606396.148    21606393.055   -17465342.97307 -12057714.52047        48.000
        34.000
  23675424.133    23675423.465    -6316384.70805  -4228111.46946        41.000
        26.000
  21936020.711    21936020.055   -15694750.43307 -11978711.37147        48.000
        36.000
 14  9 29  0  3  5.0000000  0  7G07G26G05G15G28G10G30
  24416023.766    24416021.145    -1826475.68604  -1364516.75446        39.000
        23.000
  20319374.633    20319371.441   -25931133.92307 -19914396.39047        52.000
        39.000
  20655639.789    20655637.160   -21247154.58707 -15971806.49247        51.000
        41.000
  23120828.234    23120825.551   -10175254.73106  -7565558.33846        45.000
        29.000
  21605854.508    21605851.066   -17468189.78907 -12059932.81447        48.000
        35.000
  23678839.164    23678838.035    -6298442.93606  -4214130.87746        43.000
        26.000
  21938454.211    21938453.484   -15681961.37807 -11968745.87147        48.000
        36.000
 14  9 29  0  3 10.0000000  0  7G07G26G05G15G28G10G30
  24419008.375    24419005.281    -1810792.30404  -1352295.92846        39.000
        24.000
  20318284.320    20318281.453   -25936862.25107 -19918860.02647        52.000
        39.000
  20656731.531    20656728.418   -21241416.97307 -15967335.63147        51.000
        41.000
  23118303.016    23118300.668   -10188524.12906  -7575898.12746        46.000
        29.000
  21605315.305    21605312.258   -17471021.62607 -12062139.43547        48.000
        34.000
  23682253.461    23682252.742    -6280497.14806  -4200147.16946        43.000
        27.000
  21940888.805    21940888.328   -15669166.40206 -11958775.76347        47.000
        35.000
 14  9 29  0  3 15.0000000  0  7G07G26G05G15G28G10G30
  24421992.758    24421989.816    -1795109.05005  -1340075.23046        40.000
        24.000
  20317196.195    20317193.059   -25942582.20907 -19923317.13947        51.000
        39.000
  20657826.305    20657823.273   -21235664.73407 -15962853.37147        51.000
        41.000
  23115778.648    23115775.695   -10201791.54106  -7586236.36446        46.000
        29.000
  21604779.461    21604775.977   -17473838.89507 -12064334.70947        48.000
        34.000
  23685669.555    23685668.992    -6262547.77006  -4186160.64646        43.000
        26.000
  21943324.680    21943324.145   -15656365.88307 -11948801.33547        48.000
        35.000
 14  9 29  0  3 20.0000000  0  7G07G26G05G15G28G10G30
  24424977.336    24424974.633    -1779425.20205  -1327854.04846        40.000
        24.000
  20316109.555    20316106.387   -25948293.09307 -19927767.17947        52.000
        39.000
  20658923.539    20658920.813   -21229897.20007 -15958359.18947        51.000
        41.000
  23113254.617    23113251.328   -10215056.26506  -7596572.50446        46.000
        29.000
  21604246.180    21604242.660   -17476640.92107 -12066518.10547        49.000
        34.000
  23689085.961    23689085.582    -6244594.11206  -4172170.80146        43.000
        25.000
  21945761.500    21945760.938   -15643559.13507 -11938822.05747        48.000
        36.000
 14  9 29  0  3 25.0000000  0  7G07G26G05G15G28G10G30
  24427962.266    24427959.500    -1763741.47905  -1315632.96046        40.000
        24.000
  20315024.445    20315021.398   -25953995.64707 -19932210.73347        51.000
        39.000
  20660024.016    20660021.090   -21224115.11307 -15953853.67347        51.000
        41.000
  23110731.016    23110727.488   -10228319.03906  -7606907.13346        45.000
        30.000
  21603715.633    21603712.336   -17479428.36207 -12068690.13747        48.000
        35.000
  23692503.250    23692502.320    -6226636.90906  -4158178.19446        43.000
        28.000
  21948199.891    21948199.320   -15630746.91207 -11928838.50747        48.000
        35.000
 14  9 29  0  3 30.0000000  0  7G07G26G05G15G28G10G30
  24430946.211    24430943.605    -1748057.55605  -1303411.72346        42.000
        25.000
  20313940.352    20313937.621   -25959689.47807 -19936647.48447        51.000
        39.000
  20661127.234    20661123.965   -21218318.07607 -15949336.50447        51.000
        41.000
  23108206.984    23108204.223   -10241579.46606  -7617239.92246        45.000
        29.000
  21603188.164    21603184.547   -17482200.88407 -12070850.54047        48.000
        35.000
  23695920.570    23695919.961    -6208675.81206  -4144182.54546        43.000
        26.000
  21950639.375    21950638.234   -15617928.84007 -11918850.40647        48.000
        35.000
 14  9 29  0  3 35.0000000  0  7G07G26G05G15G28G10G30
  24433930.492    24433928.246    -1732373.38805  -1291190.29546        41.000
        25.000
  20312858.766    20312855.961   -25965374.54307 -19941077.40047        51.000
        39.000
  20662232.734    20662230.148   -21212506.10707 -15944807.69547        50.000
        41.000
  23105683.734    23105681.723   -10254837.53606  -7627570.89246        45.000
        30.000
  21602663.539    21602660.059   -17484958.44607 -12072999.28247        49.000
        35.000
  23699339.711    23699338.941    -6190710.78506  -4130183.84146        43.000
        26.000
  21953079.625    21953078.633   -15605104.89907 -11908857.72147        48.000
        35.000
 14  9 29  0  3 40.0000000  0  7G07G26G05G15G28G10G30
  24436916.500    24436913.398    -1716688.79205  -1278968.53846        41.000
        26.000
  20311778.375    20311775.781   -25971050.66907 -19945500.35647        51.000
        39.000
  20663341.922    20663339.035   -21206678.99907 -15940267.09547        50.000
        41.000
  23103161.523    23103158.758   -10268093.05106  -7637899.85746        45.000
        29.000
  21602141.633    21602137.680   -17487700.87307 -12075136.23647        49.000
        34.000
  23702758.945    23702758.207    -6172741.65706  -4116181.94946        43.000
        27.000
  21955521.539    21955520.430   -15592274.92407 -11898860.34247        48.000
        36.000
 14  9 29  0  3 45.0000000  0  7G07G26G05G15G28G10G30
  24439900.266    24439897.988    -1701004.51705  -1266747.01046        41.000
        26.000
  20310699.922    20310697.297   -25976718.58407 -19949916.91547        51.000
        39.000
  20664453.461    20664450.438   -21200837.46207 -15935715.24947        50.000
        41.000
  23100639.438    23100636.723   -10281346.70206  -7648227.37846        43.000
        29.000
  21601622.906    21601618.973   -17490428.85707 -12077261.94347        48.000
        35.000
  23706179.148    23706178.125    -6154769.17606  -4102177.41846        44.000
        27.000
  21957963.688    21957962.633   -15579439.62307 -11888858.81147        48.000
        35.000
 14  9 29  0  3 50.0000000  0  7G07G26G05G15G28G10G30
  24442885.219    24442882.402    -1685319.73305  -1254525.11146        40.000
        26.000
  20309623.219    20309620.273   -25982377.44307 -19954326.41047        51.000
        39.000
  20665567.789    20665564.871   -21194980.66807 -15931151.51547        50.000
        40.000
  23098117.836    23098115.270   -10294597.69906  -7658552.81446        45.000
        29.000
  21601106.492    21601102.879   -17493141.58607 -12079375.75147        49.000
        35.000
  23709600.234    23709599.281    -6136792.50006  -4088169.63146        44.000
        27.000
  21960406.867    21960406.117   -15566598.19707 -11878852.50547        48.000
        35.000
 14  9 29  0  3 55.0000000  0  7G07G26G05G15G28G10G30
  24445869.961    24445867.027    -1669634.87605  -1242303.14246        40.000
        26.000
  20308548.156    20308545.281   -25988027.70107 -19958729.21047        51.000
        39.000
  20666685.000    20666682.266   -21189109.06607 -15926576.24147        50.000
        41.000
  23095596.469    23095593.938   -10307846.44906  -7668876.50046        44.000
        29.000
  21600592.914    21600589.387   -17495839.46907 -12081477.99447        49.000
        35.000
  23713021.578    23713021.055    -6118812.11506  -4074158.95646        44.000
        26.000
  21962851.828    21962850.730   -15553751.11207 -11868841.78847        48.000
        36.000
 14  9 29  0  4  0.0000000  0  7G07G26G05G15G28G10G30
  24448855.219    24448851.906    -1653949.89905  -1230081.08846        40.000
        26.000
  20307474.414    20307471.551   -25993669.28007 -19963125.23947        51.000
        39.000
  20667805.578    20667802.402   -21183222.53407 -15921989.33747        50.000
        40.000
  23093075.891    23093073.457   -10321092.92206  -7679198.42646        45.000
        29.000
  21600082.414    21600078.750   -17498522.46407 -12083568.63147        50.000
        35.000
  23716443.445    23716443.555    -6100827.91906  -4060145.30546        43.000
        26.000
  21965297.742    21965296.711   -15540898.28606 -11858826.60747        47.000
        35.000
 14  9 29  0  4  5.0000000  0  7G07G26G05G15G28G10G30
  24451838.820    24451837.039    -1638264.69505  -1217858.83546        40.000
        25.000
  20306402.102    20306399.695   -25999302.04407 -19967514.40647        51.000
        39.000
  20668928.500    20668925.422   -21177321.07407 -15917390.80147        50.000
        41.000
  23090556.023    23090553.133   -10334336.92906  -7689518.41646        45.000
        30.000
  21599574.703    21599571.000   -17501190.49707 -12085647.62147        48.000
        35.000
  23719866.570    23719866.250    -6082839.83906  -4046128.64746        43.000
        27.000
  21967744.469    21967743.754   -15528039.62206 -11848806.87247        47.000
        35.000
 14  9 29  0  4 10.0000000  0  7G07G26G05G15G28G10G30
  24454823.641    24454821.660    -1622579.64205  -1205636.72646        40.000
        24.000
  20305332.164    20305329.395   -26004926.38507 -19971897.01047        51.000
        39.000
  20670054.328    20670051.016   -21171405.01807 -15912780.88847        50.000
        41.000
  23088036.234    23088032.996   -10347578.87206  -7699836.80246        45.000
        30.000
  21599069.867    21599066.148   -17503843.93807 -12087715.23947        48.000
        35.000
  23723290.672    23723290.230    -6064848.27806  -4032109.26346        44.000
        27.000
  21970192.484    21970191.480   -15515175.51606 -11838782.89547        47.000
        35.000
 14  9 29  0  4 15.0000000  0  7G07G26G05G15G28G10G30
  24457808.852    24457806.203    -1606894.42505  -1193414.47346        40.000
        24.000
  20304263.594    20304260.566   -26010542.01107 -19976272.81847        51.000
        39.000
  20671182.867    20671180.012   -21165474.05007 -15908159.35547        50.000
        41.000
  23085516.430    23085513.586   -10360818.43606  -7710153.35246        45.000
        29.000
  21598567.563    21598564.070   -17506482.43807 -12089771.20447        49.000
        35.000
  23726715.336    23726714.645    -6046852.89406  -4018086.89646        44.000
        28.000
  21972641.289    21972640.980   -15502305.65106 -11828754.42747        47.000
        35.000
 14  9 29  0  4 20.0000000  0  7G07G26G05G15G28G10G30
  24460793.563    24460790.941    -1591208.96605  -1181192.03546        40.000
        25.000
  20303196.844    20303194.031   -26016148.79007 -19980641.73447        51.000
        39.000
  20672314.664    20672311.191   -21159528.10207 -15903526.14947        50.000
        41.000
  23082997.539    23082994.406   -10374055.51706  -7720467.95846        45.000
        30.000
  21598068.641    21598064.961   -17509105.92407 -12091815.48047        49.000
        34.000
  23730140.367    23730139.680    -6028853.63706  -4004061.52046        44.000
        26.000
  21975091.664    21975090.707   -15489429.94706 -11818721.41047        47.000
        36.000
 14  9 29  0  4 25.0000000  0  7G07G26G05G15G28G10G30
  24463778.813    24463775.957    -1575523.41805  -1168969.52946        41.000
        25.000
  20302131.188    20302128.793   -26021746.85807 -19985003.86247        51.000
        40.000
  20673449.086    20673445.910   -21153567.29307 -15898881.36847        50.000
        41.000
  23080478.742    23080475.297   -10387290.26806  -7730780.74046        46.000
        29.000
  21597572.133    21597568.320   -17511714.53807 -12093848.17147        49.000
        35.000
  23733566.141    23733565.285    -6010850.65006  -3990033.23546        44.000
        26.000
  21977543.078    21977542.051   -15476548.55706 -11808683.96647        47.000
        36.000
 14  9 29  0  4 30.0000000  0  7G07G26G05G15G28G10G30
  24466762.922    24466760.523    -1559837.88905  -1156747.03146        40.000
        24.000
  20301067.867    20301065.223   -26027336.35207 -19989359.31247        51.000
        39.000
  20674586.023    20674582.855   -21147591.75107 -15894225.09947        50.000
        41.000
  23077961.203    23077957.664   -10400522.80106  -7741091.80946        46.000
        29.000
  21597078.461    21597074.949   -17514308.35407 -12095869.32247        48.000
        35.000
  23736993.031    23736991.816    -5992844.04506  -3976002.13346        44.000
        26.000
  21979995.133    21979994.156   -15463661.59106 -11798642.18047        47.000
        35.000
 14  9 29  0  4 35.0000000  0  7G07G26G05G15G28G10G30
  24469748.438    24469745.625    -1544152.11905  -1144524.36446        41.000
        26.000
  20300005.648    20300003.129   -26032916.91707 -19993707.80347        51.000
        39.000
  20675726.031    20675722.668   -21141601.21407 -15889557.15147        50.000
        41.000
  23075444.016    23075440.152   -10413752.85906  -7751400.93146        45.000
        29.000
  21596587.953    21596584.355   -17516887.10907 -12097878.73847        48.000
        35.000
  23740420.188    23740418.988    -5974833.52406  -3961967.96746        44.000
        26.000
  21982448.797    21982447.621   -15450768.78006 -11788595.83547        46.000
        34.000
 14  9 29  0  4 40.0000000  0  8G07G26G05G15G24G28G10G30
  24472729.664    24472726.613    -1528485.67905  -1132316.74746        41.000
        25.000
  20298941.680    20298939.070   -26038508.17007 -19998064.62247        51.000
        40.000
  20676865.148    20676861.746   -21135615.21407 -15884892.73947        50.000
        41.000
  23072922.758    23072919.145   -10426999.92706  -7761723.31246        45.000
        28.000
  25232217.156                      -73518.22403          .00051        36.000

  21596096.516    21596092.773   -17519470.29907 -12099891.60947        49.000
        35.000
  23743844.523    23743842.969    -5956838.65806  -3947946.01246        44.000
        26.000
  21984898.969    21984898.582   -15437889.69806 -11778560.18747        47.000
        35.000
 14  9 29  0  4 45.0000000  0  8G07G26G05G15G24G28G10G30
  24475714.844    24475711.402    -1512799.94005  -1120094.08846        41.000
        23.000
  20297882.789    20297880.605   -26044071.48807 -20002399.67747        51.000
        40.000
  20678010.570    20678007.191   -21129595.17307 -15880201.79947        50.000
        41.000
  23070406.016    23070402.148   -10440225.44906  -7772028.91746        46.000
        29.000
  25229153.680                      -89624.88103          .00051        37.000

  21595611.125    21595607.926   -17522019.35407 -12101877.88547        48.000
        35.000
  23747272.938    23747271.813    -5938820.87206  -3933906.17746        44.000
        25.000
  21987354.594    21987354.000   -15424985.72506 -11768505.15047        46.000
        34.000
 14  9 29  0  4 50.0000000  0  8G07G26G05G15G24G28G10G30
  24478699.344    24478696.348    -1497114.13005  -1107871.38546        40.000
        26.000
  20296826.117    20296823.629   -26049626.09007 -20006727.93347        51.000
        40.000
  20679159.289    20679155.563   -21123560.33507 -15875499.32847        50.000
        41.000
  23067889.727    23067886.410   -10453448.61806  -7782332.67246        45.000
        30.000
  25226088.313                     -105728.32303          .00051        37.000

  21595128.797    21595125.434   -17524553.51607 -12103852.55547        48.000
        35.000
  23750702.516    23750701.266    -5920799.37306  -3919863.47746        43.000
        26.000
  21989811.578    21989810.723   -15412076.09506 -11758445.70047        46.000
        34.000
 14  9 29  0  4 55.0000000  0  8G07G26G05G15G24G28G10G30
  24481684.094    24481681.203    -1481428.21805  -1095648.60046        40.000
        25.000
  20295770.781    20295767.910   -26055171.93207 -20011049.36947        51.000
        40.000
  20680310.344    20680306.969   -21117510.62807 -15870785.27447        51.000
        41.000
  23065374.016    23065370.297   -10466669.37906  -7792634.56846        46.000
        29.000
  25223024.711    25223030.512     -121828.68603    310110.01545        37.000
        19.000
  21594649.219    21594646.195   -17527072.73506 -12105815.58047        47.000
        34.000
  23754132.289    23754131.648    -5902774.15906  -3905817.86546        44.000
        26.000
  21992268.672    21992268.660   -15399160.82606 -11748381.86047        46.000
        34.000
 14  9 29  0  5  0.0000000  0  8G07G26G05G15G24G28G10G30
  24484669.578    24484666.375    -1465742.00205  -1083425.56946        40.000
        26.000
  20294717.406    20294714.547   -26060708.77507 -20015363.79247        50.000
        39.000
  20681464.219    20681461.152   -21111445.82207 -15866059.45347        50.000
        41.000
  23062858.727    23062855.070   -10479887.52906  -7802934.42046        46.000
        29.000
  25219961.016    25219967.574     -137925.65303    297567.06045        37.000
        19.000
  21594173.031    21594169.488   -17529576.78507 -12107766.78147        48.000
        35.000
  23757563.188    23757562.020    -5884744.99706  -3891769.18646        43.000
        25.000
  21994727.336    21994727.281   -15386239.66406 -11738313.42247        46.000
        34.000
 14  9 29  0  5  5.0000000  0  8G07G26G05G15G24G28G10G30
  24487654.422    24487651.395    -1450055.98505  -1071202.70846        42.000
        26.000
  20293665.281    20293662.730   -26066237.10407 -20019671.57847        51.000
        39.000
  20682621.422    20682618.266   -21105366.40507 -15861322.24947        50.000
        41.000
  23060343.164    23060339.934   -10493103.55106  -7813232.61746        45.000
        30.000
  25216898.078    25216905.160     -154019.60703    285026.44045        36.000
        18.000
  21593698.945    21593695.684   -17532066.15407 -12109706.55147        48.000
        35.000
  23760994.773    23760993.352    -5866712.38006  -3877717.81146        43.000
        25.000
  21997187.828    21997187.105   -15373313.11806 -11728240.78947        46.000
        34.000
 14  9 29  0  5 10.0000000  0  8G07G26G05G15G24G28G10G30
  24490638.953    24490636.230    -1434369.97305  -1058979.83746        42.000
        26.000
  20292614.852    20292611.852   -26071756.78107 -20023972.62247        51.000
        39.000
  20683780.859    20683777.816   -21099272.22607 -15856573.54347        50.000
        41.000
  23057828.875    23057825.391   -10506317.29306  -7823529.03846        45.000
        29.000
  25213836.508    25213843.402     -170110.44102    272488.25845        35.000
        17.000
  21593228.328    21593225.059   -17534540.66807 -12111634.74147        48.000
        35.000
  23764426.781    23764425.887    -5848676.15806  -3863663.63946        43.000
        27.000
  21999648.352    21999648.086   -15360381.04206 -11718163.84547        46.000
        34.000
 14  9 29  0  5 15.0000000  0  8G07G26G05G15G24G28G10G30
  24493624.320    24493621.363    -1418683.81205  -1046756.85646        42.000
        26.000
  20291565.906    20291563.559   -26077267.63207 -20028266.79647        51.000
        39.000
  20684943.438    20684940.188   -21093163.13107 -15851813.21147        51.000
        41.000
  23055315.430    23055311.742   -10519528.54606  -7833823.50046        45.000
        29.000
  25210774.656    25210781.977     -186197.99402    259952.66445        34.000
        16.000
  21592760.102    21592757.191   -17537000.13206 -12113551.20347        47.000
        35.000
  23767860.336    23767859.066    -5830636.18506  -3849606.51546        43.000
        25.000
  22002110.445    22002109.723   -15347443.24606 -11708082.45247        46.000
        34.000
 14  9 29  0  5 20.0000000  0  8G07G26G05G15G24G28G10G30
  24496609.250    24496606.254    -1402997.56905  -1034533.81646        42.000
        25.000
  20290519.016    20290516.305   -26082769.63707 -20032554.07347        51.000
        39.000
  20686108.961    20686105.457   -21087039.15207 -15847041.27847        50.000
        41.000
  23052801.164    23052798.047   -10532737.35506  -7844116.08046        45.000
        29.000
  25207713.992    25207721.094     -202282.41302    247419.62945        35.000
        16.000
  21592295.188    21592291.953   -17539444.58706 -12115455.97647        47.000
        35.000
  23771293.234    23771292.352    -5812592.50705  -3835546.53646        42.000
        25.000
  22004573.703    22004573.223   -15334499.78706 -11697996.64147        46.000
        34.000
 14  9 29  0  5 25.0000000  0  8G07G26G05G15G24G28G10G30
  24499594.297    24499591.031    -1387311.33405  -1022310.77346        42.000
        26.000
  20289473.977    20289470.980   -26088262.92007 -20036834.55847        51.000
        40.000
  20687276.992    20687273.488   -21080900.38907 -15842257.83047        51.000
        41.000
  23050288.000    23050284.820   -10545943.79306  -7854406.80246        44.000
        29.000
  25204653.555    25204660.781     -218363.60503    234888.97245        36.000
        15.000
  21591832.977    21591829.574   -17541874.11207 -12117349.10947        48.000
        35.000
  23774728.281    23774726.918    -5794545.24406  -3821483.73746        43.000
        25.000
  22007037.664    22007037.250   -15321550.77906 -11687906.50447        46.000
        34.000
 14  9 29  0  5 30.0000000  0  8G07G26G05G15G24G28G10G30
  24502578.914    24502575.742    -1371625.05805  -1010087.70446        42.000
        26.000
  20288430.070    20288427.188   -26093747.41307 -20041108.18847        51.000
        40.000
  20688448.102    20688444.660   -21074746.75707 -15837462.79447        50.000
        41.000
  23047775.563    23047772.086   -10559147.84506  -7864695.66746        46.000
        29.000
  25201593.789    25201601.418     -234441.67802    222360.79045        35.000
        16.000
  21591373.617    21591369.715   -17544288.60907 -12119230.53847        49.000
        35.000
  23778162.211    23778161.512    -5776494.32105  -3807418.09346        42.000
        22.000
  22009502.766    22009502.098   -15308596.15906 -11677812.01047        46.000
        34.000
 14  9 29  0  5 35.0000000  0  8G07G26G05G15G24G28G10G30
  24505564.203    24505560.824    -1355938.79205   -997864.64246        41.000
        26.000
  20287388.039    20287385.379   -26099223.19807 -20045375.02947        51.000
        40.000
  20689621.523    20689618.359   -21068578.44107 -15832656.31447        51.000
        41.000
  23045264.039    23045259.813   -10572349.56306  -7874982.71946        45.000
        29.000
  25198535.063    25198542.359     -250516.55703    209835.09545        36.000
        17.000
  21590917.016    21590913.371   -17546688.23207 -12121100.37347        49.000
        35.000
  23781598.586    23781596.922    -5758439.83306  -3793349.67846        43.000
        22.000
  22011969.172    22011968.688   -15295636.00506 -11667713.18847        46.000
        34.000
 14  9 29  0  5 40.0000000  0  8G07G26G05G15G24G28G10G30
  24508549.227    24508545.668    -1340252.50405   -985641.55146        42.000
        26.000
  20286347.688    20286345.313   -26104690.18407 -20049635.02047        51.000
        40.000
  20690798.242    20690794.922   -21062395.32807 -15827838.30647        50.000
        41.000
  23042751.391    23042747.957   -10585548.86106  -7885267.88446        46.000
        29.000
  25195476.328    25195483.906     -266588.26303    197311.91745        36.000
        17.000
  21590463.336    21590459.137   -17549072.90307 -12122958.55347        48.000
        35.000
  23785034.961    23785033.719    -5740381.71805  -3779278.44046        42.000
        22.000
  22014436.188    22014435.887   -15282670.30906 -11657610.05147        46.000
        34.000
 14  9 29  0  5 45.0000000  0  8G07G26G05G15G24G28G10G30
  24511533.930    24511530.715    -1324566.17405   -973418.44546        41.000
        25.000
  20285309.141    20285306.691   -26110148.37307 -20053888.15047        51.000
        40.000
  20691977.313    20691973.750   -21056197.37707 -15823008.73347        50.000
        41.000
  23040240.281    23040236.809   -10598745.74106  -7895551.16746        45.000
        30.000
  25192417.680    25192425.477     -282656.63503    184791.27345        36.000
        18.000
  21590012.328    21590008.129   -17551442.61307 -12124805.07447        49.000
        35.000
  23788471.844    23788470.637    -5722319.96105  -3765204.35746        42.000
        23.000
  22016905.180    22016904.305   -15269699.01506 -11647502.55347        46.000
        34.000
 14  9 29  0  5 50.0000000  0  8G07G26G05G15G24G28G10G30
  24514519.188    24514515.676    -1308879.87305   -961195.35346        41.000
        24.000
  20284272.195    20284269.301   -26115597.81607 -20058134.46847        51.000
        39.000
  20693159.781    20693156.703   -21049984.65607 -15818167.65647        50.000
        40.000
  23037729.578    23037726.164   -10611940.22606  -7905832.59246        44.000
        29.000
  25189361.078    25189368.605     -298721.92302    172272.99145        35.000
        17.000
  21589564.000    21589560.168   -17553797.40207 -12126639.98047        49.000
        35.000
  23791909.617    23791908.719    -5704254.64005  -3751127.51046        42.000
        22.000
  22019373.703    22019373.770   -15256722.22406 -11637390.77147        46.000
        34.000
 14  9 29  0  5 55.0000000  0  8G07G26G05G15G24G28G10G30
  24517503.969    24517500.871    -1293193.66505   -948972.32846        41.000
        25.000
  20283236.953    20283234.391   -26121038.58807 -20062374.02947        52.000
        39.000
  20694344.781    20694341.578   -21043757.22807 -15813315.11647        50.000
        41.000
  23035219.391    23035215.500   -10625132.38406  -7916112.19046        45.000
        28.000
  25186303.891    25186311.563     -314784.27802    159756.97645        35.000
        16.000
  21589118.680    21589114.910   -17556137.32807 -12128463.29847        48.000
        35.000
  23795348.633    23795347.074    -5686185.82805  -3737047.93946        41.000
        22.000
  22021844.406    22021843.363   -15243739.99306 -11627274.75347        45.000
        34.000
 14  9 29  0  6  0.0000000  0  8G07G26G05G15G24G28G10G30
  24520489.031    24520485.777    -1277507.27605   -936749.16746        42.000
        25.000
  20282203.344    20282200.406   -26126470.40007 -20066606.60947        51.000
        39.000
  20695532.656    20695529.711   -21037514.82107 -15808450.90647        50.000
        41.000
  23032708.711    23032705.367   -10638321.92206  -7926389.75946        44.000
        28.000
  25183249.352    25183255.789     -330843.16502    147243.81145        35.000
        16.000
  21588676.664    21588672.840   -17558462.08807 -12130274.79647        49.000
        35.000
  23798786.773    23798785.664    -5668113.24205  -3722965.43146        42.000
        22.000
  22024315.906    22024315.426   -15230752.02906 -11617154.26047        46.000
        34.000
 14  9 29  0  6  5.0000000  0  8G07G26G05G15G24G28G10G30
  24523474.211    24523470.695    -1261821.10805   -924526.19046        41.000
        26.000
  20281171.266    20281168.293   -26131893.58807 -20070832.46747        51.000
        40.000
  20696723.469    20696719.973   -21031257.82607 -15803575.32647        50.000
        40.000
  23030199.211    23030196.082   -10651509.23606  -7936665.58146        44.000
        29.000
  25180193.344    25180200.316     -346898.96502    134732.91945        35.000
        17.000
  21588236.664    21588233.102   -17560772.07907 -12132074.78647        49.000
        35.000
  23802226.477    23802225.691    -5650037.28105  -3708880.24946        42.000
        21.000
  22026788.695    22026788.121   -15217758.74606 -11607029.62947        46.000
        34.000
 14  9 29  0  6 10.0000000  0  8G07G26G05G15G24G28G10G30
  24526458.766    24526455.824    -1246134.80505   -912303.08246        42.000
        26.000
  20280140.695    20280138.059   -26137307.84007 -20075051.36447        51.000
        40.000
  20697916.891    20697913.914   -21024985.88707 -15798688.10347        50.000
        40.000
  23027690.547    23027687.020   -10664693.99706  -7946939.40946        44.000
        29.000
  25177138.234    25177145.098     -362951.43803    122224.70745        36.000
        17.000
  21587799.891    21587796.328   -17563066.96707 -12133863.00947        49.000
        35.000
  23805667.094    23805665.781    -5631957.62005  -3694792.22846        41.000
        21.000
  22029262.344    22029261.426   -15204759.80406 -11596900.58847        46.000
        34.000
 14  9 29  0  6 15.0000000  0  8G07G26G05G15G24G28G10G30
  24529444.234    24529440.668    -1230448.55205   -900080.03446        42.000
        26.000
  20279112.461    20279109.664   -26142713.33207 -20079263.43247        51.000
        39.000
  20699113.039    20699110.539   -21018699.19707 -15793789.38847        49.000
        40.000
  23025181.570    23025179.203   -10677876.34406  -7957211.35446        44.000
        28.000
  25174083.641    25174091.152     -379000.74902    109718.87245        35.000
        16.000
  21587366.016    21587362.680   -17565346.90307 -12135639.57947        50.000
        35.000
  23809108.055    23809106.582    -5613874.47105  -3680701.47946        41.000
        22.000
  22031737.031    22031736.234   -15191755.40306 -11586767.28947        47.000
        34.000
 14  9 29  0  6 20.0000000  0  8G07G26G05G15G24G28G10G30
  24532428.984    24532425.813    -1214762.17505   -887856.86946        42.000
        26.000
  20278085.438    20278082.469   -26148109.86707 -20083468.52447        51.000
        40.000
  20700312.352    20700309.289   -21012397.57107 -15788879.03447        50.000
        40.000
  23022673.492    23022671.055   -10691056.15206  -7967481.32446        44.000
        28.000
  25171030.328    25171037.316     -395046.69602     97215.72245        34.000
        17.000
  21586935.344    21586931.527   -17567611.73907 -12137404.38347        49.000
        34.000
  23812549.781    23812548.102    -5595787.66205  -3666607.86446        41.000
        22.000
  22034213.039    22034211.836   -15178745.36906 -11576629.59947        47.000
        34.000
 14  9 29  0  6 25.0000000  0  8G07G26G05G15G24G28G10G30
  24535414.047    24535410.789    -1199076.20606   -875634.05346        43.000
        27.000
  20277059.805    20277057.176   -26153497.99607 -20087667.06347        50.000
        40.000
  20701514.070    20701511.348   -21006081.59907 -15783957.49147        49.000
        40.000
  23020165.883    23020163.445   -10704233.91106  -7977749.70646        44.000
        29.000
  25167977.063    25167984.391     -411089.86803     84714.68945        36.000
        17.000
  21586506.938    21586503.152   -17569862.02007 -12139157.84347        49.000
        35.000
  23815992.164    23815991.371    -5577697.74305  -3652511.85946        41.000
        22.000
  22036689.313    22036688.434   -15165730.26406 -11566487.95647        46.000
        35.000
 14  9 29  0  6 30.0000000  0  8G07G26G05G15G24G28G10G30
  24538399.094    24538395.527    -1183389.96206   -863410.99346        43.000
        26.000
  20276036.266    20276033.883   -26158877.02107 -20091858.51147        51.000
        39.000
  20702719.000    20702716.457   -20999750.52607 -15779024.19447        50.000
        41.000
  23017659.047    23017656.211   -10717408.91406  -7988015.93746        45.000
        29.000
  25164925.672    25164931.527     -427129.49303     72216.38745        36.000
        17.000
  21586081.570    21586078.254   -17572096.97107 -12140899.36047        49.000
        35.000
  23819435.289    23819433.871    -5559604.00805  -3638412.84346        40.000
        22.000
  22039167.133    22039166.355   -15152709.34506 -11556341.79147        47.000
        34.000
 14  9 29  0  6 35.0000000  0  8G07G26G05G15G24G28G10G30
  24541384.195    24541380.770    -1167703.96206   -851188.14146        43.000
        27.000
  20275014.266    20275011.484   -26164247.42807 -20096043.23947        51.000
        40.000
  20703926.375    20703923.844   -20993404.86807 -15774079.53147        50.000
        41.000
