     2.1            OBSERVATION DATA    G (GPS)             RINEX VERSION / TYPE
GPSNet 2.51 2653                        10-Dec-13 16:59:44  PGM / RUN BY / DATE
DENI                                                        MARKER NAME
13498M001                                                   MARKER NUMBER
ICV                 ICV                                     OBSERVER / AGENCY
020277697           TRIMBLE 5700        NP  1.23 / SP 1.22  REC # / TYPE / VERS
     0                                                      RCV CLOCK OFFS APPL
                    TRM41249.00                             ANT # / TYPE
  4974895.8850     9000.7650  3978089.6860                  APPROX POSITION XYZ
        0.0800        0.0000        0.0000                  ANTENNA: DELTA H/E/N
     1     1     0                                          WAVELENGTH FACT L1/2
     6    C1    P2    L1    L2    S1    S2                  # / TYPES OF OBSERV
     5.000                                                  INTERVAL
  2013    12    10    16     0    0.0000000     GPS         TIME OF FIRST OBS
                                                            END OF HEADER
 13 12 10 16  0  0.0000000  0  8G10G04G07G20G02G08G13G17
  21220867.027    21220863.998   -51386414.15207 -40003374.85447        49.000
        36.000
  20486586.252    20486583.162   -67562962.59807 -52602675.75347        51.000
        41.000
  22316200.601    22316199.489   -26296147.71506 -20382557.29147        46.000
        33.000
  22848962.703    22848959.696   -95896961.43006 -74615876.02246        44.000
        28.000
  23215582.189    23215578.239   -29475755.52006 -22856751.16546        45.000
        29.000
  24770248.827    24770265.540    -1556680.87105  -1165757.42946        41.000
        22.000
  20208593.382    20208589.222   -67920125.89807 -52898311.34547        50.000
        41.000
  24137271.321    24137279.885   -71200861.79304 -55460603.39346        39.000
        25.000
 13 12 10 16  0  5.0000000  0  8G10G04G07G20G02G08G13G17
  21215390.921    21215387.791   -51415190.85907 -40025798.25047        48.000
        36.000
  20482682.708    20482679.758   -67583474.17207 -52618658.79047        51.000
        40.000
  22309690.178    22309687.865   -26330362.15206 -20409217.84847        46.000
        34.000
  22847738.867    22847736.098   -95903392.42606 -74620887.19446        44.000
        28.000
  23208975.247    23208971.745   -29510473.57806 -22883804.19346        45.000
        29.000
  24763204.859    24763221.260    -1593693.50405  -1194598.06446        41.000
        23.000
  20205447.145    20205443.362   -67936659.41807 -52911194.60547        50.000
        40.000
  24136434.179    24136442.528   -71205261.07005 -55464031.61046        40.000
        25.000
 13 12 10 16  0 10.0000000  0  8G10G04G07G20G02G08G13G17
  21209915.929    21209912.928   -51443961.14107 -40048216.64647        48.000
        36.000
  20478782.531    20478779.416   -67603969.39107 -52634629.08747        52.000
        40.000
  22303180.816    22303178.581   -26364568.35906 -20435872.01047        45.000
        33.000
  22846516.239    22846513.257   -95909818.37906 -74625894.42946        44.000
        27.000
  23202370.228    23202366.310   -29545184.43806 -22910851.60546        44.000
        29.000
  24756161.515    24756178.001    -1630706.60205  -1223439.02146        41.000
        23.000
  20202303.131    20202299.573   -67953180.61707 -52924068.26647        50.000
        40.000
  24135597.687    24135606.038   -71209658.46904 -55467458.30446        39.000
        25.000
 13 12 10 16  0 15.0000000  0  8G10G04G07G20G02G08G13G17
  21204442.563    21204439.277   -51472725.33207 -40070630.30347        49.000
        36.000
  20474885.424    20474883.060   -67624448.52007 -52650586.85247        51.000
        40.000
  22296673.648    22296671.069   -26398766.66006 -20462520.00747        46.000
        33.000
  22845293.678    22845291.397   -95916239.61706 -74630897.98746        44.000
        28.000
  23195766.854    23195761.956   -29579888.36306 -22937893.58846        45.000
        30.000
  24749117.859    24749133.932    -1667720.56305  -1252280.71846        41.000
        22.000
  20199161.720    20199157.690   -67969689.81307 -52936932.56647        50.000
        41.000
  24134760.968    24134769.920   -71214054.30504 -55470883.83246        39.000
        24.000
 13 12 10 16  0 20.0000000  0  8G10G04G07G20G02G08G13G17
  21198970.062    21198966.753   -51501483.43807 -40093039.21947        49.000
        37.000
  20470991.359    20470988.711   -67644911.58207 -52666532.09047        51.000
        40.000
  22290167.082    22290164.831   -26432957.09406 -20489161.87147        46.000
        34.000
  22844072.988    22844069.821   -95922656.13306 -74635897.88846        43.000
        28.000
  23189163.824    23189159.837   -29614585.37106 -22964930.23046        44.000
        29.000
  24742073.589    24742089.465    -1704735.39105  -1281123.01246        42.000
        22.000
  20196022.422    20196018.398   -67986187.00807 -52949787.53047        50.000
        41.000
  24133924.893    24133933.925   -71218448.67604 -55474308.15546        39.000
        23.000
 13 12 10 16  0 25.0000000  0  8G10G04G07G20G02G08G13G17
  21193498.394    21193495.327   -51530235.21507 -40115443.19047        48.000
        37.000
  20467100.612    20467097.907   -67665358.37507 -52682464.64747        51.000
        40.000
  22283662.214    22283659.829   -26467139.38706 -20515797.40347        47.000
        34.000
  22842852.718    22842849.712   -95929067.72306 -74640893.95146        43.000
        27.000
  23182562.696    23182558.576   -29649275.21106 -22991961.23846        44.000
        29.000
  24735029.325    24735045.590    -1741750.78905  -1309965.70646        42.000
        21.000
  20192885.376    20192881.490   -68002672.02307 -52962632.99947        49.000
        41.000
  24133089.595    24133098.156   -71222841.35205 -55477731.19346        40.000
        25.000
 13 12 10 16  0 30.0000000  0  8G10G04G07G20G02G08G13G17
  21188028.615    21188025.419   -51558980.94507 -40137842.46247        48.000
        36.000
  20463212.570    20463209.859   -67685789.12507 -52698384.71347        51.000
        41.000
  22277159.102    22277156.752   -26501313.69506 -20542426.72047        46.000
        34.000
  22841633.617    22841630.308   -95935474.63706 -74645886.33446        44.000
        26.000
  23175962.644    23175958.967   -29683958.15206 -23018986.91946        44.000
        29.000
  24727985.687    24728001.225    -1778767.04306  -1338809.17046        43.000
        23.000
  20189750.410    20189746.765   -68019145.15207 -52975469.20147        49.000
        41.000
  24132254.311    24132262.542   -71227232.60205 -55481153.09846        40.000
        24.000
 13 12 10 16  0 35.0000000  0  8G10G04G07G20G02G08G13G17
  21182559.833    21182556.700   -51587720.16007 -40160236.65847        48.000
        36.000
  20459328.129    20459325.211   -67706203.46107 -52714291.98447        51.000
        41.000
  22270657.333    22270655.447   -26535479.64506 -20569049.51847        46.000
        33.000
  22840415.440    22840412.269   -95941876.46506 -74650874.77846        44.000
        26.000
  23169363.836    23169360.357   -29718633.72306 -23046006.80346        44.000
        29.000
  24720941.195    24720956.963    -1815783.68005  -1367652.91046        42.000
        23.000
  20186618.194    20186614.546   -68035605.85907 -52988295.73147        50.000
        41.000
  24131419.037    24131427.052   -71231622.02705 -55484573.61046        40.000
        24.000
 13 12 10 16  0 40.0000000  0  8G10G04G07G20G02G08G13G17
  21177091.819    21177088.702   -51616453.23807 -40182626.06147        49.000
        36.000
  20455446.358    20455443.526   -67726601.72707 -52730186.73347        51.000
        41.000
  22264157.296    22264155.638   -26569637.61706 -20595666.09147        47.000
        33.000
  22839198.523    22839194.961   -95948273.62506 -74655859.58946        43.000
        26.000
  23162766.854    23162762.786   -29753302.27306 -23073021.24646        45.000
        29.000
  24713896.822    24713912.458    -1852801.10505  -1396497.28746        41.000
        22.000
  20183488.232    20183484.468   -68052054.62107 -53001112.95147        48.000
        40.000
  24130584.621    24130592.565   -71236009.99605 -55487992.99646        40.000
        24.000
 13 12 10 16  0 45.0000000  0  8G10G04G07G20G02G08G13G17
  21171625.713    21171622.607   -51645180.23807 -40205010.73247        49.000
        36.000
  20451568.097    20451565.026   -67746983.93807 -52746068.96747        51.000
        41.000
  22257658.796    22257657.312   -26603787.64106 -20622276.46247        47.000
        34.000
  22837981.791    22837978.560   -95954666.10906 -74660840.75146        43.000
        26.000
  23156171.080    23156166.733   -29787963.89806 -23100030.29546        44.000
        29.000
  24706851.380    24706867.677    -1889819.39105  -1425342.28546        41.000
        22.000
  20180360.070    20180356.538   -68068491.46507 -53013920.87747        50.000
        41.000
  24129749.642    24129758.172   -71240396.62105 -55491411.28846        41.000
        24.000
 13 12 10 16  0 50.0000000  0  8G10G04G07G20G02G08G13G17
  21166159.745    21166157.090   -51673901.06307 -40227390.58947        49.000
        37.000
  20447692.217    20447689.380   -67767350.07407 -52761938.68047        51.000
        40.000
  22251161.729    22251160.081   -26637929.67606 -20648880.60647        46.000
        34.000
  22836766.198    22836763.018   -95961053.91006 -74665818.27846        43.000
        27.000
  23149576.379    23149571.896   -29822618.50806 -23127033.90546        44.000
        29.000
  24699806.267    24699822.881    -1926838.38305  -1454187.88646        42.000
        22.000
  20177235.005    20177230.868   -68084916.33207 -53026719.46747        49.000
        41.000
  24128915.532    24128923.547   -71244781.75805 -55494828.47746        41.000
        24.000
 13 12 10 16  0 55.0000000  0  8G10G04G07G20G02G08G13G17
  21160695.915    21160692.923   -51702615.64107 -40249765.57747        49.000
        36.000
  20443819.902    20443817.130   -67787699.97707 -52777795.74447        52.000
        40.000
  22244666.648    22244664.833   -26672063.56606 -20675478.42247        46.000
        34.000
  22835551.791    22835548.199   -95967436.87106 -74670792.01446        43.000
        26.000
  23142983.246    23142978.678   -29857265.97706 -23154031.91046        45.000
        29.000
  24692761.901    24692778.140    -1963858.01605  -1483033.96846        41.000
        22.000
  20174111.463    20174107.649   -68101329.14107 -53039508.67147        50.000
        40.000
  24128080.822    24128089.599   -71249165.39505 -55498244.43746        40.000
        25.000
 13 12 10 16  1  0.0000000  0  8G10G04G07G20G02G08G13G17
  21155232.734    21155230.011   -51731324.02007 -40272135.74347        49.000
        37.000
  20439950.316    20439947.519   -67808033.75007 -52793640.24147        51.000
        40.000
  22238172.354    22238170.536   -26706189.35907 -20702069.92447        48.000
        34.000
  22834337.258    22834334.219   -95973815.02706 -74675762.01946        43.000
        25.000
  23136391.601    23136386.963   -29891906.35206 -23181024.40646        44.000
        29.000
  24685716.412    24685732.664    -2000878.37505  -1511880.59746        40.000
        22.000
  20170990.430    20170986.552   -68117729.95307 -53052288.51647        50.000
        41.000
  24127246.479    24127255.297   -71253547.57805 -55501659.29946        40.000
        25.000
 13 12 10 16  1  5.0000000  0  8G10G04G07G20G02G08G13G17
  21149770.839    21149768.020   -51760025.97707 -40294500.90147        49.000
        36.000
  20436084.132    20436080.992   -67828351.17207 -52809471.98747        51.000
        40.000
  22231680.230    22231677.893   -26740306.81306 -20728654.93847        47.000
        34.000
  22833125.073    22833121.433   -95980188.21506 -74680728.14446        43.000
        24.000
  23129801.124    23129796.192   -29926539.46106 -23208011.21646        44.000
        29.000
  24678671.769    24678687.704    -2037899.15205  -1540727.46846        41.000
        22.000
  20167871.603    20167867.642   -68134118.57407 -53065058.87147        50.000
        41.000
  24126413.365    24126422.296   -71257928.11705 -55505072.89046        40.000
        25.000
 13 12 10 16  1 10.0000000  0  8G10G04G07G20G02G08G13G17
  21144310.349    21144307.455   -51788721.79307 -40316861.27547        49.000
        37.000
  20432220.860    20432217.961   -67848652.47307 -52825291.18847        52.000
        40.000
  22225189.038    22225187.017   -26774416.23806 -20755233.69047        47.000
        34.000
  22831913.264    22831909.821   -95986556.71905 -74685690.63446        42.000
        23.000
  23123210.986    23123207.235   -29961165.48806 -23234992.53546        43.000
        29.000
  24671626.583    24671641.754    -2074920.67605  -1569575.09346        41.000
        22.000
  20164755.536    20164751.423   -68150495.25807 -53077819.92247        49.000
        41.000
  24125580.461    24125588.904   -71262307.28104 -55508485.39846        39.000
        25.000
 13 12 10 16  1 15.0000000  0  8G10G04G07G20G02G08G13G17
  21138850.650    21138847.998   -51817411.21907 -40339216.66447        49.000
        37.000
  20428361.025    20428357.934   -67868937.46907 -52841097.67247        52.000
        40.000
  22218699.706    22218698.113   -26808517.28906 -20781805.90947        46.000
        34.000
  22830701.558    22830698.996   -95992920.26605 -74690649.22446        42.000
        26.000
  23116623.469    23116619.765   -29995784.22706 -23261968.16246        44.000
        28.000
  24664581.455    24664596.551    -2111942.62105  -1598422.96646        41.000
        22.000
  20161641.451    20161637.449   -68166859.77307 -53090571.49747        50.000
        40.000
  24124747.277    24124756.300   -71266684.88705 -55511896.68446        41.000
        25.000
 13 12 10 16  1 20.0000000  0  8G10G04G07G20G02G08G13G17
  21133392.688    21133389.564   -51846094.66807 -40361567.40347        50.000
        37.000
  20424504.018    20424501.024   -67889206.51207 -52856891.72747        52.000
        40.000
  22212212.066    22212210.506   -26842610.43006 -20808371.96147        46.000
        34.000
  22829492.345    22829488.884   -95999279.34005 -74695604.36146        42.000
        27.000
  23110037.123    23110033.051   -30030396.09406 -23288938.43346        44.000
        28.000
  24657536.141    24657551.029    -2148965.47305  -1627271.53146        41.000
        22.000
  20158529.541    20158525.486   -68183212.55507 -53103313.91947        49.000
        41.000
  24123914.915    24123923.829   -71271061.32005 -55515307.09846        40.000
        25.000
 13 12 10 16  1 25.0000000  0  8G10G04G07G20G02G08G13G17
  21127935.344    21127932.414   -51874771.86707 -40383913.27047        49.000
        37.000
  20420649.976    20420647.050   -67909459.37907 -52872673.17647        51.000
        40.000
  22205725.903    22205724.311   -26876695.37506 -20834931.64147        46.000
        34.000
  22828282.778    22828279.726   -96005633.58606 -74700555.71746        43.000
        27.000
  23103452.046    23103448.178   -30065000.74206 -23315903.07746        44.000
        29.000
  24650490.162    24650505.221    -2185988.86705  -1656120.63146        41.000
        22.000
  20155419.895    20155416.385   -68199553.31607 -53116046.97447        49.000
        41.000
  24123082.280    24123091.510   -71275436.33205 -55518716.37246        40.000
        25.000
 13 12 10 16  1 30.0000000  0  8G10G04G07G20G02G08G13G17
  21122479.515    21122476.323   -51903442.81607 -40406254.26247        49.000
        36.000
  20416798.929    20416795.841   -67929696.03107 -52888441.99147        52.000
        40.000
  22199241.279    22199239.543   -26910772.10906 -20861484.90247        46.000
        34.000
  22827074.782    22827071.721   -96011983.03106 -74705503.33846        43.000
        26.000
  23096868.895    23096864.802   -30099598.16806 -23342862.12346        44.000
        29.000
  24643444.401    24643459.559    -2223012.82805  -1684970.08546        42.000
        22.000
  20152312.799    20152308.934   -68215882.08207 -53128770.69447        50.000
        40.000
  24122250.101    24122259.246   -71279810.00005 -55522124.60546        40.000
        25.000
 13 12 10 16  1 35.0000000  0  8G10G04G07G20G02G08G13G17
  21117024.986    21117022.008   -51932107.34807 -40428590.25947        48.000
        37.000
  20412950.995    20412948.038   -67949916.31607 -52904198.06047        51.000
        40.000
  22192758.576    22192756.642   -26944840.48006 -20888031.66347        46.000
        35.000
  22825867.907    22825864.549   -96018327.53905 -74710447.10346        42.000
        26.000
  23090286.467    23090282.547   -30134188.23806 -23369815.38946        44.000
        28.000
  24636398.492    24636413.789    -2260037.22705  -1713819.80946        40.000
        21.000
  20149207.818    20149204.101   -68232198.70707 -53141484.94047        50.000
        40.000
  24121418.836    24121427.183   -71284182.09805 -55525531.60146        41.000
        25.000
 13 12 10 16  1 40.0000000  0  8G10G04G07G20G02G08G13G17
  21111571.528    21111568.702   -51960765.39107 -40450921.19647        48.000
        37.000
  20409106.628    20409103.696   -67970120.24207 -52919941.36847        51.000
        40.000
  22186277.361    22186275.493   -26978900.41006 -20914571.85847        47.000
        34.000
  22824660.776    22824657.667   -96024667.06305 -74715387.02846        41.000
        26.000
  23083705.494    23083701.687   -30168770.86706 -23396762.87846        45.000
        29.000
  24629352.789    24629368.033    -2297061.87905  -1742669.89146        41.000
        21.000
  20146105.329    20146101.650   -68248503.12507 -53154189.68247        50.000
        40.000
  24120586.799    24120595.716   -71288552.62105 -55528937.38646        41.000
        25.000
 13 12 10 16  1 45.0000000  0  8G10G04G07G20G02G08G13G17
  21106119.289    21106116.438   -51989417.19107 -40473247.26947        48.000
        37.000
  20405264.679    20405261.996   -67990307.98407 -52935672.06847        52.000
        40.000
  22179797.277    22179795.502   -27012952.14106 -20941105.64147        47.000
        34.000
  22823455.717    22823452.656   -96031001.80106 -74720323.16446        43.000
        25.000
  23077125.952    23077122.154   -30203346.27706 -23423704.75346        44.000
        30.000
  24622307.066    24622322.275    -2334087.12505  -1771520.34846        41.000
        21.000
  20143004.956    20143001.123   -68264795.57407 -53166885.08647        50.000
        41.000
  24119755.381    24119764.974   -71292921.84005 -55532342.15946        41.000
        26.000
 13 12 10 16  1 50.0000000  0  8G10G04G07G20G02G08G13G17
  21100668.131    21100665.280   -52018062.78107 -40495568.52347        48.000
        37.000
  20401426.254    20401423.269   -68010479.53507 -52951390.16147        51.000
        40.000
  22173318.736    22173316.773   -27046995.66006 -20967633.03347        47.000
        34.000
  22822250.864    22822248.055   -96037331.81606 -74725255.71046        43.000
        25.000
  23070548.433    23070544.020   -30237914.50806 -23450641.02446        45.000
        30.000
  24615260.705    24615276.239    -2371112.96105  -1800371.28346        42.000
        23.000
  20139906.502    20139902.963   -68281076.10207 -53179571.21747        49.000
        41.000
  24118924.752    24118933.840   -71297289.74205 -55535745.86646        41.000
        26.000
 13 12 10 16  1 55.0000000  0  8G10G04G07G20G02G08G13G17
  21095218.102    21095214.979   -52046702.37907 -40517885.07647        48.000
        37.000
  20397590.803    20397587.852   -68030635.21907 -52967095.88847        52.000
        40.000
  22166842.267    22166839.911   -27081031.22306 -20994154.21947        47.000
        34.000
  22821047.018    22821044.430   -96043657.38305 -74730184.71446        41.000
        26.000
  23063971.267    23063967.212   -30272475.74206 -23477571.84446        45.000
        30.000
  24608215.237    24608229.741    -2408139.57405  -1829222.84446        42.000
        23.000
  20136810.884    20136807.047   -68297344.95707 -53192248.23747        49.000
        41.000
  24118094.077    24118103.046   -71301656.55505 -55539148.76046        40.000
        26.000
 13 12 10 16  2  0.0000000  0  8G10G04G07G20G02G08G13G17
  21089769.170    21089766.168   -52075335.50007 -40540196.58747        49.000
        37.000
  20393758.469    20393755.669   -68050774.53507 -52982788.84947        52.000
        40.000
  22160367.485    22160364.478   -27115058.33206 -21020668.82247        47.000
        34.000
  22819844.320    22819841.915   -96049977.93405 -74735109.80846        42.000
        25.000
  23057396.217    23057391.338   -30307029.39106 -23504496.76046        44.000
        29.000
  24601169.240    24601183.450    -2445166.49605  -1858074.60046        42.000
        23.000
  20133717.320    20133713.537   -68313601.65207 -53204915.79147        49.000
        40.000
  24117263.138    24117272.729   -71306021.89505 -55542550.53946        40.000
        25.000
 13 12 10 16  2  5.0000000  0  8G10G04G07G20G02G08G13G17
  21084321.924    21084319.253   -52103962.19107 -40562503.10347        49.000
        37.000
  20389929.022    20389926.441   -68070897.46507 -52998469.04947        51.000
        40.000
  22153893.428    22153891.250   -27149076.98406 -21047176.84047        47.000
        34.000
  22818642.756    22818639.849   -96056293.55505 -74740031.06846        42.000
        25.000
  23050821.849    23050817.598   -30341575.69906 -23531415.94846        44.000
        29.000
  24594122.680    24594136.479    -2482193.74605  -1886926.67746        42.000
        23.000
  20130625.963    20130622.390   -68329846.24607 -53217573.91247        50.000
        40.000
  24116433.653    24116442.283   -71310385.81305 -55545951.13946        41.000
        26.000
 13 12 10 16  2 10.0000000  0  8G10G04G07G20G02G08G13G17
  21078875.366    21078872.784   -52132582.82407 -40584804.88247        48.000
        37.000
  20386102.787    20386100.157   -68091004.41407 -53014136.80147        51.000
        40.000
  22147421.523    22147419.185   -27183087.55506 -21073678.56147        47.000
        34.000
  22817441.482    22817438.774   -96062604.61705 -74744948.78646        42.000
        26.000
  23044250.040    23044244.720   -30376114.90206 -23558329.61446        44.000
        29.000
  24587075.553    24587089.673    -2519221.70705  -1915779.28246        42.000
        22.000
  20127537.205    20127533.440   -68346079.10507 -53230222.89147        50.000
        41.000
  24115603.001    24115612.136   -71314748.66805 -55549351.00346        41.000
        26.000
 13 12 10 16  2 15.0000000  0  8G10G04G07G20G02G08G13G17
  21073430.688    21073427.733   -52161196.77307 -40607101.46447        48.000
        36.000
  20382280.023    20382277.034   -68111094.74607 -53029791.60147        52.000
        40.000
  22140950.992    22140948.803   -27217089.44507 -21100173.51747        48.000
        35.000
  22816242.182    22816238.528   -96068910.54305 -74749862.50946        42.000
        25.000
  23037678.114    23037673.726   -30410646.43806 -23585237.27646        44.000
        29.000
  24580029.306    24580043.144    -2556249.79305  -1944631.96146        41.000
        22.000
  20124450.337    20124446.622   -68362299.66407 -53242862.29447        50.000
        41.000
  24114773.117    24114782.595   -71319109.93405 -55552749.57046        40.000
        26.000
 13 12 10 16  2 20.0000000  0  8G10G04G07G20G02G08G13G17
  21067986.827    21067983.681   -52189804.24207 -40629393.00547        49.000
        36.000
  20378459.931    20378457.293   -68131168.67207 -53045433.62247        51.000
        40.000
  22134481.914    22134480.596   -27251082.78506 -21126661.81647        47.000
        35.000
  22815042.965    22815039.976   -96075211.55506 -74754772.39546        43.000
        26.000
  23031108.865    23031104.486   -30445170.48006 -23612139.13446        45.000
        29.000
  24572982.173    24572996.428    -2593278.17205  -1973484.92446        41.000
        22.000
  20121365.790    20121362.471   -68378508.10907 -53255492.24847        50.000
        41.000
  24113943.341    24113953.277   -71323469.63705 -55556146.95146        40.000
        26.000
 13 12 10 16  2 25.0000000  0  8G10G04G07G20G02G08G13G17
  21062544.097    21062541.136   -52218405.50407 -40651679.69147        48.000
        36.000
  20374642.891    20374640.115   -68151226.55507 -53061063.13647        51.000
        40.000
  22128014.812    22128013.277   -27285067.92606 -21153143.72647        47.000
        35.000
  22813844.784    22813841.772   -96081507.93406 -74759678.65846        43.000
        25.000
  23024540.803    23024536.111   -30479687.33606 -23639035.36446        45.000
        30.000
  24565936.024    24565949.518    -2630307.10905  -2002338.25846        41.000
        23.000
  20118283.911    20118280.082   -68394704.77007 -53268113.01847        50.000
        40.000
  24113114.436    24113124.389   -71327828.31605 -55559543.51346        40.000
        25.000
 13 12 10 16  2 30.0000000  0  8G10G04G07G20G02G08G13G17
  21057102.425    21057099.754   -52247000.62907 -40673961.59947        49.000
        37.000
  20370829.170    20370826.262   -68171268.37907 -53076680.13647        51.000
        40.000
  22121549.198    22121547.797   -27319044.88706 -21179619.25347        47.000
        35.000
  22812646.874    22812644.446   -96087799.75005 -74764581.39746        41.000
        26.000
  23017973.292    23017968.727   -30514197.02306 -23665926.00746        45.000
        29.000
  24558889.289    24558903.277    -2667336.65205  -2031192.07246        42.000
        22.000
  20115203.949    20115200.431   -68410889.66807 -53280724.61947        50.000
        41.000
  24112285.330    24112295.067   -71332185.95705 -55562939.26346        40.000
        25.000
 13 12 10 16  2 35.0000000  0  8G10G04G07G20G02G08G13G17
  21051662.545    21051659.708   -52275589.48407 -40696238.63047        48.000
        37.000
  20367018.423    20367015.634   -68191293.99607 -53092284.50747        52.000
        40.000
  22115085.106    22115083.641   -27353013.50806 -21206088.27447        46.000
        35.000
  22811450.396    22811448.442   -96094086.83605 -74769480.43546        41.000
        25.000
  23011407.442    23011403.186   -30548699.40606 -23692810.97046        45.000
        29.000
  24551842.310    24551856.657    -2704366.61705  -2060046.32046        41.000
        22.000
  20112126.892    20112122.745   -68427062.69907 -53293326.97147        50.000
        41.000
  24111456.174    24111465.826   -71336542.41005 -55566334.14946        40.000
        25.000
 13 12 10 16  2 40.0000000  0  8G10G04G07G20G02G08G13G17
  21046223.465    21046220.343   -52304171.91007 -40718510.64547        48.000
        37.000
  20363210.726    20363207.948   -68211303.30907 -53107876.18347        51.000
        40.000
  22108622.925    22108621.055   -27386973.67606 -21232550.71447        47.000
        35.000
  22810255.745    22810253.137   -96100369.03505 -74774375.63346        42.000
        25.000
  23004843.682    23004838.915   -30583194.34406 -23719690.13346        45.000
        29.000
  24544795.798    24544809.806    -2741396.90205  -2088900.68546        42.000
        23.000
  20109051.257    20109047.145   -68443223.71507 -53305919.97447        50.000
        41.000
  24110628.283    24110637.688   -71340897.57805 -55569727.98346        40.000
        25.000
 13 12 10 16  2 45.0000000  0  9G10G04G07G20G02G08G09G13G17
  21040785.274    21040782.413   -52332747.91807 -40740777.65747        49.000
        37.000
  20359406.162    20359403.633   -68231296.20307 -53123455.05647        50.000
        40.000
  22102162.421    22102160.136   -27420925.34006 -21259006.52147        47.000
        35.000
  22809060.379    22809058.279   -96106646.37906 -74779267.08346        43.000
        25.000
  22998280.805    22998275.958   -30617681.72306 -23746563.41246        44.000
        29.000
  24537749.316    24537762.972    -2778427.51205  -2117755.39946        42.000
        24.000
  24733818.457                      -67552.37900          .00051        32.000

  20105977.937    20105974.152   -68459372.76207 -53318503.64647        50.000
        41.000
  24109799.553    24109809.286   -71345251.51605 -55573120.85646        40.000
        25.000
 13 12 10 16  2 50.0000000  0  9G10G04G07G20G02G08G09G13G17
  21035348.766    21035345.656   -52361317.43007 -40763039.60947        48.000
        36.000
  20355604.516    20355602.018   -68251272.77007 -53139021.21147        50.000
        40.000
  22095703.063    22095700.897   -27454868.35207 -21285455.60947        48.000
        35.000
  22807867.042    22807864.749   -96112918.83606 -74784154.73346        43.000
        26.000
  22991719.705    22991714.545   -30652161.59006 -23773430.84046        44.000
        29.000
  24530702.075    24530715.324    -2815458.33205  -2146610.19246        41.000
        22.000
  24726345.077                     -106827.61701          .00051        33.000

  20102907.327    20102903.598   -68475509.77007 -53331077.93247        50.000
        41.000
  24108971.949    24108981.209   -71349604.12105 -55576512.68646        40.000
        26.000
 13 12 10 16  2 55.0000000  0  9G10G04G07G20G02G08G09G13G17
  21029913.544    21029910.413   -52389880.42607 -40785296.48747        49.000
        36.000
  20351806.824    20351803.809   -68271232.91007 -53154574.56847        50.000
        40.000
  22089245.826    22089243.702   -27488802.76207 -21311897.99947        48.000
        35.000
  22806674.119    22806672.092   -96119186.33606 -74789038.48146        43.000
        26.000
  22985159.473    22985155.082   -30686633.84006 -23800292.30346        44.000
        29.000
  24523654.820    24523668.716    -2852489.30105  -2175465.20146        41.000
        22.000
  24718870.622                     -146104.03502          .00051        35.000

  20099838.208    20099834.827   -68491634.64807 -53343642.77247        50.000
        41.000
  24108142.548    24108153.215   -71353955.43005 -55579903.52046        40.000
        26.000
 13 12 10 16  3  0.0000000  0  9G10G04G07G20G02G08G09G13G17
  21024479.488    21024476.322   -52418436.88307 -40807548.26847        49.000
        36.000
  20348011.619    20348008.753   -68291176.61707 -53170115.10347        51.000
        40.000
  22082789.645    22082787.579   -27522728.52707 -21338333.64847        48.000
        35.000
  22805482.699    22805480.214   -96125448.81606 -74793918.34446        43.000
        26.000
  22978601.012    22978596.660   -30721098.46906 -23827147.86246        44.000
        29.000
  24516607.274    24516621.054    -2889520.42205  -2204320.28146        40.000
        22.000
  24711396.057                     -185381.52002          .00051        35.000

  20096772.274    20096768.661   -68507747.45707 -53356198.20547        50.000
        41.000
  24107315.938    24107325.852   -71358305.37505 -55583293.29246        40.000
        24.000
 13 12 10 16  3  5.0000000  0  9G10G04G07G20G02G08G09G13G17
  21019046.114    21019043.499   -52446986.85207 -40829794.99147        49.000
        36.000
  20344219.387    20344216.695   -68311103.93807 -53185642.88447        51.000
        40.000
  22076335.005    22076333.534   -27556645.77706 -21364762.64147        47.000
        35.000
  22804291.730    22804289.892   -96131706.48406 -74798794.47946        43.000
        25.000
  22972044.261    22972040.140   -30755555.55906 -23853997.51646        44.000
        29.000
  24509560.413    24509574.333    -2926551.75405  -2233175.54446        41.000
        22.000
  24703921.072                     -224660.27003          .00051        36.000

  20093709.157    20093705.008   -68523848.28507 -53368744.30747        50.000
        41.000
  24106488.715    24106498.354   -71362654.07805 -55586682.08646        40.000
        25.000
 13 12 10 16  3 10.0000000  0  9G10G04G07G20G02G08G09G13G17
  21013614.451    21013611.771   -52475530.32807 -40852036.64947        49.000
        37.000
  20340430.717    20340427.629   -68331014.85207 -53201157.88247        51.000
        40.000
  22069882.941    22069881.087   -27590554.42206 -21391184.93447        47.000
        35.000
  22803102.191    22803099.341   -96137959.24605 -74803666.77246        41.000
        25.000
  22965488.774    22965484.259   -30790005.07406 -23880841.28846        44.000
        29.000
  24502513.763    24502526.880    -2963583.28105  -2262030.97546        41.000
        21.000
  24696446.049                     -263940.09003          .00051        37.000

  20090647.204    20090643.163   -68539937.10207 -53381281.03647        50.000
        40.000
  24105661.129    24105671.216   -71367001.50405 -55590069.92146        40.000
        24.000
 13 12 10 16  3 15.0000000  0  9G10G04G07G20G02G08G09G13G17
  21008184.552    21008181.374   -52504067.21907 -40874273.19247        49.000
        37.000
  20336644.542    20336641.862   -68350909.33607 -53216660.06947        51.000
        41.000
  22063431.507    22063430.289   -27624454.36707 -21417600.43247        48.000
        35.000
  22801913.552    22801910.649   -96144207.00806 -74808535.15746        43.000
        25.000
  22958934.543    22958929.748   -30824446.89506 -23907679.04746        44.000
        29.000
  24495466.087    24495479.459    -3000614.91805  -2290886.43746        41.000
        21.000
  24688970.540                     -303221.04704          .00051        39.000

  20087587.898    20087583.757   -68556013.82007 -53393808.34947        50.000
        40.000
  24104834.172    24104844.442   -71371347.68505 -55593456.73246        40.000
        23.000
 13 12 10 16  3 20.0000000  0  9G10G04G07G20G02G08G09G13G17
  21002755.539    21002752.336   -52532597.43807 -40896504.53047        49.000
        37.000
  20332862.134    20332858.782   -68370787.25407 -53232149.35847        51.000
        41.000
  22056982.749    22056980.859   -27658345.56307 -21444009.13647        48.000
        35.000
  22800724.959    22800722.643   -96150449.75405 -74813399.64846        42.000
        25.000
  22952381.757    22952377.083   -30858880.98006 -23934510.80346        44.000
        29.000
  24488419.625    24488432.428    -3037646.57405  -2319741.99046        41.000
        22.000
  24681495.235                     -342502.94904          .00051        39.000

  20084530.800    20084527.093   -68572078.41807 -53406326.20947        50.000
        40.000
  24104008.409    24104017.764   -71375692.41404 -55596842.47046        39.000
        25.000
 13 12 10 16  3 25.0000000  0  9G10G04G07G20G02G08G09G13G17
  20997327.331    20997324.384   -52561121.08207 -40918730.73447        48.000
        37.000
  20329082.433    20329079.423   -68390648.73007 -53247625.82747        51.000
        40.000
  22050535.030    22050533.061   -27692228.05507 -21470411.06447        48.000
        35.000
  22799538.283    22799535.404   -96156687.54705 -74818260.24246        42.000
        26.000
  22945830.735    22945825.884   -30893307.39106 -23961336.55946        45.000
        29.000
  24481371.238    24481385.082    -3074678.33605  -2348597.54546        41.000
        22.000
  24674019.582                     -381785.90204          .00051        39.000

  20081476.090    20081472.484   -68588130.94907 -53418834.67247        50.000
        40.000
  24103181.516    24103191.865   -71380035.91005 -55600227.26246        40.000
        23.000
 13 12 10 16  3 30.0000000  0  9G10G04G07G20G02G08G09G13G17
  21291694.315    21291691.409   -52589632.50807 -40940947.42247        48.000
        37.000
  20625099.269    20625096.195   -68410489.87507 -53263086.45447        51.000
        40.000
  22343882.577    22343880.474   -27726095.12907 -21496800.97747        48.000
        36.000
  23098145.534    23098141.997   -96162919.21105 -74823116.10446        42.000
        26.000
  23239075.151    23239070.262   -30927719.28906 -23988151.03346        45.000
        29.000
  24774119.296    24774131.499    -3111702.82005  -2377447.52146        42.000
        21.000
  24966337.471                     -421062.09805          .00051        41.000

  20378216.389    20378212.978   -68604168.28907 -53431331.29647        50.000
        41.000
  24402148.362    24402158.327   -71384377.34405 -55603610.36546        40.000
        24.000
 13 12 10 16  3 35.0000000  0  9G10G04G07G20G02G08G09G13G17
  21286268.937    21286265.978   -52618143.05907 -40963163.44247        49.000
        37.000
  20621326.206    20621323.242   -68430318.62107 -53278537.42247        51.000
        40.000
  22337438.259    22337435.999   -27759960.26607 -21523189.38147        48.000
        35.000
  23096960.032    23096956.672   -96169147.21905 -74827969.09746        42.000
        25.000
  23232526.992    23232521.836   -30962130.42206 -24014964.91546        45.000
        30.000
  24767071.672    24767084.506    -3148734.82005  -2406303.30646        41.000
        22.000
  24958861.979    24958879.231     -460347.25005   -314979.52346        41.000
        23.000
  20375166.637    20375162.940   -68620196.85507 -53443821.08547        50.000
        40.000
  24401322.197    24401332.165   -71388718.42205 -55606993.25246        40.000
        25.000
 13 12 10 16  3 40.0000000  0  9G10G04G07G20G02G08G09G13G17
  21280844.821    21280842.002   -52646647.12906 -40985374.40747        47.000
        37.000
  20617555.863    20617553.136   -68450130.98807 -53293975.62947        51.000
        40.000
  22330995.786    22330993.385   -27793816.74206 -21549571.04047        46.000
        35.000
  23095775.771    23095772.617   -96175370.34806 -74832818.29546        43.000
        24.000
  23225980.205    23225975.137   -30996533.93006 -24041772.80646        45.000
        29.000
  24760023.943    24760037.464    -3185766.98005  -2435159.17746        41.000
        22.000
  24951385.087    24951403.414     -499633.44505   -345591.68146        41.000
        23.000
  20372118.789    20372115.013   -68636213.48807 -53456301.56447        50.000
        40.000
  24400496.117    24400506.788   -71393058.38304 -55610375.27246        39.000
        25.000
 13 12 10 16  3 45.0000000  0  9G10G04G07G20G02G08G09G13G17
  21275421.796    21275419.084   -52675144.57407 -41007580.19647        48.000
        37.000
  20613788.895    20613786.062   -68469926.84007 -53309400.97247        52.000
        40.000
  22324554.334    22324552.533   -27827664.48806 -21575945.87047        47.000
        35.000
  23094592.404    23094588.912   -96181588.49206 -74837663.59446        44.000
        25.000
  23219434.871    23219429.830   -31030929.67206 -24068574.69146        44.000
        30.000
  24752977.314    24752990.036    -3222799.14505  -2464015.08246        42.000
        22.000
  24943909.073    24943927.627     -538920.66805   -376204.62646        41.000
        24.000
  20369073.098    20369069.732   -68652218.05507 -53468772.66147        51.000
        40.000
  24399669.670    24399681.246   -71397397.05504 -55613756.28546        38.000
        24.000
 13 12 10 16  3 50.0000000  0  9G10G04G07G20G02G08G09G13G17
  21270000.106    21269997.613   -52703635.25807 -41029780.72047        48.000
        37.000
  20610024.922    20610021.905   -68489705.98007 -53324813.29047        51.000
        40.000
  22318115.158    22318113.192   -27861503.27006 -21602313.72447        47.000
        36.000
  23093410.488    23093406.703   -96187801.49206 -74842504.90446        43.000
        26.000
  23212891.049    23212886.391   -31065317.44106 -24095370.33646        45.000
        29.000
  24745929.608    24745942.582    -3259831.13705  -2492870.88146        41.000
        22.000
  24936431.877    24936450.927     -578208.68405   -406818.18846        41.000
        25.000
  20366030.064    20366026.098   -68668210.37507 -53481234.21547        50.000
        40.000
  24398845.679    24398856.126   -71401734.30104 -55617136.18346        38.000
        24.000
 13 12 10 16  3 55.0000000  0  9G10G04G07G20G02G08G09G13G17
  21264580.086    21264576.980   -52732119.44107 -41051976.18447        48.000
        37.000
  20606264.379    20606261.549   -68509468.77707 -53340212.86047        51.000
        40.000
  22311677.609    22311675.239   -27895333.35906 -21628674.79347        47.000
        35.000
  23092228.363    23092225.846   -96194009.64506 -74847342.43246        44.000
        26.000
  23206348.831    23206343.560   -31099697.55506 -24122160.03646        45.000
        29.000
  24738882.207    24738895.149    -3296863.25405  -2521726.76146        42.000
        21.000
  24928955.289    24928974.526     -617497.77005   -437432.59046        41.000
        24.000
  20362988.898    20362985.095   -68684190.82007 -53493686.49647        50.000
        40.000
  24398021.556    24398031.006   -71406070.42605 -55620515.21846        40.000
        25.000
 13 12 10 16  4  0.0000000  0  9G10G04G07G20G02G08G09G13G17
  21259161.017    21259158.289   -52760596.94507 -41074166.44547        49.000
        36.000
  20602506.662    20602503.721   -68529215.08207 -53355599.59147        51.000
        40.000
  22305241.523    22305239.738   -27929154.59007 -21655028.97547        48.000
        35.000
  23091048.504    23091045.182   -96200212.75406 -74852176.01146        44.000
        26.000
  23199807.858    23199803.022   -31134069.86706 -24148943.62946        44.000
        29.000
  24731835.238    24731848.070    -3333895.31305  -2550582.57646        42.000
        22.000
  24921478.457    24921497.761     -656787.77005   -468047.73546        42.000
        25.000
  20359950.270    20359946.654   -68700159.18007 -53506129.36847        50.000
        40.000
  24397196.266    24397206.201   -71410405.30505 -55623893.27746        40.000
        25.000
 13 12 10 16  4  5.0000000  0  9G10G04G07G20G02G08G09G13G17
  21253743.035    21253740.179   -52789068.09807 -41096351.74847        49.000
        36.000
  20598752.199    20598748.896   -68548945.11307 -53370973.63547        51.000
        40.000
  22298807.412    22298805.027   -27962967.21907 -21681376.46947        48.000
        36.000
  23089868.463    23089865.691   -96206411.14806 -74857005.96246        44.000
        26.000
  23193268.619    23193263.907   -31168434.58206 -24175721.31146        44.000
        29.000
  24724788.217    24724800.309    -3370927.59805  -2579438.61746        42.000
        21.000
  24914000.818    24914020.085     -696078.97305   -498663.75046        41.000
        26.000
  20356913.841    20356910.310   -68716115.72307 -53518563.02747        50.000
        41.000
  24396371.144    24396381.634   -71414739.26605 -55627270.59446        40.000
        24.000
 13 12 10 16  4 10.0000000  0  9G10G04G07G20G02G08G09G13G17
  21248326.540    21248323.446   -52817532.71507 -41118531.95147        49.000
        36.000
  20595000.668    20594998.051   -68568658.74207 -53386334.90847        51.000
        40.000
  22292374.493    22292372.514   -27996771.07807 -21707717.13247        49.000
        36.000
  23088690.492    23088686.937   -96212604.73406 -74861832.11646        44.000
        26.000
  23186730.733    23186726.155   -31202791.62506 -24202493.01946        44.000
        30.000
  24717741.419    24717753.040    -3407959.93805  -2608294.69946        42.000
        21.000
  24906523.655    24906542.339     -735371.21105   -529280.58046        41.000
        25.000
  20353879.771    20353875.925   -68732060.40207 -53530987.44947        50.000
        41.000
  24395547.073    24395557.254   -71419072.13305 -55630647.09046        40.000
        25.000
 13 12 10 16  4 15.0000000  0  9G10G04G07G20G02G08G09G13G17
  21242911.078    21242907.954   -52845990.61707 -41140706.94347        49.000
        36.000
  20591252.275    20591249.438   -68588355.78107 -53401683.24847        51.000
        40.000
  22285943.481    22285941.549   -28030566.03107 -21734050.83647        48.000
        35.000
  23087512.542    23087509.383   -96218793.25406 -74866654.37746        44.000
        26.000
  23180193.650    23180189.311   -31237140.73006 -24229258.55646        44.000
        30.000
  24710694.135    24710705.199    -3444992.18406  -2637150.67946        43.000
        22.000
  24899046.303    24899064.923     -774664.30505   -559898.09346        40.000
        23.000
  20350847.930    20350844.101   -68747992.97707 -53543402.44447        50.000
        41.000
  24394722.755    24394733.121   -71423403.77705 -55634022.59546        40.000
        25.000
 13 12 10 16  4 20.0000000  0  9G10G04G07G20G02G08G09G13G17
  21237496.759    21237493.996   -52874442.01207 -41162876.85347        49.000
        37.000
  20587507.509    20587504.623   -68608036.47707 -53417018.85447        51.000
        40.000
  22279514.281    22279512.107   -28064352.23807 -21760377.72247        48.000
        36.000
  23086335.264    23086333.059   -96224977.00006 -74871472.89446        44.000
        27.000
  23173658.840    23173653.993   -31271482.12506 -24256018.06546        44.000
        29.000
  24703646.956    24703658.447    -3482024.43405  -2666006.71146        42.000
        22.000
  24891568.390    24891587.067     -813958.42605   -590516.40746        40.000
        23.000
  20347818.180    20347814.761   -68763913.64507 -53555808.14947        49.000
        40.000
  24393899.256    24393909.701   -71427734.41005 -55637397.38046        40.000
        23.000
 13 12 10 16  4 25.0000000  0  9G10G04G07G20G02G08G09G13G17
  21232083.891    21232080.888   -52902887.01207 -41185041.79147        48.000
        37.000
  20583765.283    20583762.663   -68627700.93007 -53432341.79447        51.000
        40.000
  22273086.597    22273084.738   -28098129.83606 -21786697.90547        47.000
        35.000
  23085159.575    23085157.306   -96231156.04706 -74876287.71146        44.000
        24.000
  23167125.789    23167120.394   -31305815.90606 -24282771.66546        44.000
        30.000
  24696599.606    24696611.340    -3519056.89105  -2694862.91046        42.000
        22.000
  24884090.379    24884108.731     -853253.68404   -621135.63246        39.000
        24.000
  20344791.086    20344787.179   -68779822.55507 -53568204.70947        50.000
        41.000
  24393075.406    24393085.794   -71432064.12905 -55640771.40646        40.000
        25.000
 13 12 10 16  4 30.0000000  0  9G10G04G07G20G02G08G09G13G17
  21226672.266    21226669.122   -52931325.70307 -41207201.80047        49.000
        37.000
  20580026.679    20580023.666   -68647349.21107 -53447652.14347        51.000
        40.000
  22266660.671    22266658.736   -28131898.87507 -21813011.41047        48.000
        36.000
  23083984.680    23083981.844   -96237330.46906 -74881098.97046        43.000
        26.000
  23160593.096    23160588.025   -31340142.15606 -24309519.37146        45.000
        30.000
  24689552.373    24689564.183    -3556089.59805  -2723719.24646        41.000
        23.000
  24876612.095    24876630.250     -892550.19105   -651755.82346        40.000
        22.000
  20341765.473    20341761.912   -68795719.83607 -53580592.19247        50.000
        41.000
  24392251.402    24392262.528   -71436393.12504 -55644144.86646        39.000
        25.000
 13 12 10 16  4 35.0000000  0  9G10G04G07G20G02G08G09G13G17
  21221262.005    21221258.947   -52959757.71107 -41229356.61147        48.000
        37.000
  20576290.719    20576287.621   -68666980.99207 -53462949.63347        51.000
        40.000
  22260236.299    22260234.031   -28165659.03506 -21839318.01747        47.000
        36.000
  23082811.097    23082808.314   -96243499.97706 -74885906.35746        44.000
        26.000
  23154063.102    23154057.653   -31374460.47706 -24336260.91746        45.000
        30.000
  24682504.411    24682517.071    -3593122.28105  -2752575.48846        41.000
        22.000
  24869133.691    24869152.192     -931847.57005   -682376.66946        40.000
        22.000
  20338742.626    20338739.289   -68811605.12507 -53592970.32547        50.000
        41.000
  24391428.846    24391438.827   -71440721.07404 -55647517.52746        39.000
        25.000
 13 12 10 16  4 40.0000000  0  9G10G04G07G20G02G08G09G13G17
  21215852.725    21215849.734   -52988183.10207 -41251506.25347        48.000
        37.000
  20572557.969    20572555.205   -68686596.28507 -53478234.27147        51.000
        40.000
  22253813.446    22253811.942   -28199410.29307 -21865617.68047        48.000
        36.000
  23081637.852    23081634.854   -96249664.52006 -74890709.93046        44.000
        25.000
  23147533.959    23147528.452   -31408770.91406 -24362996.30946        44.000
        29.000
  24675457.127    24675469.432    -3630154.82005  -2781431.82046        42.000
        22.000
  24861655.493    24861673.999     -971145.78905   -712998.20946        41.000
        22.000
  20335722.574    20335718.714   -68827478.45307 -53605339.15847        50.000
        41.000
  24390606.242    24390615.401   -71445047.86305 -55650889.32946        41.000
        26.000
 13 12 10 16  4 45.0000000  0  9G10G04G07G20G02G08G09G13G17
  21210444.438    21210441.557   -53016602.06607 -41273650.89747        48.000
        37.000
  20568828.325    20568825.325   -68706195.28507 -53493506.21347        51.000
        40.000
  22247392.853    22247390.972   -28233152.86706 -21891910.58347        47.000
        36.000
  23080465.217    23080462.672   -96255824.35206 -74895509.82146        44.000
        25.000
  23141006.278    23141000.430   -31443073.72306 -24389725.77246        44.000
        30.000
  24668409.916    24668422.130    -3667187.51605  -2810288.06946        41.000
        22.000
  24854176.283    24854195.392    -1010445.14505   -743620.59346        40.000
        22.000
  20332704.062    20332700.401   -68843340.04707 -53617698.83247        50.000
        41.000
  24389781.979    24389792.913   -71449373.87904 -55654260.46546        38.000
        24.000
 13 12 10 16  4 50.0000000  0  9G10G04G07G20G02G08G09G13G17
  21205038.039    21205035.003   -53045014.70707 -41295790.61347        49.000
        37.000
  20565102.005    20565099.154   -68725778.17607 -53508765.61747        50.000
        40.000
  22240973.233    22240971.048   -28266886.87507 -21918196.79647        48.000
        36.000
  23079294.602    23079291.229   -96261979.60506 -74900306.13346        43.000
        25.000
  23134479.947    23134474.367   -31477369.03506 -24416449.39646        43.000
        30.000
  24661362.789    24661374.818    -3704220.42605  -2839144.63146        41.000
        23.000
  24846697.747    24846715.771    -1049745.66405   -774243.94746        40.000
        22.000
  20329687.643    20329684.312   -68859190.04307 -53630049.47447        50.000
        40.000
  24388959.186    24388970.042   -71453699.21904 -55657631.08846        39.000
        25.000
 13 12 10 16  4 55.0000000  0  9G10G04G07G20G02G08G09G13G17
  21199632.336    21199629.572   -53073421.14507 -41317925.48447        49.000
        37.000
  20561378.148    20561375.537   -68745345.05907 -53524012.54247        49.000
        41.000
  22234554.901    22234553.145   -28300612.37506 -21944476.40647        47.000
        35.000
  23078123.821    23078120.856   -96268130.44906 -74905099.00346        43.000
        25.000
  23127955.382    23127949.995   -31511656.88706 -24443167.17946        43.000
        29.000
  24654315.422    24654326.921    -3741253.62105  -2868001.35046        41.000
        23.000
  24839218.974    24839236.152    -1089047.46905   -804868.28546        40.000
        22.000
  20326673.432    20326670.176   -68875028.58207 -53642391.19047        50.000
        40.000
  24388136.411    24388147.141   -71458023.95304 -55661001.27746        39.000
        26.000
 13 12 10 16  5  0.0000000  0  9G10G04G07G20G02G08G09G13G17
  21194228.206    21194225.175   -53101821.16807 -41340055.37947        49.000
        38.000
  20557658.020    20557655.228   -68764895.64507 -53539246.76047        49.000
        41.000
  22228139.196    22228137.005   -28334329.21106 -21970749.22447        46.000
        35.000
  23076954.300    23076951.138   -96274276.60506 -74909888.20046        44.000
        26.000
  23121432.188    23121426.682   -31545937.08606 -24469879.01646        43.000
        29.000
  24647267.640    24647279.265    -3778286.93405  -2896858.19146        41.000
        23.000
  24831738.531    24831756.597    -1128350.35905   -835493.46446        40.000
        23.000
  20323662.277    20323658.262   -68890855.42607 -53654723.79347        50.000
        40.000
  24387314.001    24387324.495   -71462347.91004 -55664370.82946        38.000
        26.000
 13 12 10 16  5  5.0000000  0  9G10G04G07G20G02G08G09G13G17
  21188824.942    21188822.204   -53130214.41007 -41362179.97547        49.000
        37.000
  20553940.722    20553937.980   -68784429.60507 -53554468.03147        50.000
        41.000
  22221724.932    22221722.270   -28368036.97306 -21997014.97947        47.000
        35.000
  23075786.120    23075782.927   -96280417.70306 -74914673.47946        44.000
        27.000
  23114910.431    23114905.172   -31580209.24206 -24496584.55946        44.000
        29.000
  24640220.420    24640231.917    -3815319.98405  -2925714.86146        41.000
        23.000
  24824259.576    24824276.885    -1167653.92205   -866119.11146        40.000
        23.000
  20320652.719    20320648.680   -68906670.26607 -53667047.03847        50.000
        41.000
  24386492.153    24386502.042   -71466670.78104 -55667739.52446        39.000
        26.000
 13 12 10 16  5 10.0000000  0  9G10G04G07G20G02G08G09G13G17
  21183423.219    21183420.405   -53158601.12106 -41384299.48247        47.000
        37.000
  20550226.785    20550224.182   -68803947.19907 -53569676.54447        50.000
        40.000
  22215312.233    22215309.736   -28401735.89106 -22023273.86747        46.000
        36.000
  23074618.161    23074615.283   -96286554.04306 -74919455.05546        44.000
        26.000
  23108390.099    23108385.257   -31614473.57406 -24523284.01946        43.000
        30.000
  24633173.023    24633184.267    -3852353.03905  -2954571.46546        41.000
        22.000
  24816779.636    24816797.357    -1206958.47305   -896745.57746        40.000
        23.000
  20317645.250    20317641.476   -68922473.29707 -53679361.07747        50.000
        41.000
  24385669.196    24385679.526   -71470992.76205 -55671107.55346        40.000
        27.000
 13 12 10 16  5 15.0000000  0  9G10G04G07G20G02G08G09G13G17
  21178022.419    21178019.584   -53186981.15207 -41406413.78447        48.000
        37.000
  20546515.827    20546512.810   -68823448.32007 -53584872.21947        50.000
        40.000
  22208901.529    22208899.139   -28435425.86707 -22049525.77247        48.000
        36.000
  23073451.406    23073448.396   -96292685.43006 -74924232.75846        44.000
        27.000
  23101870.801    23101866.101   -31648729.96906 -24549977.31246        44.000
        29.000
  24626126.694    24626136.931    -3889385.90605  -2983427.95846        42.000
        22.000
  24809300.536    24809317.267    -1246263.80504   -927372.59546        39.000
        23.000
  20314640.401    20314636.525   -68938264.42607 -53691665.85247        50.000
        41.000
  24384847.184    24384857.406   -71475313.85504 -55674474.91746        39.000
        25.000
 13 12 10 16  5 20.0000000  0  9G10G04G07G20G02G08G09G13G17
  21172623.179    21172620.390   -53215354.62907 -41428522.97747        49.000
        38.000
  20542808.226    20542805.408   -68842933.10207 -53600055.16247        50.000
        40.000
  22202492.178    22202489.671   -28469106.99207 -22075770.79747        48.000
        36.000
  23072285.397    23072282.970   -96298812.01206 -74929006.74346        44.000
        26.000
  23095354.083    23095348.587   -31682978.55106 -24576664.51146        44.000
        30.000
  24619078.338    24619089.158    -3926418.72705  -3012284.40346        41.000
        21.000
  24801819.446    24801837.217    -1285570.02304   -958000.38346        39.000
        23.000
  20311637.218    20311633.830   -68954043.80107 -53703961.46847        50.000
        40.000
  24384024.989    24384035.480   -71479634.10505 -55677841.56146        40.000
        26.000
 13 12 10 16  5 25.0000000  0  9G10G04G07G20G02G08G09G13G17
  21167225.203    21167222.354   -53243721.58607 -41450627.09647        48.000
        38.000
  20539103.470    20539100.635   -68862401.53507 -53615225.37547        50.000
        41.000
  22196084.040    22196082.023   -28502779.31306 -22102008.95847        47.000
        36.000
  23071120.746    23071117.712   -96304933.89506 -74933777.05046        44.000
        24.000
  23088838.201    23088832.215   -31717219.32006 -24603345.62946        44.000
        29.000
  24612031.197    24612042.543    -3963451.52705  -3041140.86246        42.000
        21.000
  24794339.525    24794356.840    -1324877.22705   -988628.92446        40.000
        23.000
  20308637.332    20308633.385   -68969811.44907 -53716247.95047        50.000
        40.000
  24383203.163    24383213.852   -71483953.56605 -55681207.64146        40.000
        27.000
 13 12 10 16  5 30.0000000  0  9G10G04G07G20G02G08G09G13G17
  21161828.729    21161825.693   -53272081.96506 -41472726.08347        47.000
        38.000
  20535401.879    20535399.036   -68881853.55507 -53630382.79147        50.000
        41.000
  22189677.707    22189675.962   -28536442.71906 -22128240.16147        46.000
        36.000
  23069956.615    23069953.730   -96311050.96506 -74938543.60446        44.000
        25.000
  23082324.136    23082318.353   -31751452.23406 -24630020.60846        43.000
        29.000
  24604984.619    24604995.371    -4000484.24205  -3069997.20646        41.000
        21.000
  24786859.291    24786876.272    -1364185.32005  -1019258.15946        40.000
        24.000
  20305638.825    20305634.969   -68985567.31607 -53728525.24047        50.000
        41.000
  24382381.788    24382392.643   -71488272.21504 -55684573.05946        39.000
        24.000
 13 12 10 16  5 35.0000000  0  9G10G04G07G20G02G08G09G13G17
  21156432.914    21156430.039   -53300435.79307 -41494819.97747        48.000
        37.000
  20531703.355    20531700.328   -68901289.19107 -53645527.43247        50.000
        41.000
